{"pageProps":{"owners":[{"_id":"74020","landId":"74020","ownerId":"100506","allTrue":false,"exemptions":[{"name":"EMPTY","description":"No Tax Exemption Listed."}],"nameDeedSame":true,"addressSame":false,"name":"ALAMO MANUEL","deed":"ALAMO MANUEL","physicalAddress":"empty","physicalCity":"","physicalState":"","physicalZip":"","mailingAddress":"PO BOX 152605","mailingCity":"LUFKIN","mailingState":"TX","mailingZip":"75915","ownership":"100.0000000000%","showOwnerProperty":false,"ownerProperty":[{"propertyId":"74020","propertyAddress":"empty","name":"ALAMO MANUEL","price":"$13,240","territory":"50","inTerritory":true}],"improvements":[],"lands":[{"landType":"RESIDENTIAL","acres":"0.2618","sqft":"11405.00","marketValue":"$12,900","prodValue":"$0"},{"landType":"RESIDENTIAL","acres":"0.0698","sqft":"3040.00","marketValue":"$340","prodValue":"$0"}],"coordinates":{"id":"74020","lat":"31.313181","lng":"-94.753720"},"thumbnail":"74020","error":false,"urlOwnerDetails":"https://propaccess.trueautomation.com/clientdb/Property.aspx?cid=71&prop_id=74020","urlLandMap":"https://propaccess.trueautomation.com/mapSearch/?cid=71&p=74020","territoryNumber":"50","phoneNumbers":[{"_id":"","name":"","contacts":[{"phoneNumber":"","address":""}]}]},{"_id":"61467","landId":"61467","ownerId":"140102","allTrue":true,"exemptions":[{"name":"HS","description":"Homestead. (The person on the deed lives at this address.)"}],"nameDeedSame":true,"addressSame":true,"name":"ALDAVA ANGELA COLLEEN","deed":"ALDAVA ANGELA COLLEEN","physicalAddress":"1521 TURTLE CREEK DR","physicalCity":"LUFKIN","physicalState":"TX","physicalZip":"75904","mailingAddress":"1521 TURTLE CREEK DR","mailingCity":"LUFKIN","mailingState":"TX","mailingZip":"75904","ownership":"100.0000000000%","showOwnerProperty":false,"ownerProperty":[{"propertyId":"61467","propertyAddress":"1521 TURTLE CREEK DR LUFKIN, TX 75904-4315","name":"ALDAVA ANGELA COLLEEN","price":"$91,910","territory":"50","inTerritory":true}],"improvements":[{"id":0,"improvement":"RESIDENTIAL","livingArea":"1200.0 sqft","value":"$77,210","details":[{"id":0,"description":"MAIN AREA","yearBuild":"1968","sqft":"1200.0"},{"id":0,"description":"CARPORT","yearBuild":"1968","sqft":"342.0"},{"id":0,"description":"MASONRY UTILITY","yearBuild":"1968","sqft":"108.0"},{"id":0,"description":"WOOD DECK","yearBuild":"1968","sqft":"192.0"}]}],"lands":[{"landType":"RESIDENTIAL","acres":"0.2755","sqft":"12000.00","marketValue":"$14,700","prodValue":"$0"}],"coordinates":{"id":"61467","lat":"31.315297","lng":"-94.756659"},"thumbnail":"61467","error":false,"urlOwnerDetails":"https://propaccess.trueautomation.com/clientdb/Property.aspx?cid=71&prop_id=61467","urlLandMap":"https://propaccess.trueautomation.com/mapSearch/?cid=71&p=61467","territoryNumber":"50","phoneNumbers":[{"_id":"","name":"","contacts":[{"phoneNumber":"","address":""}]}]},{"_id":"74025","landId":"74025","ownerId":"148019","allTrue":true,"exemptions":[{"name":"HS","description":"Homestead. (The person on the deed lives at this address.)"}],"nameDeedSame":true,"addressSame":true,"name":"ALVARADO JULIO ETUX LIDIA","deed":"ALVARADO JULIO ETUX LIDIA","physicalAddress":"102 RAINTREE CT","physicalCity":"LUFKIN","physicalState":"TX","physicalZip":"75904","mailingAddress":"102 RAINTREE CT","mailingCity":"LUFKIN","mailingState":"TX","mailingZip":"75904","ownership":"100.0000000000%","showOwnerProperty":false,"ownerProperty":[{"propertyId":"74025","propertyAddress":"102 RAINTREE CT LUFKIN, TX 75904-5470","name":"ALVARADO JULIO ETUX LIDIA","price":"$95,050","territory":"50","inTerritory":true}],"improvements":[{"id":0,"improvement":"RESIDENTIAL","livingArea":"1129.0 sqft","value":"$85,550","details":[{"id":0,"description":"MAIN AREA","yearBuild":"1998","sqft":"1129.0"},{"id":0,"description":"OPEN BRICK PORCH","yearBuild":"1998","sqft":"74.0"},{"id":0,"description":"GARAGE BRICK/MAS","yearBuild":"1998","sqft":"407.0"}]}],"lands":[{"landType":"RESIDENTIAL","acres":"0.2204","sqft":"9600.00","marketValue":"$9,500","prodValue":"$0"}],"coordinates":{"id":"74025","lat":"31.314215","lng":"-94.753808"},"thumbnail":"74025","error":false,"urlOwnerDetails":"https://propaccess.trueautomation.com/clientdb/Property.aspx?cid=71&prop_id=74025","urlLandMap":"https://propaccess.trueautomation.com/mapSearch/?cid=71&p=74025","territoryNumber":"50","phoneNumbers":[{"_id":"","name":"","contacts":[{"phoneNumber":"","address":""}]}]},{"_id":"74026","landId":"74026","ownerId":"35228","allTrue":false,"exemptions":[{"name":"EMPTY","description":"No Tax Exemption Listed."}],"nameDeedSame":true,"addressSame":false,"name":"ANGELINA PROPERTIES LLC","deed":"ANGELINA PROPERTIES LLC","physicalAddress":"106/108 RAINTREE CT","physicalCity":"","physicalState":"","physicalZip":"","mailingAddress":"4145 POWELL RD","mailingCity":"POWELL","mailingState":"OH","mailingZip":"43065","ownership":"100.0000000000%","showOwnerProperty":false,"ownerProperty":[{"propertyId":"74026","propertyAddress":"106/108 RAINTREE CT","name":"ANGELINA PROPERTIES LLC","price":"$156,210","territory":"50","inTerritory":true}],"improvements":[{"id":0,"improvement":"RESIDENTIAL","livingArea":"2795.0 sqft","value":"$129,420","details":[{"id":0,"description":"MAIN AREA","yearBuild":"1987","sqft":"2795.0"},{"id":0,"description":"OPEN BRICK PORCH","yearBuild":"1987","sqft":"75.0"},{"id":0,"description":"OPEN BRICK PORCH","yearBuild":"1987","sqft":"75.0"}]}],"lands":[{"landType":"APARTMENT","acres":"0.2204","sqft":"9600.00","marketValue":"$12,390","prodValue":"$0"}],"coordinates":{"id":"74026","lat":"31.314011","lng":"-94.753714"},"thumbnail":"74026","error":false,"urlOwnerDetails":"https://propaccess.trueautomation.com/clientdb/Property.aspx?cid=71&prop_id=74026","urlLandMap":"https://propaccess.trueautomation.com/mapSearch/?cid=71&p=74026","territoryNumber":"50","phoneNumbers":[{"_id":"e4108a2b7701b6eea4199e93807f28af","name":"Angelina Propane","contacts":[{"phoneNumber":"936-634-2268","address":"1404 N Raguet Lufkin\n"},{"phoneNumber":"936-634-4942","address":"1404 N Raguet Lufkin\n"}]}]},{"_id":"74014","landId":"74014","ownerId":"168070","allTrue":false,"exemptions":[{"name":"EMPTY","description":"No Tax Exemption Listed."}],"nameDeedSame":true,"addressSame":false,"name":"ASIF AMBREEN","deed":"ASIF AMBREEN","physicalAddress":"102 BARBERRY","physicalCity":"","physicalState":"","physicalZip":"","mailingAddress":"102 BARBERRY LANE","mailingCity":"LUFKIN","mailingState":"TX","mailingZip":"75904","ownership":"100.0000000000%","showOwnerProperty":false,"ownerProperty":[{"propertyId":"74014","propertyAddress":"102 BARBERRY","name":"ASIF AMBREEN","price":"$109,230","territory":"50","inTerritory":true}],"improvements":[{"id":0,"improvement":"RESIDENTIAL","livingArea":"1148.0 sqft","value":"$95,410","details":[{"id":0,"description":"MAIN AREA","yearBuild":"1991","sqft":"1148.0"},{"id":0,"description":"GARAGE BRICK/MAS","yearBuild":"1991","sqft":"380.0"},{"id":0,"description":"OPEN BRICK PORCH","yearBuild":"1991","sqft":"48.0"}]}],"lands":[{"landType":"RESIDENTIAL","acres":"0.2296","sqft":"10000.00","marketValue":"$13,820","prodValue":"$0"}],"coordinates":{"id":"74014","lat":"31.313926","lng":"-94.754678"},"thumbnail":"74014","error":false,"urlOwnerDetails":"https://propaccess.trueautomation.com/clientdb/Property.aspx?cid=71&prop_id=74014","urlLandMap":"https://propaccess.trueautomation.com/mapSearch/?cid=71&p=74014","territoryNumber":"50","phoneNumbers":[{"_id":"","name":"","contacts":[{"phoneNumber":"","address":""}]}]},{"_id":"81305","landId":"81305","ownerId":"64717","allTrue":false,"exemptions":[{"name":"EMPTY","description":"No Tax Exemption Listed."}],"nameDeedSame":true,"addressSame":false,"name":"CASSELS JIMMY A","deed":"CASSELS JIMMY A","physicalAddress":"1302 CROOKED CREEK","physicalCity":"","physicalState":"TX","physicalZip":"","mailingAddress":"PO BOX 1626","mailingCity":"LUFKIN","mailingState":"TX","mailingZip":"75902","ownership":"100.0000000000%","showOwnerProperty":false,"ownerProperty":[{"propertyId":"81305","propertyAddress":"1302 CROOKED CREEK TX","name":"CASSELS JIMMY A","price":"$95,870","territory":"50","inTerritory":true}],"improvements":[{"id":0,"improvement":"RESIDENTIAL","livingArea":"1673.0 sqft","value":"$84,750","details":[{"id":0,"description":"MAIN AREA","yearBuild":"1993","sqft":"1263.0"},{"id":0,"description":"MAIN AREA","yearBuild":"1993","sqft":"410.0"},{"id":0,"description":"MASONRY UTILITY","yearBuild":"1993","sqft":"70.0"},{"id":0,"description":"OPEN BRICK PORCH","yearBuild":"1993","sqft":"156.0"},{"id":0,"description":"WOOD DECK","yearBuild":"1993","sqft":"427.0"}]}],"lands":[{"landType":"RESIDENTIAL","acres":"0.6660","sqft":"29010.00","marketValue":"$11,120","prodValue":"$0"}],"coordinates":{"id":"81305","lat":"31.316261","lng":"-94.753681"},"thumbnail":"81305","error":false,"urlOwnerDetails":"https://propaccess.trueautomation.com/clientdb/Property.aspx?cid=71&prop_id=81305","urlLandMap":"https://propaccess.trueautomation.com/mapSearch/?cid=71&p=81305","territoryNumber":"50","phoneNumbers":[{"_id":"abb268c4f9c72b52af52aff24ac2cf8c","name":"Cassels Jimmy A Law Office Of","contacts":[{"phoneNumber":"936-634-8466","address":"117 E Lufkin Ave Lufkin\n"}]}]},{"_id":"74033","landId":"74033","ownerId":"25183","allTrue":true,"exemptions":[{"name":"HS","description":"Homestead. (The person on the deed lives at this address.)"}],"nameDeedSame":true,"addressSame":true,"name":"CHAVEZ OSCAR R ETUX MARIA L","deed":"CHAVEZ OSCAR R ETUX MARIA L","physicalAddress":"101 RAINTREE CT","physicalCity":"LUFKIN","physicalState":"TX","physicalZip":"75904","mailingAddress":"101 RAINTREE CT","mailingCity":"LUFKIN","mailingState":"TX","mailingZip":"75904","ownership":"100.0000000000%","showOwnerProperty":false,"ownerProperty":[{"propertyId":"74033","propertyAddress":"101 RAINTREE CT LUFKIN, TX 75904-5471","name":"CHAVEZ OSCAR R ETUX MARIA L","price":"$101,940","territory":"50","inTerritory":true}],"improvements":[{"id":0,"improvement":"RESIDENTIAL","livingArea":"1129.0 sqft","value":"$89,550","details":[{"id":0,"description":"MAIN AREA","yearBuild":"1998","sqft":"1129.0"},{"id":0,"description":"OPEN BRICK PORCH","yearBuild":"1998","sqft":"74.0"},{"id":0,"description":"GARAGE BRICK/MAS","yearBuild":"1998","sqft":"407.0"}]}],"lands":[{"landType":"RESIDENTIAL","acres":"0.2204","sqft":"9600.00","marketValue":"$12,390","prodValue":"$0"}],"coordinates":{"id":"74033","lat":"31.314384","lng":"-94.753295"},"thumbnail":"74033","error":false,"urlOwnerDetails":"https://propaccess.trueautomation.com/clientdb/Property.aspx?cid=71&prop_id=74033","urlLandMap":"https://propaccess.trueautomation.com/mapSearch/?cid=71&p=74033","territoryNumber":"50","phoneNumbers":[{"_id":"","name":"","contacts":[{"phoneNumber":"","address":""}]}]},{"_id":"61477","landId":"61477","ownerId":"39242","allTrue":false,"exemptions":[{"name":"EX-XV","description":"Other Exemptions (including public property, religious organizations, charitable organizations, and other property not reported elsewhere)."}],"nameDeedSame":true,"addressSame":false,"name":"CITY OF LUFKIN","deed":"CITY OF LUFKIN","physicalAddress":"1501 TURTLE CREEK","physicalCity":"","physicalState":"","physicalZip":"","mailingAddress":"300 E SHEPHERD AVE","mailingCity":"LUFKIN","mailingState":"TX","mailingZip":"75901","ownership":"100.0000000000%","showOwnerProperty":false,"ownerProperty":[],"improvements":[],"lands":[{"landType":"EXEMPT","acres":"0.2755","sqft":"12000.00","marketValue":"$14,700","prodValue":"$0"}],"coordinates":{"id":"61477","lat":"31.316067","lng":"-94.754261"},"thumbnail":"61477","error":false,"urlOwnerDetails":"https://propaccess.trueautomation.com/clientdb/Property.aspx?cid=71&prop_id=61477","urlLandMap":"https://propaccess.trueautomation.com/mapSearch/?cid=71&p=61477","territoryNumber":"50","phoneNumbers":[{"_id":"5750a51a439f9332c3b98e1413c38723","name":"Crime Stoppers","contacts":[{"phoneNumber":"936-639-8477","address":"300 E Shepherd Ave Lufkin\n"}]},{"_id":"95a1258d7157dfd99f354546009ebd3a","name":"Gohmert Louis Congressman","contacts":[{"phoneNumber":"936-632-3180","address":"300 E Shepherd Ave Lufkin\n"}]},{"_id":"96d28d54fff4ba000e599b49619f4bc1","name":"Lufkin City Offices","contacts":[{"phoneNumber":"936-634-8881","address":"300 E Shepherd Ave Lufkin\n"},{"phoneNumber":"936-634-8881","address":"300 E Shepherd Ave Lufkin\n"},{"phoneNumber":"936-633-0281","address":"300 E Shepherd Ave Lufkin\n"},{"phoneNumber":"936-699-0235","address":"300 E Shepherd Ave Lufkin\n"},{"phoneNumber":"936-633-0230","address":"300 E Shepherd Ave Lufkin\n"},{"phoneNumber":"936-633-0230","address":"300 E Shepherd Ave Lufkin\n"},{"phoneNumber":"936-633-0288","address":"300 E Shepherd Ave Lufkin\n"},{"phoneNumber":"936-633-0299","address":"300 E Shepherd Ave Lufkin\n"},{"phoneNumber":"936-633-0211","address":"300 E Shepherd Ave Lufkin\n"},{"phoneNumber":"936-633-0243","address":"300 E Shepherd Ave Lufkin\n"},{"phoneNumber":"936-633-0414","address":"300 E Shepherd Ave Lufkin\n"},{"phoneNumber":"936-633-0230","address":"300 E Shepherd Ave Lufkin\n"},{"phoneNumber":"936-633-0230","address":"300 E Shepherd Ave Lufkin\n"},{"phoneNumber":"936-633-0288","address":"300 E Shepherd Ave Lufkin\n"},{"phoneNumber":"936-633-0235","address":"300 E Shepherd Ave Lufkin\n"},{"phoneNumber":"936-633-0281","address":"300 E Shepherd Ave Lufkin\n"},{"phoneNumber":"936-633-0340","address":"300 E Shepherd Ave Lufkin\n"},{"phoneNumber":"936-633-0298","address":"300 E Shepherd Ave Lufkin\n"},{"phoneNumber":"936-633-0298","address":"300 E Shepherd Ave Lufkin\n"},{"phoneNumber":"936-633-0205","address":"300 E Shepherd Ave Lufkin\n"},{"phoneNumber":"936-633-0238","address":"300 E Shepherd Ave Lufkin\n"},{"phoneNumber":"936-633-0269","address":"300 E Shepherd Ave Lufkin\n"},{"phoneNumber":"936-633-0214","address":"300 E Shepherd Ave Lufkin\n"},{"phoneNumber":"936-633-0252","address":"300 E Shepherd Ave Lufkin\n"},{"phoneNumber":"936-633-0225","address":"300 E Shepherd Ave Lufkin\n"},{"phoneNumber":"936-633-0218","address":"300 E Shepherd Ave Lufkin\n"},{"phoneNumber":"936-633-0279","address":"300 E Shepherd Ave Lufkin\n"},{"phoneNumber":"936-633-0221","address":"300 E Shepherd Ave Lufkin\n"},{"phoneNumber":"936-633-0399","address":"300 E Shepherd Ave Lufkin\n"},{"phoneNumber":"","address":"300 E Shepherd Ave Lufkin\n"},{"phoneNumber":"936-633-0356","address":"300 E Shepherd Ave Lufkin\n"},{"phoneNumber":"936-633-0222","address":"300 E Shepherd Ave Lufkin\n"},{"phoneNumber":"936-633-0367","address":"300 E Shepherd Ave Lufkin\n"},{"phoneNumber":"936-633-0307","address":"300 E Shepherd Ave Lufkin\n"},{"phoneNumber":"936-633-0228","address":"300 E Shepherd Ave Lufkin\n"},{"phoneNumber":"936-633-0229","address":"300 E Shepherd Ave Lufkin\n"},{"phoneNumber":"936-630-0555","address":"300 E Shepherd Ave Lufkin\n"},{"phoneNumber":"","address":"300 E Shepherd Ave Lufkin\n"},{"phoneNumber":"936-630-0565","address":"300 E Shepherd Ave Lufkin\n"},{"phoneNumber":"936-630-0563","address":"300 E Shepherd Ave Lufkin\n"},{"phoneNumber":"936-630-0561","address":"300 E Shepherd Ave Lufkin\n"},{"phoneNumber":"936-633-0315","address":"300 E Shepherd Ave Lufkin\n"},{"phoneNumber":"936-633-0250","address":"300 E Shepherd Ave Lufkin\n"},{"phoneNumber":"936-633-0250","address":"300 E Shepherd Ave Lufkin\n"},{"phoneNumber":"","address":"300 E Shepherd Ave Lufkin\n"},{"phoneNumber":"936-633-0271","address":"300 E Shepherd Ave Lufkin\n"},{"phoneNumber":"","address":"300 E Shepherd Ave Lufkin\n"},{"phoneNumber":"936-633-0272","address":"300 E Shepherd Ave Lufkin\n"},{"phoneNumber":"936-633-0275","address":"300 E Shepherd Ave Lufkin\n"},{"phoneNumber":"936-630-2004","address":"300 E Shepherd Ave Lufkin\n"},{"phoneNumber":"936-633-0273","address":"300 E Shepherd Ave Lufkin\n"},{"phoneNumber":"936-633-0247","address":"300 E Shepherd Ave Lufkin\n"},{"phoneNumber":"936-633-0356","address":"300 E Shepherd Ave Lufkin\n"},{"phoneNumber":"936-633-0300","address":"300 E Shepherd Ave Lufkin\n"},{"phoneNumber":"936-633-0300","address":"300 E Shepherd Ave Lufkin\n"},{"phoneNumber":"936-633-0505","address":"300 E Shepherd Ave Lufkin\n"},{"phoneNumber":"936-633-0330","address":"300 E Shepherd Ave Lufkin\n"},{"phoneNumber":"936-633-8477","address":"300 E Shepherd Ave Lufkin\n"},{"phoneNumber":"936-633-0335","address":"300 E Shepherd Ave Lufkin\n"},{"phoneNumber":"936-633-0361","address":"300 E Shepherd Ave Lufkin\n"},{"phoneNumber":"936-633-0348","address":"300 E Shepherd Ave Lufkin\n"},{"phoneNumber":"936-633-0356","address":"300 E Shepherd Ave Lufkin\n"},{"phoneNumber":"936-633-0356","address":"300 E Shepherd Ave Lufkin\n"},{"phoneNumber":"936-633-0317","address":"300 E Shepherd Ave Lufkin\n"},{"phoneNumber":"936-633-0345","address":"300 E Shepherd Ave Lufkin\n"},{"phoneNumber":"936-633-0321","address":"300 E Shepherd Ave Lufkin\n"},{"phoneNumber":"936-633-0341","address":"300 E Shepherd Ave Lufkin\n"},{"phoneNumber":"936-633-0342","address":"300 E Shepherd Ave Lufkin\n"},{"phoneNumber":"936-633-0317","address":"300 E Shepherd Ave Lufkin\n"}]}]},{"_id":"61473","landId":"61473","ownerId":"148204","allTrue":false,"exemptions":[{"name":"EMPTY","description":"No Tax Exemption Listed."}],"nameDeedSame":false,"addressSame":true,"name":"CLOYD LARRY ETUX SHEREE","deed":"CLOYD LARRY ETUX SHEREE & WENDI","physicalAddress":"1509 TURTLE CREEK","physicalCity":"","physicalState":"","physicalZip":"","mailingAddress":"1509 TURTLE CREEK","mailingCity":"LUFKIN","mailingState":"TX","mailingZip":"75904","ownership":"50.0000000000%","showOwnerProperty":false,"ownerProperty":[{"propertyId":"61473","propertyAddress":"1509 TURTLE CREEK","name":"CLOYD LARRY ETUX SHEREE","price":"$41,025","territory":"50","inTerritory":true}],"improvements":[],"lands":[{"landType":"","acres":"","sqft":"","marketValue":"","prodValue":""}],"coordinates":{"id":"61473","lat":"31.315753","lng":"-94.755219"},"thumbnail":"61473","error":false,"urlOwnerDetails":"https://propaccess.trueautomation.com/clientdb/Property.aspx?cid=71&prop_id=61473","urlLandMap":"https://propaccess.trueautomation.com/mapSearch/?cid=71&p=61473","territoryNumber":"50","phoneNumbers":[{"_id":"0f0924be81c877fddab58cf7e1cd4597","name":"Cloyd, Wendi","contacts":[{"phoneNumber":"936-699-3138","address":"1509 Turtle Creek Dr Lufkin\n"},{"phoneNumber":"936-875-3133","address":"1509 Turtle Creek Dr Lufkin\n"}]}]},{"_id":"61481","landId":"61481","ownerId":"85972","allTrue":false,"exemptions":[{"name":"EMPTY","description":"No Tax Exemption Listed."}],"nameDeedSame":true,"addressSame":false,"name":"COLWELL ANN ERICSON","deed":"COLWELL ANN ERICSON","physicalAddress":"4 WOODHUE CT","physicalCity":"LUFKIN","physicalState":"TX","physicalZip":"75904","mailingAddress":"803 BRENTWOOD DR","mailingCity":"LUFKIN","mailingState":"TX","mailingZip":"75901","ownership":"100.0000000000%","showOwnerProperty":false,"ownerProperty":[{"propertyId":"61481","propertyAddress":"4 WOODHUE CT LUFKIN, TX 75904-4318","name":"COLWELL ANN ERICSON","price":"$148,540","territory":"50","inTerritory":true}],"improvements":[{"id":0,"improvement":"RESIDENTIAL","livingArea":"1668.0 sqft","value":"$133,350","details":[{"id":0,"description":"MAIN AREA","yearBuild":"1972","sqft":"1668.0"},{"id":0,"description":"OPEN BRICK PORCH","yearBuild":"1972","sqft":"15.0"},{"id":0,"description":"MASONRY UTILITY","yearBuild":"1972","sqft":"60.0"},{"id":0,"description":"GARAGE BRICK/MAS","yearBuild":"1972","sqft":"420.0"}]},{"id":2,"improvement":"MISC IMP","livingArea":" sqft","value":"$400","details":[{"id":2,"description":"SHED FR UTILITY","yearBuild":"1991","sqft":"192.0"}]}],"lands":[{"landType":"RESIDENTIAL","acres":"0.2784","sqft":"12125.00","marketValue":"$14,790","prodValue":"$0"}],"coordinates":{"id":"61481","lat":"31.314874","lng":"-94.755887"},"thumbnail":"61481","error":false,"urlOwnerDetails":"https://propaccess.trueautomation.com/clientdb/Property.aspx?cid=71&prop_id=61481","urlLandMap":"https://propaccess.trueautomation.com/mapSearch/?cid=71&p=61481","territoryNumber":"50","phoneNumbers":[{"_id":"c9ab1cb5292ebe5e0d61a91a90fb0fff","name":"Colwell, Charles K","contacts":[{"phoneNumber":"936-634-2760","address":"803 Brentwood Dr Lufkin\n"}]}]},{"_id":"11063","landId":"11063","ownerId":"168550","allTrue":false,"exemptions":[{"name":"EMPTY","description":"No Tax Exemption Listed."}],"nameDeedSame":true,"addressSame":false,"name":"COPELAND SQUARE 2019 LLC","deed":"COPELAND SQUARE 2019 LLC","physicalAddress":"1320 S JOHN REDDITT DR","physicalCity":"","physicalState":"","physicalZip":"","mailingAddress":"1405 S JOHN REDDITT DR","mailingCity":"LUFKIN","mailingState":"TX","mailingZip":"75904","ownership":"100.0000000000%","showOwnerProperty":false,"ownerProperty":[{"propertyId":"11063","propertyAddress":"1320 S JOHN REDDITT DR","name":"COPELAND SQUARE 2019 LLC","price":"$699,930","territory":"50","inTerritory":true}],"improvements":[{"id":0,"improvement":"COMMERCIAL","livingArea":" sqft","value":"$162,000","details":[{"id":0,"description":"OFFICE BUILDINGS AVERAGE","yearBuild":"1998","sqft":"4520.0"},{"id":0,"description":"PATIO CONCRETE/MASONRY","yearBuild":"1998","sqft":"560.0"}]},{"id":2,"improvement":"COMMERCIAL","livingArea":" sqft","value":"$162,000","details":[{"id":2,"description":"MEDICAL OFFICE AV","yearBuild":"1998","sqft":"4520.0"},{"id":2,"description":"PATIO CONCRETE/MASONRY","yearBuild":"1998","sqft":"560.0"}]},{"id":4,"improvement":"COMMERCIAL","livingArea":" sqft","value":"$162,000","details":[{"id":4,"description":"MEDICAL OFFICE AV","yearBuild":"1998","sqft":"4520.0"},{"id":4,"description":"PATIO CONCRETE/MASONRY","yearBuild":"1998","sqft":"280.0"}]},{"id":6,"improvement":"COMMERCIAL","livingArea":" sqft","value":"$65,740","details":[{"id":6,"description":"PAVING CONCRETE","yearBuild":"1998","sqft":"30435.0"}]}],"lands":[{"landType":"COMMERCIAL","acres":"2.4300","sqft":"105850.00","marketValue":"$148,190","prodValue":"$0"}],"coordinates":{"id":"11063","lat":"31.316086","lng":"-94.752461"},"thumbnail":"11063","error":false,"urlOwnerDetails":"https://propaccess.trueautomation.com/clientdb/Property.aspx?cid=71&prop_id=11063","urlLandMap":"https://propaccess.trueautomation.com/mapSearch/?cid=71&p=11063","territoryNumber":"50","phoneNumbers":[{"_id":"","name":"","contacts":[{"phoneNumber":"","address":""}]}]},{"_id":"61471","landId":"61471","ownerId":"164564","allTrue":false,"exemptions":[{"name":"EMPTY","description":"No Tax Exemption Listed."}],"nameDeedSame":true,"addressSame":false,"name":"CORBETT BARBARA","deed":"CORBETT BARBARA","physicalAddress":"1513 TURTLE CREEK","physicalCity":"LUFKIN","physicalState":"TX","physicalZip":"75904","mailingAddress":"8 PARKWAY PLAZA","mailingCity":"LUFKIN","mailingState":"TX","mailingZip":"75904","ownership":"100.0000000000%","showOwnerProperty":false,"ownerProperty":[{"propertyId":"61471","propertyAddress":"1513 TURTLE CREEK LUFKIN, TX 75904-4315","name":"CORBETT BARBARA","price":"$109,040","territory":"50","inTerritory":true}],"improvements":[{"id":0,"improvement":"RESIDENTIAL","livingArea":"1414.0 sqft","value":"$94,340","details":[{"id":0,"description":"MAIN AREA","yearBuild":"1968","sqft":"1414.0"},{"id":0,"description":"CARPORT","yearBuild":"1968","sqft":"399.0"},{"id":0,"description":"MASONRY UTILITY","yearBuild":"1968","sqft":"63.0"},{"id":0,"description":"OPEN BRICK PORCH","yearBuild":"1968","sqft":"68.0"}]}],"lands":[{"landType":"RESIDENTIAL","acres":"0.2755","sqft":"12000.00","marketValue":"$14,700","prodValue":"$0"}],"coordinates":{"id":"61471","lat":"31.315597","lng":"-94.755697"},"thumbnail":"61471","error":false,"urlOwnerDetails":"https://propaccess.trueautomation.com/clientdb/Property.aspx?cid=71&prop_id=61471","urlLandMap":"https://propaccess.trueautomation.com/mapSearch/?cid=71&p=61471","territoryNumber":"50","phoneNumbers":[{"_id":"","name":"","contacts":[{"phoneNumber":"","address":""}]}]},{"_id":"11082","landId":"11082","ownerId":"158497","allTrue":false,"exemptions":[{"name":"EMPTY","description":"No Tax Exemption Listed."}],"nameDeedSame":true,"addressSame":false,"name":"CYPRESSBROOK COPELAND LP","deed":"CYPRESSBROOK COPELAND LP","physicalAddress":"1519 COPELAND RD  WOODED ACRES","physicalCity":"APTS","physicalState":"TX","physicalZip":"","mailingAddress":"ATTN:NOVELLI MIKE 1776 WOODSTEAD CT STE 218  THE","mailingCity":"WOODLANDS","mailingState":"TX","mailingZip":"77380","ownership":"100.0000000000%","showOwnerProperty":false,"ownerProperty":[{"propertyId":"11082","propertyAddress":"1519 COPELAND RD WOODED ACRES APTS, TX","name":"CYPRESSBROOK COPELAND LP","price":"$496,520","territory":"50","inTerritory":true}],"improvements":[{"id":0,"improvement":"COMMERCIAL","livingArea":"15786.0 sqft","value":"$477,720","details":[{"id":0,"description":"MAIN AREA","yearBuild":"1980","sqft":"15786.0"},{"id":0,"description":"PAVING ASPHALT","yearBuild":"1986","sqft":"17625.0"}]}],"lands":[{"landType":"APARTMENT","acres":"2.8400","sqft":"123710.40","marketValue":"$18,800","prodValue":"$0"}],"coordinates":{"id":"11082","lat":"31.314547","lng":"-94.752446"},"thumbnail":"11082","error":false,"urlOwnerDetails":"https://propaccess.trueautomation.com/clientdb/Property.aspx?cid=71&prop_id=11082","urlLandMap":"https://propaccess.trueautomation.com/mapSearch/?cid=71&p=11082","territoryNumber":"50","phoneNumbers":[{"_id":"377406fbcec3dfba84b4fb00cb1052bd","name":"Calhoun, Whitney","contacts":[{"phoneNumber":"936-899-5204","address":"1519 Copeland St Lufkin\n"}]},{"_id":"027722be6a7f63d97dec4f3a210b5b9e","name":"Hill, Lavada","contacts":[{"phoneNumber":"936-899-5468","address":"1519 Copeland St Lufkin\n"}]},{"_id":"58bcf0b3cdb5df8831056e72e9b3d039","name":"Whitmore, Carolyn","contacts":[{"phoneNumber":"936-899-5816","address":"1519 Copeland St Lufkin\n"}]}]},{"_id":"11064","landId":"11064","ownerId":"158497","allTrue":false,"exemptions":[{"name":"EMPTY","description":"No Tax Exemption Listed."}],"nameDeedSame":true,"addressSame":false,"name":"CYPRESSBROOK COPELAND LP","deed":"CYPRESSBROOK COPELAND LP","physicalAddress":"1514 COPELAND  WOODED ACRES","physicalCity":"APTS","physicalState":"TX","physicalZip":"","mailingAddress":"ATTN:NOVELLI MIKE 1776 WOODSTEAD CT STE 218  THE","mailingCity":"WOODLANDS","mailingState":"TX","mailingZip":"77380","ownership":"100.0000000000%","showOwnerProperty":false,"ownerProperty":[{"propertyId":"11064","propertyAddress":"1514 COPELAND WOODED ACRES APTS, TX","name":"CYPRESSBROOK COPELAND LP","price":"$948,570","territory":"50","inTerritory":true}],"improvements":[{"id":0,"improvement":"COMMERCIAL","livingArea":"24580.0 sqft","value":"$861,940","details":[{"id":0,"description":"MAIN AREA","yearBuild":"1979","sqft":"24580.0"},{"id":0,"description":"PAVING CONCRETE","yearBuild":"1985","sqft":"23800.0"}]}],"lands":[{"landType":"APARTMENT","acres":"2.0500","sqft":"89298.00","marketValue":"$17,180","prodValue":"$0"}],"coordinates":{"id":"11064","lat":"31.315425","lng":"-94.752699"},"thumbnail":"11064","error":false,"urlOwnerDetails":"https://propaccess.trueautomation.com/clientdb/Property.aspx?cid=71&prop_id=11064","urlLandMap":"https://propaccess.trueautomation.com/mapSearch/?cid=71&p=11064","territoryNumber":"50","phoneNumbers":[{"_id":"50ad311c8f9ec45c33ec0d51d466047e","name":"Hadnot, Jamarcus","contacts":[{"phoneNumber":"936-632-0166","address":"1514 Copeland St Lufkin\n"}]},{"_id":"c89c5caefc6f52ce64b9c868fdc144c8","name":"Henson, Joby","contacts":[{"phoneNumber":"936-699-1799","address":"1514 Copeland St Lufkin\n"}]},{"_id":"61b1fbc015cdb97b7a42809d4be3f2b6","name":"Robinson, Karen","contacts":[{"phoneNumber":"936-238-2682","address":"1514 Copeland St Lufkin\n"}]}]},{"_id":"74022","landId":"74022","ownerId":"30667","allTrue":false,"exemptions":[{"name":"EMPTY","description":"No Tax Exemption Listed."}],"nameDeedSame":true,"addressSame":false,"name":"DASSINGER WILLIAM JOHN","deed":"DASSINGER WILLIAM JOHN","physicalAddress":"105 BARBERRY","physicalCity":"","physicalState":"","physicalZip":"","mailingAddress":"4705 KINGSTON ST","mailingCity":"LUFKIN","mailingState":"TX","mailingZip":"75901","ownership":"100.0000000000%","showOwnerProperty":false,"ownerProperty":[{"propertyId":"74022","propertyAddress":"105 BARBERRY","name":"DASSINGER WILLIAM JOHN","price":"$101,880","territory":"50","inTerritory":true}],"improvements":[{"id":0,"improvement":"RESIDENTIAL","livingArea":"1160.0 sqft","value":"$88,110","details":[{"id":0,"description":"MAIN AREA","yearBuild":"1992","sqft":"1160.0"},{"id":0,"description":"GARAGE BRICK/MAS","yearBuild":"1992","sqft":"400.0"},{"id":0,"description":"OPEN BRICK PORCH","yearBuild":"1992","sqft":"96.0"}]}],"lands":[{"landType":"RESIDENTIAL","acres":"0.2204","sqft":"9600.00","marketValue":"$13,770","prodValue":"$0"}],"coordinates":{"id":"74022","lat":"31.313686","lng":"-94.753974"},"thumbnail":"74022","error":false,"urlOwnerDetails":"https://propaccess.trueautomation.com/clientdb/Property.aspx?cid=71&prop_id=74022","urlLandMap":"https://propaccess.trueautomation.com/mapSearch/?cid=71&p=74022","territoryNumber":"50","phoneNumbers":[{"_id":"1667a9d018c2b0387c7ec3f156bef3f3","name":"Dassinger, William J","contacts":[{"phoneNumber":"936-824-2490","address":"4705 Kingston Ave Lufkin\n"}]}]},{"_id":"74023","landId":"74023","ownerId":"65867","allTrue":false,"exemptions":[{"name":"EMPTY","description":"No Tax Exemption Listed."}],"nameDeedSame":true,"addressSame":false,"name":"DP SOLUTIONS INC","deed":"DP SOLUTIONS INC","physicalAddress":"103 BARBERRY CT","physicalCity":"LUFKIN","physicalState":"TX","physicalZip":"75904","mailingAddress":"1508 S FIRST ST","mailingCity":"LUFKIN","mailingState":"TX","mailingZip":"75901","ownership":"100.0000000000%","showOwnerProperty":false,"ownerProperty":[],"improvements":[{"id":0,"improvement":"RESIDENTIAL","livingArea":"1196.0 sqft","value":"$80,150","details":[{"id":0,"description":"MAIN AREA","yearBuild":"1991","sqft":"1196.0"},{"id":0,"description":"GARAGE BRICK/MAS","yearBuild":"1991","sqft":"456.0"},{"id":0,"description":"CANOPY","yearBuild":"1991","sqft":"128.0"},{"id":0,"description":"OPEN BRICK PORCH","yearBuild":"1991","sqft":"90.0"}]}],"lands":[{"landType":"RESIDENTIAL","acres":"0.2204","sqft":"9600.00","marketValue":"$13,770","prodValue":"$0"}],"coordinates":{"id":"74023","lat":"31.313893","lng":"-94.754067"},"thumbnail":"74023","error":false,"urlOwnerDetails":"https://propaccess.trueautomation.com/clientdb/Property.aspx?cid=71&prop_id=74023","urlLandMap":"https://propaccess.trueautomation.com/mapSearch/?cid=71&p=74023","territoryNumber":"50","phoneNumbers":[{"_id":"","name":"","contacts":[{"phoneNumber":"","address":""}]}]},{"_id":"92294","landId":"92294","ownerId":"82451","allTrue":false,"exemptions":[{"name":"EMPTY","description":"No Tax Exemption Listed."}],"nameDeedSame":true,"addressSame":false,"name":"DUNCAN-TWO INC","deed":"DUNCAN-TWO INC","physicalAddress":"1425 TURTLE CREEK","physicalCity":"","physicalState":"TX","physicalZip":"","mailingAddress":"PO BOX 151538","mailingCity":"LUFKIN","mailingState":"TX","mailingZip":"75915","ownership":"100.0000000000%","showOwnerProperty":false,"ownerProperty":[{"propertyId":"92294","propertyAddress":"1425 TURTLE CREEK TX","name":"DUNCAN-TWO INC","price":"$286,370","territory":"50","inTerritory":true}],"improvements":[{"id":0,"improvement":"COMMERCIAL","livingArea":"2700.0 sqft","value":"$175,020","details":[{"id":0,"description":"MAIN AREA","yearBuild":"1993","sqft":"1935.0"},{"id":0,"description":"MAIN AREA","yearBuild":"1993","sqft":"765.0"},{"id":0,"description":"OPEN BRICK PORCH","yearBuild":"1993","sqft":"72.0"},{"id":0,"description":"OPEN BRICK PORCH","yearBuild":"1993","sqft":"450.0"}]}],"lands":[{"landType":"COMMERCIAL","acres":"0.5010","sqft":"21824.00","marketValue":"$32,740","prodValue":"$0"}],"coordinates":{"id":"92294","lat":"31.316432","lng":"-94.753149"},"thumbnail":"92294","error":false,"urlOwnerDetails":"https://propaccess.trueautomation.com/clientdb/Property.aspx?cid=71&prop_id=92294","urlLandMap":"https://propaccess.trueautomation.com/mapSearch/?cid=71&p=92294","territoryNumber":"50","phoneNumbers":[{"_id":"","name":"","contacts":[{"phoneNumber":"","address":""}]}]},{"_id":"61470","landId":"61470","ownerId":"3193","allTrue":false,"exemptions":[{"name":"EMPTY","description":"No Tax Exemption Listed."}],"nameDeedSame":true,"addressSame":false,"name":"ELIZONDO MARCOS V ETUX RAQUEL","deed":"ELIZONDO MARCOS V ETUX RAQUEL","physicalAddress":"1515 TURTLE CREEK","physicalCity":"","physicalState":"","physicalZip":"","mailingAddress":"1108 AUGUSTA DR","mailingCity":"LUFKIN","mailingState":"TX","mailingZip":"75901","ownership":"100.0000000000%","showOwnerProperty":false,"ownerProperty":[{"propertyId":"61470","propertyAddress":"1515 TURTLE CREEK","name":"ELIZONDO MARCOS V ETUX RAQUEL","price":"$137,490","territory":"50","inTerritory":true}],"improvements":[{"id":0,"improvement":"RESIDENTIAL","livingArea":"2015.0 sqft","value":"$122,790","details":[{"id":0,"description":"MAIN AREA","yearBuild":"1968","sqft":"1616.0"},{"id":0,"description":"OPEN BRICK PORCH","yearBuild":"1968","sqft":"130.0"},{"id":0,"description":"MAIN AREA","yearBuild":"1968","sqft":"399.0"}]}],"lands":[{"landType":"RESIDENTIAL","acres":"0.2755","sqft":"12000.00","marketValue":"$14,700","prodValue":"$0"}],"coordinates":{"id":"61470","lat":"31.315532","lng":"-94.755936"},"thumbnail":"61470","error":false,"urlOwnerDetails":"https://propaccess.trueautomation.com/clientdb/Property.aspx?cid=71&prop_id=61470","urlLandMap":"https://propaccess.trueautomation.com/mapSearch/?cid=71&p=61470","territoryNumber":"50","phoneNumbers":[{"_id":"","name":"","contacts":[{"phoneNumber":"","address":""}]}]},{"_id":"61474","landId":"61474","ownerId":"126090","allTrue":false,"exemptions":[{"name":"HS","description":"Homestead. (The person on the deed lives at this address.)"},{"name":"OTHER","description":"Exemption not listed."}],"nameDeedSame":false,"addressSame":false,"name":"FARRELL DORIS","deed":"","physicalAddress":"1507 TURTLE CREEK","physicalCity":"LUFKIN","physicalState":"TX","physicalZip":"75904","mailingAddress":"1507 TURTLE CREEK DR","mailingCity":"LUFKIN","mailingState":"TX","mailingZip":"75904","ownership":"100.0000000000%","showOwnerProperty":false,"ownerProperty":[{"propertyId":"61474","propertyAddress":"1507 TURTLE CREEK LUFKIN, TX 75904-4315","name":"FARRELL DORIS","price":"$97,850","territory":"50","inTerritory":true}],"improvements":[{"id":0,"improvement":"RESIDENTIAL","livingArea":"1550.0 sqft","value":"$83,150","details":[{"id":0,"description":"MAIN AREA","yearBuild":"1968","sqft":"1190.0"},{"id":0,"description":"MAIN AREA","yearBuild":"1968","sqft":"360.0"},{"id":0,"description":"MASONRY UTILITY","yearBuild":"1968","sqft":"72.0"},{"id":0,"description":"OPEN BRICK PORCH","yearBuild":"1968","sqft":"176.0"}]}],"lands":[{"landType":"RESIDENTIAL","acres":"0.2755","sqft":"12000.00","marketValue":"$14,700","prodValue":"$0"}],"coordinates":{"id":"61474","lat":"31.315830","lng":"-94.754980"},"thumbnail":"61474","error":false,"urlOwnerDetails":"https://propaccess.trueautomation.com/clientdb/Property.aspx?cid=71&prop_id=61474","urlLandMap":"https://propaccess.trueautomation.com/mapSearch/?cid=71&p=61474","territoryNumber":"50","phoneNumbers":[{"_id":"","name":"","contacts":[{"phoneNumber":"","address":""}]}]},{"_id":"61487","landId":"61487","ownerId":"37619","allTrue":false,"exemptions":[{"name":"EMPTY","description":"No Tax Exemption Listed."}],"nameDeedSame":true,"addressSame":false,"name":"FERGUSON BARBARA","deed":"FERGUSON BARBARA","physicalAddress":"10 WOODHUE CT","physicalCity":"LUFKIN","physicalState":"TX","physicalZip":"75904","mailingAddress":"PO BOX 150244","mailingCity":"LUFKIN","mailingState":"TX","mailingZip":"75915","ownership":"100.0000000000%","showOwnerProperty":false,"ownerProperty":[{"propertyId":"61487","propertyAddress":"10 WOODHUE CT LUFKIN, TX 75904-4318","name":"FERGUSON BARBARA","price":"$120,280","territory":"50","inTerritory":true}],"improvements":[{"id":0,"improvement":"RESIDENTIAL","livingArea":"1824.0 sqft","value":"$105,220","details":[{"id":0,"description":"MAIN AREA","yearBuild":"1972","sqft":"1824.0"},{"id":0,"description":"OPEN BRICK PORCH","yearBuild":"1972","sqft":"18.0"},{"id":0,"description":"MASONRY UTILITY","yearBuild":"1972","sqft":"546.0"},{"id":0,"description":"CANOPY","yearBuild":"1972","sqft":"240.0"}]},{"id":2,"improvement":"MISC IMP","livingArea":" sqft","value":"$270","details":[{"id":2,"description":"SHED FR UTILITY","yearBuild":"1988","sqft":"192.0"}]}],"lands":[{"landType":"RESIDENTIAL","acres":"0.2784","sqft":"12125.00","marketValue":"$14,790","prodValue":"$0"}],"coordinates":{"id":"61487","lat":"31.314309","lng":"-94.755020"},"thumbnail":"61487","error":false,"urlOwnerDetails":"https://propaccess.trueautomation.com/clientdb/Property.aspx?cid=71&prop_id=61487","urlLandMap":"https://propaccess.trueautomation.com/mapSearch/?cid=71&p=61487","territoryNumber":"50","phoneNumbers":[{"_id":"","name":"","contacts":[{"phoneNumber":"","address":""}]}]},{"_id":"74017","landId":"74017","ownerId":"24783","allTrue":false,"exemptions":[{"name":"EMPTY","description":"No Tax Exemption Listed."}],"nameDeedSame":true,"addressSame":false,"name":"FLOWERS LARRY","deed":"FLOWERS LARRY","physicalAddress":"empty","physicalCity":"","physicalState":"","physicalZip":"","mailingAddress":"110 BARBERRY CT","mailingCity":"LUFKIN","mailingState":"TX","mailingZip":"75904","ownership":"100.0000000000%","showOwnerProperty":false,"ownerProperty":[{"propertyId":"74017","propertyAddress":"empty","name":"FLOWERS LARRY","price":"$4,260","territory":"50","inTerritory":true}],"improvements":[],"lands":[{"landType":"RESIDENTIAL","acres":"0.2296","sqft":"10000.00","marketValue":"$4,260","prodValue":"$0"}],"coordinates":{"id":"74017","lat":"31.313286","lng":"-94.754428"},"thumbnail":"74017","error":false,"urlOwnerDetails":"https://propaccess.trueautomation.com/clientdb/Property.aspx?cid=71&prop_id=74017","urlLandMap":"https://propaccess.trueautomation.com/mapSearch/?cid=71&p=74017","territoryNumber":"50","phoneNumbers":[{"_id":"7e7c4000b5e8161fc3ce40dbcacd94db","name":"Flowers, Lonnie","contacts":[{"phoneNumber":"936-639-8443","address":"110 Barberry Court Lufkin\n"}]}]},{"_id":"74018","landId":"74018","ownerId":"22860","allTrue":true,"exemptions":[{"name":"HS","description":"Homestead. (The person on the deed lives at this address.)"},{"name":"OTHER","description":"Exemption not listed."}],"nameDeedSame":true,"addressSame":true,"name":"FLOWERS LARRY ETUX LINDA","deed":"FLOWERS LARRY ETUX LINDA","physicalAddress":"110 BARBERRY CT","physicalCity":"LUFKIN","physicalState":"TX","physicalZip":"75904","mailingAddress":"110 BARBERRY CT","mailingCity":"LUFKIN","mailingState":"TX","mailingZip":"75904","ownership":"100.0000000000%","showOwnerProperty":false,"ownerProperty":[{"propertyId":"74018","propertyAddress":"110 BARBERRY CT LUFKIN, TX 75904-5402","name":"FLOWERS LARRY ETUX LINDA","price":"$141,100","territory":"50","inTerritory":true}],"improvements":[{"id":0,"improvement":"RESIDENTIAL","livingArea":"1489.0 sqft","value":"$131,120","details":[{"id":0,"description":"MAIN AREA","yearBuild":"1998","sqft":"1489.0"},{"id":0,"description":"GARAGE BRICK/MAS","yearBuild":"1998","sqft":"506.0"},{"id":0,"description":"OPEN BRICK PORCH","yearBuild":"1998","sqft":"72.0"}]}],"lands":[{"landType":"RESIDENTIAL","acres":"0.2692","sqft":"11727.00","marketValue":"$9,980","prodValue":"$0"}],"coordinates":{"id":"74018","lat":"31.313001","lng":"-94.754334"},"thumbnail":"74018","error":false,"urlOwnerDetails":"https://propaccess.trueautomation.com/clientdb/Property.aspx?cid=71&prop_id=74018","urlLandMap":"https://propaccess.trueautomation.com/mapSearch/?cid=71&p=74018","territoryNumber":"50","phoneNumbers":[{"_id":"7e7c4000b5e8161fc3ce40dbcacd94db","name":"Flowers, Lonnie","contacts":[{"phoneNumber":"936-639-8443","address":"110 Barberry Court Lufkin\n"}]}]},{"_id":"61527","landId":"61527","ownerId":"23344","allTrue":true,"exemptions":[{"name":"OTHER","description":"Exemption not listed."},{"name":"HS","description":"Homestead. (The person on the deed lives at this address.)"}],"nameDeedSame":true,"addressSame":true,"name":"FUNDERBURK LUTHER RAY JR (CAROLYN)","deed":"FUNDERBURK LUTHER RAY JR (CAROLYN)","physicalAddress":"1403 WOODLAND DR","physicalCity":"LUFKIN","physicalState":"TX","physicalZip":"75904","mailingAddress":"1403 WOODLAND DR","mailingCity":"LUFKIN","mailingState":"TX","mailingZip":"75904","ownership":"100.0000000000%","showOwnerProperty":false,"ownerProperty":[{"propertyId":"61527","propertyAddress":"1403 WOODLAND DR LUFKIN, TX 75904-4314","name":"FUNDERBURK LUTHER RAY JR (CAROLYN)","price":"$297,460","territory":"50","inTerritory":true}],"improvements":[{"id":0,"improvement":"RESIDENTIAL","livingArea":"3040.0 sqft","value":"$256,890","details":[{"id":0,"description":"MAIN AREA","yearBuild":"1968","sqft":"3040.0"},{"id":0,"description":"GARAGE BRICK/MAS","yearBuild":"1968","sqft":"704.0"},{"id":0,"description":"OPEN BRICK PORCH","yearBuild":"1968","sqft":"344.0"},{"id":0,"description":"OPEN BRICK PORCH","yearBuild":"1968","sqft":"54.0"}]},{"id":2,"improvement":"RESIDENTIAL","livingArea":" sqft","value":"$19,400","details":[{"id":2,"description":"GARAGE BRICK/MAS","yearBuild":"1970","sqft":"1032.0"}]}],"lands":[{"landType":"RESIDENTIAL","acres":"0.9527","sqft":"41500.00","marketValue":"$21,170","prodValue":"$0"}],"coordinates":{"id":"61527","lat":"31.312981","lng":"-94.755885"},"thumbnail":"61527","error":false,"urlOwnerDetails":"https://propaccess.trueautomation.com/clientdb/Property.aspx?cid=71&prop_id=61527","urlLandMap":"https://propaccess.trueautomation.com/mapSearch/?cid=71&p=61527","territoryNumber":"50","phoneNumbers":[{"_id":"","name":"","contacts":[{"phoneNumber":"","address":""}]}]},{"_id":"10526","landId":"10526","ownerId":"2929","allTrue":false,"exemptions":[{"name":"EMPTY","description":"No Tax Exemption Listed."}],"nameDeedSame":true,"addressSame":false,"name":"GENCO FEDERAL CREDIT UNION","deed":"GENCO FEDERAL CREDIT UNION","physicalAddress":"1402 S JOHN REDDITT DR","physicalCity":"","physicalState":"TX","physicalZip":"","mailingAddress":"731 N VALLEY DR PO BOX 7246","mailingCity":"WACO","mailingState":"TX","mailingZip":"76714","ownership":"100.0000000000%","showOwnerProperty":false,"ownerProperty":[{"propertyId":"10526","propertyAddress":"1402 S JOHN REDDITT DR TX","name":"GENCO FEDERAL CREDIT UNION","price":"$740,470","territory":"50","inTerritory":true}],"improvements":[{"id":0,"improvement":"COMMERCIAL","livingArea":" sqft","value":"$477,900","details":[{"id":0,"description":"BANK BR LOW","yearBuild":"1995","sqft":"4864.0"},{"id":0,"description":"PAVING CONCRETE","yearBuild":"1995","sqft":"34374.0"},{"id":0,"description":"CANOPY","yearBuild":"1995","sqft":"1700.0"},{"id":0,"description":"OPEN BRICK PORCH","yearBuild":"1996","sqft":"456.0"}]}],"lands":[{"landType":"COMMERCIAL","acres":"1.8420","sqft":"80240.00","marketValue":"$256,770","prodValue":"$0"},{"landType":"COMMERCIAL","acres":"0.4440","sqft":"19340.00","marketValue":"$5,800","prodValue":"$0"}],"coordinates":{"id":"10526","lat":"31.315247","lng":"-94.751314"},"thumbnail":"10526","error":false,"urlOwnerDetails":"https://propaccess.trueautomation.com/clientdb/Property.aspx?cid=71&prop_id=10526","urlLandMap":"https://propaccess.trueautomation.com/mapSearch/?cid=71&p=10526","territoryNumber":"50","phoneNumbers":[{"_id":"c98866df23d2f3b3c7891826ad04d5f8","name":"Genco Federal Credit Union","contacts":[{"phoneNumber":"936-637-7710","address":"1402 S John Redditt Dr Lufkin\n"},{"phoneNumber":"936-853-2531","address":"1402 S John Redditt Dr Lufkin\n"}]}]},{"_id":"61524","landId":"61524","ownerId":"155902","allTrue":false,"exemptions":[{"name":"HS","description":"Homestead. (The person on the deed lives at this address.)"},{"name":"OTHER","description":"Exemption not listed."}],"nameDeedSame":true,"addressSame":false,"name":"GOODWIN PHILIP & KAY REVOCABLE TRUST","deed":"GOODWIN PHILIP & KAY REVOCABLE TRUST","physicalAddress":"1311 WOODLAND DR","physicalCity":"LUFKIN","physicalState":"TX","physicalZip":"75904","mailingAddress":"ATTN: GOODWIN PHILIP &amp; KAY E TRUSTEES 1311 WOODLAND DR","mailingCity":"LUFKIN","mailingState":"TX","mailingZip":"75904","ownership":"100.0000000000%","showOwnerProperty":false,"ownerProperty":[{"propertyId":"61524","propertyAddress":"1311 WOODLAND DR LUFKIN, TX 75904-4323","name":"GOODWIN PHILIP & KAY REVOCABLE TRUST","price":"$310,290","territory":"50","inTerritory":true}],"improvements":[{"id":0,"improvement":"RESIDENTIAL","livingArea":"3149.0 sqft","value":"$264,680","details":[{"id":0,"description":"MAIN AREA","yearBuild":"1965","sqft":"2689.0"},{"id":0,"description":"MAIN AREA","yearBuild":"1965","sqft":"460.0"},{"id":0,"description":"MASONRY UTILITY","yearBuild":"1965","sqft":"90.0"},{"id":0,"description":"OPEN BRICK PORCH","yearBuild":"1965","sqft":"180.0"},{"id":0,"description":"OPEN BRICK PORCH","yearBuild":"1965","sqft":"148.0"},{"id":0,"description":"WOOD DECK","yearBuild":"1965","sqft":"660.0"},{"id":0,"description":"MASONRY UTILITY","yearBuild":"1994","sqft":"312.0"},{"id":0,"description":"CARPORT","yearBuild":"1994","sqft":"840.0"}]},{"id":2,"improvement":"MISC IMP","livingArea":" sqft","value":"$26,960","details":[{"id":2,"description":"POOL GUNITE","yearBuild":"1997","sqft":"800.0"},{"id":2,"description":"POOL GUNITE","yearBuild":"1997","sqft":"64.0"}]}],"lands":[{"landType":"RESIDENTIAL","acres":"0.9527","sqft":"41500.00","marketValue":"$18,650","prodValue":"$0"}],"coordinates":{"id":"61524","lat":"31.314395","lng":"-94.756515"},"thumbnail":"61524","error":false,"urlOwnerDetails":"https://propaccess.trueautomation.com/clientdb/Property.aspx?cid=71&prop_id=61524","urlLandMap":"https://propaccess.trueautomation.com/mapSearch/?cid=71&p=61524","territoryNumber":"50","phoneNumbers":[{"_id":"","name":"","contacts":[{"phoneNumber":"","address":""}]}]},{"_id":"61489","landId":"61489","ownerId":"64050","allTrue":false,"exemptions":[{"name":"EMPTY","description":"No Tax Exemption Listed."}],"nameDeedSame":true,"addressSame":false,"name":"GOODWIN PHILIP W ETUX KAY E","deed":"GOODWIN PHILIP W ETUX KAY E","physicalAddress":"1311 WOODLAND (BEHIND)","physicalCity":"","physicalState":"","physicalZip":"","mailingAddress":"1311 WOODLAND DR","mailingCity":"LUFKIN","mailingState":"TX","mailingZip":"75904","ownership":"100.0000000000%","showOwnerProperty":false,"ownerProperty":[{"propertyId":"61489","propertyAddress":"1311 WOODLAND (BEHIND)","name":"GOODWIN PHILIP W ETUX KAY E","price":"$7,550","territory":"50","inTerritory":true}],"improvements":[],"lands":[{"landType":"RESIDENTIAL","acres":"0.2477","sqft":"10790.00","marketValue":"$7,550","prodValue":"$0"}],"coordinates":{"id":"61489","lat":"31.314547","lng":"-94.756049"},"thumbnail":"61489","error":false,"urlOwnerDetails":"https://propaccess.trueautomation.com/clientdb/Property.aspx?cid=71&prop_id=61489","urlLandMap":"https://propaccess.trueautomation.com/mapSearch/?cid=71&p=61489","territoryNumber":"50","phoneNumbers":[{"_id":"","name":"","contacts":[{"phoneNumber":"","address":""}]}]},{"_id":"61499","landId":"61499","ownerId":"118980","allTrue":true,"exemptions":[{"name":"HS","description":"Homestead. (The person on the deed lives at this address.)"},{"name":"OTHER","description":"Exemption not listed."}],"nameDeedSame":true,"addressSame":true,"name":"GROGAN RONNIE ETUX VALERIE","deed":"GROGAN RONNIE ETUX VALERIE","physicalAddress":"9 WOODHAVEN CT","physicalCity":"","physicalState":"TX","physicalZip":"","mailingAddress":"9 WOODHAVEN CT","mailingCity":"LUFKIN","mailingState":"TX","mailingZip":"75904","ownership":"100.0000000000%","showOwnerProperty":false,"ownerProperty":[{"propertyId":"61499","propertyAddress":"9 WOODHAVEN CT TX","name":"GROGAN RONNIE ETUX VALERIE","price":"$104,980","territory":"50","inTerritory":true}],"improvements":[{"id":0,"improvement":"RESIDENTIAL","livingArea":"1150.0 sqft","value":"$91,150","details":[{"id":0,"description":"MAIN AREA","yearBuild":"1972","sqft":"1150.0"},{"id":0,"description":"CARPORT","yearBuild":"1972","sqft":"361.0"},{"id":0,"description":"MASONRY UTILITY","yearBuild":"1972","sqft":"114.0"},{"id":0,"description":"OPEN BRICK PORCH","yearBuild":"1972","sqft":"48.0"},{"id":0,"description":"ENCLOSED FR PORCH","yearBuild":"1972","sqft":"336.0"}]}],"lands":[{"landType":"RESIDENTIAL","acres":"0.2324","sqft":"10125.00","marketValue":"$13,830","prodValue":"$0"}],"coordinates":{"id":"61499","lat":"31.315205","lng":"-94.754391"},"thumbnail":"61499","error":false,"urlOwnerDetails":"https://propaccess.trueautomation.com/clientdb/Property.aspx?cid=71&prop_id=61499","urlLandMap":"https://propaccess.trueautomation.com/mapSearch/?cid=71&p=61499","territoryNumber":"50","phoneNumbers":[{"_id":"70c5d8d8cf6bc41d39cff52d74d86af0","name":"Grogan, Valerie","contacts":[{"phoneNumber":"936-639-5442","address":"9 Woodhaven Court Lufkin\n"},{"phoneNumber":"936-639-5432","address":"9 Woodhaven Court Lufkin\n"}]}]},{"_id":"61495","landId":"61495","ownerId":"152991","allTrue":false,"exemptions":[{"name":"EMPTY","description":"No Tax Exemption Listed."}],"nameDeedSame":true,"addressSame":false,"name":"H R RENTALS LLC","deed":"H R RENTALS LLC","physicalAddress":"5 WOODHAVEN","physicalCity":"","physicalState":"","physicalZip":"","mailingAddress":"PO BOX 151403","mailingCity":"LUFKIN","mailingState":"TX","mailingZip":"75915","ownership":"100.0000000000%","showOwnerProperty":false,"ownerProperty":[{"propertyId":"61495","propertyAddress":"5 WOODHAVEN","name":"H R RENTALS LLC","price":"$89,670","territory":"50","inTerritory":true}],"improvements":[{"id":0,"improvement":"RESIDENTIAL","livingArea":"1221.0 sqft","value":"$82,850","details":[{"id":0,"description":"MAIN AREA","yearBuild":"1972","sqft":"1221.0"},{"id":0,"description":"GARAGE BRICK/MAS","yearBuild":"1972","sqft":"440.0"},{"id":0,"description":"OPEN BRICK PORCH","yearBuild":"1972","sqft":"125.0"},{"id":0,"description":"MASONRY UTILITY","yearBuild":"1972","sqft":"64.0"}]}],"lands":[{"landType":"RESIDENTIAL","acres":"0.2092","sqft":"9112.00","marketValue":"$6,820","prodValue":"$0"}],"coordinates":{"id":"61495","lat":"31.315237","lng":"-94.755010"},"thumbnail":"61495","error":false,"urlOwnerDetails":"https://propaccess.trueautomation.com/clientdb/Property.aspx?cid=71&prop_id=61495","urlLandMap":"https://propaccess.trueautomation.com/mapSearch/?cid=71&p=61495","territoryNumber":"50","phoneNumbers":[{"_id":"","name":"","contacts":[{"phoneNumber":"","address":""}]}]},{"_id":"61483","landId":"61483","ownerId":"4815","allTrue":false,"exemptions":[{"name":"EMPTY","description":"No Tax Exemption Listed."}],"nameDeedSame":true,"addressSame":false,"name":"HAYES DAVID ETUX CAROL","deed":"HAYES DAVID ETUX CAROL","physicalAddress":"6 WOODHUE CT","physicalCity":"LUFKIN","physicalState":"TX","physicalZip":"75904","mailingAddress":"3 TRAILWOOD CT","mailingCity":"LUFKIN","mailingState":"TX","mailingZip":"75904","ownership":"100.0000000000%","showOwnerProperty":false,"ownerProperty":[{"propertyId":"61483","propertyAddress":"6 WOODHUE CT LUFKIN, TX 75904-4318","name":"HAYES DAVID ETUX CAROL","price":"$128,860","territory":"50","inTerritory":true}],"improvements":[{"id":0,"improvement":"RESIDENTIAL","livingArea":"1502.0 sqft","value":"$113,770","details":[{"id":0,"description":"MAIN AREA","yearBuild":"1972","sqft":"1502.0"},{"id":0,"description":"GARAGE BRICK/MAS","yearBuild":"1972","sqft":"462.0"},{"id":0,"description":"MASONRY UTILITY","yearBuild":"1972","sqft":"60.0"},{"id":0,"description":"OPEN BRICK PORCH","yearBuild":"1972","sqft":"30.0"}]}],"lands":[{"landType":"RESIDENTIAL","acres":"0.2875","sqft":"12524.00","marketValue":"$15,090","prodValue":"$0"}],"coordinates":{"id":"61483","lat":"31.315323","lng":"-94.755498"},"thumbnail":"61483","error":false,"urlOwnerDetails":"https://propaccess.trueautomation.com/clientdb/Property.aspx?cid=71&prop_id=61483","urlLandMap":"https://propaccess.trueautomation.com/mapSearch/?cid=71&p=61483","territoryNumber":"50","phoneNumbers":[{"_id":"","name":"","contacts":[{"phoneNumber":"","address":""}]}]},{"_id":"61500","landId":"61500","ownerId":"142475","allTrue":false,"exemptions":[{"name":"EMPTY","description":"No Tax Exemption Listed."}],"nameDeedSame":true,"addressSame":false,"name":"HENSLEY JAIME BLEVINS","deed":"HENSLEY JAIME BLEVINS","physicalAddress":"10 WOODHAVEN CT","physicalCity":"","physicalState":"","physicalZip":"","mailingAddress":"201INNISBROOK DR","mailingCity":"LUFKIN","mailingState":"TX","mailingZip":"75901","ownership":"100.0000000000%","showOwnerProperty":false,"ownerProperty":[{"propertyId":"61500","propertyAddress":"10 WOODHAVEN CT","name":"HENSLEY JAIME BLEVINS","price":"$94,710","territory":"50","inTerritory":true}],"improvements":[{"id":0,"improvement":"RESIDENTIAL","livingArea":"1152.0 sqft","value":"$80,880","details":[{"id":0,"description":"MAIN AREA","yearBuild":"1968","sqft":"1152.0"},{"id":0,"description":"MASONRY UTILITY","yearBuild":"1968","sqft":"105.0"},{"id":0,"description":"OPEN BRICK PORCH","yearBuild":"1968","sqft":"75.0"},{"id":0,"description":"CARPORT","yearBuild":"1968","sqft":"520.0"}]}],"lands":[{"landType":"RESIDENTIAL","acres":"0.2324","sqft":"10125.00","marketValue":"$13,830","prodValue":"$0"}],"coordinates":{"id":"61500","lat":"31.314995","lng":"-94.754298"},"thumbnail":"61500","error":false,"urlOwnerDetails":"https://propaccess.trueautomation.com/clientdb/Property.aspx?cid=71&prop_id=61500","urlLandMap":"https://propaccess.trueautomation.com/mapSearch/?cid=71&p=61500","territoryNumber":"50","phoneNumbers":[{"_id":"","name":"","contacts":[{"phoneNumber":"","address":""}]}]},{"_id":"61478","landId":"61478","ownerId":"170589","allTrue":false,"exemptions":[{"name":"OTHER","description":"Exemption not listed."},{"name":"HS","description":"Homestead. (The person on the deed lives at this address.)"}],"nameDeedSame":false,"addressSame":true,"name":"HIGHTOWER ROGER C ETUX GLENDA L EST","deed":"HIGHTOWER ROGER C ETUX GLENDA L","physicalAddress":"1 WOODHUE CT","physicalCity":"LUFKIN","physicalState":"TX","physicalZip":"75904","mailingAddress":"1 WOODHUE CT","mailingCity":"LUFKIN","mailingState":"TX","mailingZip":"75904","ownership":"100.0000000000%","showOwnerProperty":false,"ownerProperty":[{"propertyId":"61478","propertyAddress":"1 WOODHUE CT LUFKIN, TX 75904-4318","name":"HIGHTOWER ROGER C ETUX GLENDA L EST","price":"$173,010","territory":"50","inTerritory":true}],"improvements":[{"id":0,"improvement":"RESIDENTIAL","livingArea":"1770.0 sqft","value":"$150,120","details":[{"id":0,"description":"MAIN AREA","yearBuild":"1971","sqft":"1770.0"},{"id":0,"description":"OPEN BRICK PORCH","yearBuild":"1971","sqft":"150.0"},{"id":0,"description":"GARAGE BRICK/MAS","yearBuild":"1971","sqft":"420.0"},{"id":0,"description":"MASONRY UTILITY","yearBuild":"1971","sqft":"85.0"}]},{"id":2,"improvement":"MISC IMP","livingArea":" sqft","value":"$8,100","details":[{"id":2,"description":"PREFAB STEEL BLDG","yearBuild":"2001","sqft":"576.0"}]}],"lands":[{"landType":"RESIDENTIAL","acres":"0.2784","sqft":"12125.00","marketValue":"$14,790","prodValue":"$0"}],"coordinates":{"id":"61478","lat":"31.314137","lng":"-94.755551"},"thumbnail":"61478","error":false,"urlOwnerDetails":"https://propaccess.trueautomation.com/clientdb/Property.aspx?cid=71&prop_id=61478","urlLandMap":"https://propaccess.trueautomation.com/mapSearch/?cid=71&p=61478","territoryNumber":"50","phoneNumbers":[{"_id":"01e13a9cab618aea4b634b433439920f","name":"Hightower, Roger","contacts":[{"phoneNumber":"936-634-9822","address":"1 Woodhue Court Lufkin\n"}]}]},{"_id":"61494","landId":"61494","ownerId":"85985","allTrue":true,"exemptions":[{"name":"OTHER","description":"Exemption not listed."},{"name":"HS","description":"Homestead. (The person on the deed lives at this address.)"}],"nameDeedSame":true,"addressSame":true,"name":"HINKIE BOBBY DWAYNE ETUX MARY P","deed":"HINKIE BOBBY DWAYNE ETUX MARY P","physicalAddress":"4 WOODHAVEN CT","physicalCity":"","physicalState":"","physicalZip":"","mailingAddress":"4 WOODHAVEN CT","mailingCity":"LUFKIN","mailingState":"TX","mailingZip":"75904","ownership":"100.0000000000%","showOwnerProperty":false,"ownerProperty":[{"propertyId":"61494","propertyAddress":"4 WOODHAVEN CT","name":"HINKIE BOBBY DWAYNE ETUX MARY P","price":"$90,670","territory":"50","inTerritory":true}],"improvements":[{"id":0,"improvement":"RESIDENTIAL","livingArea":"1150.0 sqft","value":"$76,840","details":[{"id":0,"description":"MAIN AREA","yearBuild":"1972","sqft":"1150.0"},{"id":0,"description":"CARPORT","yearBuild":"1972","sqft":"361.0"},{"id":0,"description":"MASONRY UTILITY","yearBuild":"1972","sqft":"114.0"},{"id":0,"description":"OPEN BRICK PORCH","yearBuild":"1972","sqft":"68.0"},{"id":0,"description":"CANOPY","yearBuild":"1972","sqft":"216.0"}]}],"lands":[{"landType":"RESIDENTIAL","acres":"0.2324","sqft":"10125.00","marketValue":"$13,830","prodValue":"$0"}],"coordinates":{"id":"61494","lat":"31.315034","lng":"-94.754916"},"thumbnail":"61494","error":false,"urlOwnerDetails":"https://propaccess.trueautomation.com/clientdb/Property.aspx?cid=71&prop_id=61494","urlLandMap":"https://propaccess.trueautomation.com/mapSearch/?cid=71&p=61494","territoryNumber":"50","phoneNumbers":[{"_id":"18983c06351fc823d425759699bd9b11","name":"Hinkie, Bobby D","contacts":[{"phoneNumber":"936-632-5674","address":"4 Woodhaven Court Lufkin\n"}]}]},{"_id":"74028","landId":"74028","ownerId":"162821","allTrue":false,"exemptions":[{"name":"EMPTY","description":"No Tax Exemption Listed."}],"nameDeedSame":true,"addressSame":false,"name":"HOLLAND JONI ALAMO","deed":"HOLLAND JONI ALAMO","physicalAddress":"112 RAINTREE","physicalCity":"","physicalState":"","physicalZip":"","mailingAddress":"P.O. BOX 152605","mailingCity":"LUFKIN","mailingState":"TX","mailingZip":"75915","ownership":"100.0000000000%","showOwnerProperty":false,"ownerProperty":[{"propertyId":"74028","propertyAddress":"112 RAINTREE","name":"HOLLAND JONI ALAMO","price":"$130,710","territory":"50","inTerritory":true}],"improvements":[{"id":0,"improvement":"RESIDENTIAL","livingArea":"1496.0 sqft","value":"$116,670","details":[{"id":0,"description":"MAIN AREA","yearBuild":"1998","sqft":"1496.0"},{"id":0,"description":"OPEN BRICK PORCH","yearBuild":"1998","sqft":"27.0"},{"id":0,"description":"GARAGE BRICK/MAS","yearBuild":"1998","sqft":"448.0"},{"id":0,"description":"OPEN BRICK PORCH","yearBuild":"1998","sqft":"80.0"}]}],"lands":[{"landType":"RESIDENTIAL","acres":"0.3350","sqft":"14592.00","marketValue":"$13,870","prodValue":"$0"},{"landType":"RESIDENTIAL","acres":"0.0413","sqft":"1800.00","marketValue":"$170","prodValue":"$0"}],"coordinates":{"id":"74028","lat":"31.313412","lng":"-94.753548"},"thumbnail":"74028","error":false,"urlOwnerDetails":"https://propaccess.trueautomation.com/clientdb/Property.aspx?cid=71&prop_id=74028","urlLandMap":"https://propaccess.trueautomation.com/mapSearch/?cid=71&p=74028","territoryNumber":"50","phoneNumbers":[{"_id":"","name":"","contacts":[{"phoneNumber":"","address":""}]}]},{"_id":"74027","landId":"74027","ownerId":"162821","allTrue":false,"exemptions":[{"name":"EMPTY","description":"No Tax Exemption Listed."}],"nameDeedSame":true,"addressSame":false,"name":"HOLLAND JONI ALAMO","deed":"HOLLAND JONI ALAMO","physicalAddress":"110 RAINTREE CT","physicalCity":"LUFKIN","physicalState":"TX","physicalZip":"75904","mailingAddress":"P.O. BOX 152605","mailingCity":"LUFKIN","mailingState":"TX","mailingZip":"75915","ownership":"100.0000000000%","showOwnerProperty":false,"ownerProperty":[{"propertyId":"74027","propertyAddress":"110 RAINTREE CT LUFKIN, TX 75904-5470","name":"HOLLAND JONI ALAMO","price":"$83,250","territory":"50","inTerritory":true}],"improvements":[{"id":0,"improvement":"RESIDENTIAL","livingArea":"1240.0 sqft","value":"$71,100","details":[{"id":0,"description":"MAIN AREA","yearBuild":"1993","sqft":"1000.0"},{"id":0,"description":"OPEN BRICK PORCH","yearBuild":"1993","sqft":"48.0"},{"id":0,"description":"MAIN AREA","yearBuild":"1993","sqft":"240.0"}]}],"lands":[{"landType":"RESIDENTIAL","acres":"0.2002","sqft":"8720.00","marketValue":"$12,150","prodValue":"$0"}],"coordinates":{"id":"74027","lat":"31.313798","lng":"-94.753654"},"thumbnail":"74027","error":false,"urlOwnerDetails":"https://propaccess.trueautomation.com/clientdb/Property.aspx?cid=71&prop_id=74027","urlLandMap":"https://propaccess.trueautomation.com/mapSearch/?cid=71&p=74027","territoryNumber":"50","phoneNumbers":[{"_id":"","name":"","contacts":[{"phoneNumber":"","address":""}]}]},{"_id":"11084","landId":"11084","ownerId":"6297","allTrue":false,"exemptions":[{"name":"EMPTY","description":"No Tax Exemption Listed."}],"nameDeedSame":true,"addressSame":false,"name":"J & S DEVELOPMENT","deed":"J & S DEVELOPMENT","physicalAddress":"HANKS ST","physicalCity":"","physicalState":"","physicalZip":"","mailingAddress":"ATTN: HUNTER EVELYN 3019 HAYWICK  THE","mailingCity":"COLONY","mailingState":"TX","mailingZip":"75056","ownership":"100.0000000000%","showOwnerProperty":false,"ownerProperty":[{"propertyId":"11084","propertyAddress":"HANKS ST","name":"J & S DEVELOPMENT","price":"$1,620","territory":"50","inTerritory":true}],"improvements":[],"lands":[{"landType":"Mixed 2","acres":"8.8340","sqft":"384809.04","marketValue":"$13,530","prodValue":"$1,620"}],"coordinates":{"id":"11084","lat":"31.311684","lng":"-94.753105"},"thumbnail":"11084","error":false,"urlOwnerDetails":"https://propaccess.trueautomation.com/clientdb/Property.aspx?cid=71&prop_id=11084","urlLandMap":"https://propaccess.trueautomation.com/mapSearch/?cid=71&p=11084","territoryNumber":"50","phoneNumbers":[{"_id":"","name":"","contacts":[{"phoneNumber":"","address":""}]}]},{"_id":"10525","landId":"10525","ownerId":"6297","allTrue":false,"exemptions":[{"name":"EMPTY","description":"No Tax Exemption Listed."}],"nameDeedSame":true,"addressSame":false,"name":"J & S DEVELOPMENT","deed":"J & S DEVELOPMENT","physicalAddress":"HANKS ST","physicalCity":"","physicalState":"","physicalZip":"","mailingAddress":"ATTN: HUNTER EVELYN 3019 HAYWICK  THE","mailingCity":"COLONY","mailingState":"TX","mailingZip":"75056","ownership":"100.0000000000%","showOwnerProperty":false,"ownerProperty":[{"propertyId":"10525","propertyAddress":"HANKS ST","name":"J & S DEVELOPMENT","price":"$210","territory":"50","inTerritory":true}],"improvements":[],"lands":[{"landType":"Mixed 2","acres":"1.1530","sqft":"50224.68","marketValue":"$1,770","prodValue":"$210"}],"coordinates":{"id":"10525","lat":"31.314011","lng":"-94.752266"},"thumbnail":"10525","error":false,"urlOwnerDetails":"https://propaccess.trueautomation.com/clientdb/Property.aspx?cid=71&prop_id=10525","urlLandMap":"https://propaccess.trueautomation.com/mapSearch/?cid=71&p=10525","territoryNumber":"50","phoneNumbers":[{"_id":"","name":"","contacts":[{"phoneNumber":"","address":""}]}]},{"_id":"61508","landId":"61508","ownerId":"127613","allTrue":false,"exemptions":[{"name":"EMPTY","description":"No Tax Exemption Listed."}],"nameDeedSame":true,"addressSame":false,"name":"JACKUBACK KAREN","deed":"JACKUBACK KAREN","physicalAddress":"1305 CROOKED CREEK DR","physicalCity":"LUFKIN","physicalState":"TX","physicalZip":"75904","mailingAddress":"105 PRIMROSE CT","mailingCity":"LUFKIN","mailingState":"TX","mailingZip":"75904","ownership":"100.0000000000%","showOwnerProperty":false,"ownerProperty":[{"propertyId":"61508","propertyAddress":"1305 CROOKED CREEK DR LUFKIN, TX 75904-4309","name":"JACKUBACK KAREN","price":"$101,410","territory":"50","inTerritory":true}],"improvements":[{"id":0,"improvement":"RESIDENTIAL","livingArea":"1312.0 sqft","value":"$88,960","details":[{"id":0,"description":"MAIN AREA","yearBuild":"1975","sqft":"1312.0"},{"id":0,"description":"OPEN BRICK PORCH","yearBuild":"1975","sqft":"68.0"},{"id":0,"description":"GARAGE BRICK/MAS","yearBuild":"1975","sqft":"380.0"},{"id":0,"description":"MASONRY UTILITY","yearBuild":"1975","sqft":"63.0"},{"id":0,"description":"PATIO CONCRETE/MASONRY","yearBuild":"1975","sqft":"100.0"}]}],"lands":[{"landType":"RESIDENTIAL","acres":"0.2324","sqft":"10125.00","marketValue":"$12,450","prodValue":"$0"}],"coordinates":{"id":"61508","lat":"31.315748","lng":"-94.754200"},"thumbnail":"61508","error":false,"urlOwnerDetails":"https://propaccess.trueautomation.com/clientdb/Property.aspx?cid=71&prop_id=61508","urlLandMap":"https://propaccess.trueautomation.com/mapSearch/?cid=71&p=61508","territoryNumber":"50","phoneNumbers":[{"_id":"","name":"","contacts":[{"phoneNumber":"","address":""}]}]},{"_id":"74016","landId":"74016","ownerId":"127263","allTrue":false,"exemptions":[{"name":"EMPTY","description":"No Tax Exemption Listed."}],"nameDeedSame":true,"addressSame":false,"name":"JASSO EMILIO ETUX MARIA","deed":"JASSO EMILIO ETUX MARIA","physicalAddress":"106 BARBERRY CT","physicalCity":"LUFKIN","physicalState":"TX","physicalZip":"75904","mailingAddress":"109 HAWTHORNE","mailingCity":"LUFKIN","mailingState":"TX","mailingZip":"75904","ownership":"100.0000000000%","showOwnerProperty":false,"ownerProperty":[{"propertyId":"74016","propertyAddress":"106 BARBERRY CT LUFKIN, TX 75904-5402","name":"JASSO EMILIO ETUX MARIA","price":"$107,380","territory":"50","inTerritory":true}],"improvements":[{"id":0,"improvement":"RESIDENTIAL","livingArea":"1289.0 sqft","value":"$97,990","details":[{"id":0,"description":"MAIN AREA","yearBuild":"1993","sqft":"1289.0"},{"id":0,"description":"GARAGE BRICK/MAS","yearBuild":"1993","sqft":"34.0"},{"id":0,"description":"OPEN BRICK PORCH","yearBuild":"1993","sqft":"590.0"}]},{"id":2,"improvement":"MISC IMP","livingArea":" sqft","value":"$210","details":[{"id":2,"description":"SHED FR UTILITY","yearBuild":"1994","sqft":"100.0"}]}],"lands":[{"landType":"RESIDENTIAL","acres":"0.2296","sqft":"10000.00","marketValue":"$9,180","prodValue":"$0"}],"coordinates":{"id":"74016","lat":"31.313512","lng":"-94.754489"},"thumbnail":"74016","error":false,"urlOwnerDetails":"https://propaccess.trueautomation.com/clientdb/Property.aspx?cid=71&prop_id=74016","urlLandMap":"https://propaccess.trueautomation.com/mapSearch/?cid=71&p=74016","territoryNumber":"50","phoneNumbers":[{"_id":"","name":"","contacts":[{"phoneNumber":"","address":""}]}]},{"_id":"74015","landId":"74015","ownerId":"127263","allTrue":false,"exemptions":[{"name":"EMPTY","description":"No Tax Exemption Listed."}],"nameDeedSame":true,"addressSame":false,"name":"JASSO EMILIO ETUX MARIA","deed":"JASSO EMILIO ETUX MARIA","physicalAddress":"104 BARBERRY CT","physicalCity":"LUFKIN","physicalState":"TX","physicalZip":"75904","mailingAddress":"109 HAWTHORNE","mailingCity":"LUFKIN","mailingState":"TX","mailingZip":"75904","ownership":"100.0000000000%","showOwnerProperty":false,"ownerProperty":[{"propertyId":"74015","propertyAddress":"104 BARBERRY CT LUFKIN, TX 75904-5402","name":"JASSO EMILIO ETUX MARIA","price":"$106,360","territory":"50","inTerritory":true}],"improvements":[{"id":0,"improvement":"RESIDENTIAL","livingArea":"1180.0 sqft","value":"$97,180","details":[{"id":0,"description":"MAIN AREA","yearBuild":"1994","sqft":"1180.0"},{"id":0,"description":"OPEN BRICK PORCH","yearBuild":"1994","sqft":"60.0"},{"id":0,"description":"GARAGE BRICK/MAS","yearBuild":"1994","sqft":"440.0"},{"id":0,"description":"WOOD DECK","yearBuild":"1994","sqft":"100.0"},{"id":0,"description":"CANOPY","yearBuild":"1994","sqft":"96.0"},{"id":0,"description":"MASONRY UTILITY","yearBuild":"1994","sqft":"171.0"}]}],"lands":[{"landType":"RESIDENTIAL","acres":"0.2296","sqft":"10000.00","marketValue":"$9,180","prodValue":"$0"}],"coordinates":{"id":"74015","lat":"31.313718","lng":"-94.754583"},"thumbnail":"74015","error":false,"urlOwnerDetails":"https://propaccess.trueautomation.com/clientdb/Property.aspx?cid=71&prop_id=74015","urlLandMap":"https://propaccess.trueautomation.com/mapSearch/?cid=71&p=74015","territoryNumber":"50","phoneNumbers":[{"_id":"","name":"","contacts":[{"phoneNumber":"","address":""}]}]},{"_id":"61503","landId":"61503","ownerId":"26190","allTrue":false,"exemptions":[{"name":"EMPTY","description":"No Tax Exemption Listed."}],"nameDeedSame":true,"addressSame":false,"name":"JEFFREY KENNETH L ETUX ELIZABETH","deed":"JEFFREY KENNETH L ETUX ELIZABETH","physicalAddress":"1325 CROOKED CRK","physicalCity":"","physicalState":"","physicalZip":"","mailingAddress":"1889 FM 819","mailingCity":"LUFKIN","mailingState":"TX","mailingZip":"75901","ownership":"100.0000000000%","showOwnerProperty":false,"ownerProperty":[{"propertyId":"61503","propertyAddress":"1325 CROOKED CRK","name":"JEFFREY KENNETH L ETUX ELIZABETH","price":"$101,650","territory":"50","inTerritory":true}],"improvements":[{"id":0,"improvement":"RESIDENTIAL","livingArea":"1312.0 sqft","value":"$89,000","details":[{"id":0,"description":"MAIN AREA","yearBuild":"1976","sqft":"1312.0"},{"id":0,"description":"CARPORT","yearBuild":"1976","sqft":"380.0"},{"id":0,"description":"OPEN BRICK PORCH","yearBuild":"1976","sqft":"68.0"},{"id":0,"description":"MASONRY UTILITY","yearBuild":"1976","sqft":"63.0"},{"id":0,"description":"CANOPY","yearBuild":"1976","sqft":"168.0"}]},{"id":2,"improvement":"MISC IMP","livingArea":" sqft","value":"$200","details":[{"id":2,"description":"SHED FR UTILITY","yearBuild":"1976","sqft":"160.0"}]}],"lands":[{"landType":"RESIDENTIAL","acres":"0.2324","sqft":"10125.00","marketValue":"$12,450","prodValue":"$0"}],"coordinates":{"id":"61503","lat":"31.314700","lng":"-94.753741"},"thumbnail":"61503","error":false,"urlOwnerDetails":"https://propaccess.trueautomation.com/clientdb/Property.aspx?cid=71&prop_id=61503","urlLandMap":"https://propaccess.trueautomation.com/mapSearch/?cid=71&p=61503","territoryNumber":"50","phoneNumbers":[{"_id":"f0e2b545ffd93777af91ea551ac6c2ca","name":"Jeffrey, Kenneth &amp; Elizabeth","contacts":[{"phoneNumber":"936-637-3688","address":"1889 FM 819 Lufkin\n"}]}]},{"_id":"61507","landId":"61507","ownerId":"11644","allTrue":false,"exemptions":[{"name":"HS","description":"Homestead. (The person on the deed lives at this address.)"},{"name":"OTHER","description":"Exemption not listed."}],"nameDeedSame":true,"addressSame":false,"name":"JOHNSON SHERRY JAN","deed":"JOHNSON SHERRY JAN","physicalAddress":"1311 CROOKED CREEK DR","physicalCity":"LUFKIN","physicalState":"TX","physicalZip":"75904","mailingAddress":"PO BOX 155224","mailingCity":"LUFKIN","mailingState":"TX","mailingZip":"75915","ownership":"100.0000000000%","showOwnerProperty":false,"ownerProperty":[{"propertyId":"61507","propertyAddress":"1311 CROOKED CREEK DR LUFKIN, TX 75904-4309","name":"JOHNSON SHERRY JAN","price":"$89,490","territory":"50","inTerritory":true}],"improvements":[{"id":0,"improvement":"RESIDENTIAL","livingArea":"1256.0 sqft","value":"$77,040","details":[{"id":0,"description":"MAIN AREA","yearBuild":"1975","sqft":"1256.0"},{"id":0,"description":"OPEN BRICK PORCH","yearBuild":"1975","sqft":"96.0"},{"id":0,"description":"CARPORT","yearBuild":"1975","sqft":"380.0"},{"id":0,"description":"MASONRY UTILITY","yearBuild":"1975","sqft":"54.0"},{"id":0,"description":"PATIO CONCRETE/MASONRY","yearBuild":"1975","sqft":"100.0"}]}],"lands":[{"landType":"RESIDENTIAL","acres":"0.2324","sqft":"10125.00","marketValue":"$12,450","prodValue":"$0"}],"coordinates":{"id":"61507","lat":"31.315540","lng":"-94.754108"},"thumbnail":"61507","error":false,"urlOwnerDetails":"https://propaccess.trueautomation.com/clientdb/Property.aspx?cid=71&prop_id=61507","urlLandMap":"https://propaccess.trueautomation.com/mapSearch/?cid=71&p=61507","territoryNumber":"50","phoneNumbers":[{"_id":"","name":"","contacts":[{"phoneNumber":"","address":""}]}]},{"_id":"74021","landId":"74021","ownerId":"166805","allTrue":true,"exemptions":[{"name":"HS","description":"Homestead. (The person on the deed lives at this address.)"}],"nameDeedSame":true,"addressSame":true,"name":"KOVAR PHYLLIS","deed":"KOVAR PHYLLIS","physicalAddress":"107 BARBERRY CT","physicalCity":"","physicalState":"","physicalZip":"","mailingAddress":"107 BARBERRY CT","mailingCity":"LUFKIN","mailingState":"TX","mailingZip":"75904","ownership":"100.0000000000%","showOwnerProperty":false,"ownerProperty":[{"propertyId":"74021","propertyAddress":"107 BARBERRY CT","name":"KOVAR PHYLLIS","price":"$114,630","territory":"50","inTerritory":true}],"improvements":[{"id":0,"improvement":"RESIDENTIAL","livingArea":"1370.0 sqft","value":"$100,980","details":[{"id":0,"description":"MAIN AREA","yearBuild":"1992","sqft":"1370.0"},{"id":0,"description":"OPEN BRICK PORCH","yearBuild":"1992","sqft":"54.0"},{"id":0,"description":"GARAGE BRICK/MAS","yearBuild":"1992","sqft":"442.0"}]}],"lands":[{"landType":"RESIDENTIAL","acres":"0.2094","sqft":"9120.00","marketValue":"$13,650","prodValue":"$0"}],"coordinates":{"id":"74021","lat":"31.313493","lng":"-94.753871"},"thumbnail":"74021","error":false,"urlOwnerDetails":"https://propaccess.trueautomation.com/clientdb/Property.aspx?cid=71&prop_id=74021","urlLandMap":"https://propaccess.trueautomation.com/mapSearch/?cid=71&p=74021","territoryNumber":"50","phoneNumbers":[{"_id":"","name":"","contacts":[{"phoneNumber":"","address":""}]}]},{"_id":"61469","landId":"61469","ownerId":"149014","allTrue":true,"exemptions":[{"name":"HS","description":"Homestead. (The person on the deed lives at this address.)"}],"nameDeedSame":true,"addressSame":true,"name":"LAMBORN MICHAEL LEE","deed":"LAMBORN MICHAEL LEE","physicalAddress":"1517 TURTLE CREEK DR","physicalCity":"LUFKIN","physicalState":"TX","physicalZip":"75904","mailingAddress":"1517 TURTLE CREEK DR","mailingCity":"LUFKIN","mailingState":"TX","mailingZip":"75904","ownership":"100.0000000000%","showOwnerProperty":false,"ownerProperty":[{"propertyId":"61469","propertyAddress":"1517 TURTLE CREEK DR LUFKIN, TX 75904","name":"LAMBORN MICHAEL LEE","price":"$99,340","territory":"50","inTerritory":true}],"improvements":[{"id":0,"improvement":"RESIDENTIAL","livingArea":"1620.0 sqft","value":"$84,640","details":[{"id":0,"description":"MAIN AREA","yearBuild":"1966","sqft":"1220.0"},{"id":0,"description":"MASONRY UTILITY","yearBuild":"1966","sqft":"80.0"},{"id":0,"description":"OPEN BRICK PORCH","yearBuild":"1966","sqft":"125.0"},{"id":0,"description":"MAIN AREA","yearBuild":"1966","sqft":"400.0"}]}],"lands":[{"landType":"RESIDENTIAL","acres":"0.2755","sqft":"12000.00","marketValue":"$14,700","prodValue":"$0"}],"coordinates":{"id":"61469","lat":"31.315440","lng":"-94.756180"},"thumbnail":"61469","error":false,"urlOwnerDetails":"https://propaccess.trueautomation.com/clientdb/Property.aspx?cid=71&prop_id=61469","urlLandMap":"https://propaccess.trueautomation.com/mapSearch/?cid=71&p=61469","territoryNumber":"50","phoneNumbers":[{"_id":"","name":"","contacts":[{"phoneNumber":"","address":""}]}]},{"_id":"61492","landId":"61492","ownerId":"14087","allTrue":true,"exemptions":[{"name":"OTHER","description":"Exemption not listed."},{"name":"HS","description":"Homestead. (The person on the deed lives at this address.)"}],"nameDeedSame":true,"addressSame":true,"name":"LARABELL ALBERT R ETUX JUANITA","deed":"LARABELL ALBERT R ETUX JUANITA","physicalAddress":"2 WOODHAVEN CT","physicalCity":"LUFKIN","physicalState":"TX","physicalZip":"75904","mailingAddress":"2 WOODHAVEN CT","mailingCity":"LUFKIN","mailingState":"TX","mailingZip":"75904","ownership":"100.0000000000%","showOwnerProperty":false,"ownerProperty":[{"propertyId":"61492","propertyAddress":"2 WOODHAVEN CT LUFKIN, TX 75904-4317","name":"LARABELL ALBERT R ETUX JUANITA","price":"$112,690","territory":"50","inTerritory":true}],"improvements":[{"id":0,"improvement":"RESIDENTIAL","livingArea":"1921.0 sqft","value":"$99,310","details":[{"id":0,"description":"MAIN AREA","yearBuild":"1972","sqft":"1560.0"},{"id":0,"description":"MAIN AREA","yearBuild":"1972","sqft":"361.0"},{"id":0,"description":"MASONRY UTILITY","yearBuild":"1972","sqft":"114.0"},{"id":0,"description":"OPEN BRICK PORCH","yearBuild":"1972","sqft":"68.0"},{"id":0,"description":"WOOD DECK","yearBuild":"1972","sqft":"392.0"}]},{"id":2,"improvement":"MISC IMP","livingArea":" sqft","value":"$240","details":[{"id":2,"description":"SHED FR UTILITY","yearBuild":"1972","sqft":"168.0"}]}],"lands":[{"landType":"RESIDENTIAL","acres":"0.2324","sqft":"10125.00","marketValue":"$13,140","prodValue":"$0"}],"coordinates":{"id":"61492","lat":"31.314614","lng":"-94.754730"},"thumbnail":"61492","error":false,"urlOwnerDetails":"https://propaccess.trueautomation.com/clientdb/Property.aspx?cid=71&prop_id=61492","urlLandMap":"https://propaccess.trueautomation.com/mapSearch/?cid=71&p=61492","territoryNumber":"50","phoneNumbers":[{"_id":"","name":"","contacts":[{"phoneNumber":"","address":""}]}]},{"_id":"61475","landId":"61475","ownerId":"161436","allTrue":false,"exemptions":[{"name":"HS","description":"Homestead. (The person on the deed lives at this address.)"}],"nameDeedSame":true,"addressSame":false,"name":"LOPEZ GILBERT RAMOS JR ETUX CATRINA ANN","deed":"LOPEZ GILBERT RAMOS JR ETUX CATRINA ANN","physicalAddress":"1505 TURTLE CREEK","physicalCity":"","physicalState":"TX","physicalZip":"","mailingAddress":"1505 TURTLE CREEK DR","mailingCity":"LUFKIN","mailingState":"TX","mailingZip":"75901","ownership":"100.0000000000%","showOwnerProperty":false,"ownerProperty":[],"improvements":[{"id":0,"improvement":"RESIDENTIAL","livingArea":"1804.0 sqft","value":"$108,460","details":[{"id":0,"description":"MAIN AREA","yearBuild":"1968","sqft":"1444.0"},{"id":0,"description":"CARPORT","yearBuild":"1968","sqft":"399.0"},{"id":0,"description":"MASONRY UTILITY","yearBuild":"1968","sqft":"81.0"},{"id":0,"description":"OPEN BRICK PORCH","yearBuild":"1968","sqft":"68.0"},{"id":0,"description":"MAIN AREA","yearBuild":"1999","sqft":"360.0"}]}],"lands":[{"landType":"RESIDENTIAL","acres":"0.2755","sqft":"12000.00","marketValue":"$14,700","prodValue":"$0"}],"coordinates":{"id":"61475","lat":"31.315924","lng":"-94.754735"},"thumbnail":"61475","error":false,"urlOwnerDetails":"https://propaccess.trueautomation.com/clientdb/Property.aspx?cid=71&prop_id=61475","urlLandMap":"https://propaccess.trueautomation.com/mapSearch/?cid=71&p=61475","territoryNumber":"50","phoneNumbers":[{"_id":"","name":"","contacts":[{"phoneNumber":"","address":""}]}]},{"_id":"61493","landId":"61493","ownerId":"41824","allTrue":false,"exemptions":[{"name":"EMPTY","description":"No Tax Exemption Listed."}],"nameDeedSame":true,"addressSame":false,"name":"M & M PROPERTIES","deed":"M & M PROPERTIES","physicalAddress":"3 WOODHAVEN CT","physicalCity":"","physicalState":"","physicalZip":"","mailingAddress":"3708 S MEDFORD DR","mailingCity":"LUFKIN","mailingState":"TX","mailingZip":"75901","ownership":"100.0000000000%","showOwnerProperty":false,"ownerProperty":[{"propertyId":"61493","propertyAddress":"3 WOODHAVEN CT","name":"M & M PROPERTIES","price":"$94,910","territory":"50","inTerritory":true}],"improvements":[{"id":0,"improvement":"RESIDENTIAL","livingArea":"1319.0 sqft","value":"$75,760","details":[{"id":0,"description":"MAIN AREA","yearBuild":"1972","sqft":"1319.0"},{"id":0,"description":"CARPORT","yearBuild":"1972","sqft":"380.0"},{"id":0,"description":"MASONRY UTILITY","yearBuild":"1972","sqft":"63.0"},{"id":0,"description":"CANOPY","yearBuild":"1972","sqft":"216.0"},{"id":0,"description":"OPEN BRICK PORCH","yearBuild":"1972","sqft":"85.0"}]}],"lands":[{"landType":"RESIDENTIAL","acres":"0.2324","sqft":"10125.00","marketValue":"$13,830","prodValue":"$0"}],"coordinates":{"id":"61493","lat":"31.314824","lng":"-94.754822"},"thumbnail":"61493","error":false,"urlOwnerDetails":"https://propaccess.trueautomation.com/clientdb/Property.aspx?cid=71&prop_id=61493","urlLandMap":"https://propaccess.trueautomation.com/mapSearch/?cid=71&p=61493","territoryNumber":"50","phoneNumbers":[{"_id":"35ce891057b6e4cbf2e537486ad7d862","name":"Bartlett Baggett &amp; Shands/ Morgan Insurance Agency","contacts":[{"phoneNumber":"936-632-4496","address":"3708 S Medford Dr Lufkin\n"}]},{"_id":"f58665bf66f67974a887982b507b92fb","name":"Morgan Insurance Agency/ Bartlett Baggett &amp; Shands","contacts":[{"phoneNumber":"936-634-7755","address":"3708 S Medford Dr Lufkin\n"}]}]},{"_id":"61468","landId":"61468","ownerId":"61545","allTrue":false,"exemptions":[{"name":"EMPTY","description":"No Tax Exemption Listed."}],"nameDeedSame":true,"addressSame":false,"name":"M & M PROPERTIES","deed":"M & M PROPERTIES","physicalAddress":"1519 TURTLE CREEK","physicalCity":"","physicalState":"","physicalZip":"","mailingAddress":"3708 S MEDFORD DR","mailingCity":"LUFKIN","mailingState":"TX","mailingZip":"75901","ownership":"100.0000000000%","showOwnerProperty":false,"ownerProperty":[{"propertyId":"61468","propertyAddress":"1519 TURTLE CREEK","name":"M & M PROPERTIES","price":"$94,630","territory":"50","inTerritory":true}],"improvements":[{"id":0,"improvement":"RESIDENTIAL","livingArea":"1200.0 sqft","value":"$75,940","details":[{"id":0,"description":"MAIN AREA","yearBuild":"1969","sqft":"1200.0"},{"id":0,"description":"GARAGE BRICK/MAS","yearBuild":"1969","sqft":"380.0"},{"id":0,"description":"MASONRY UTILITY","yearBuild":"1969","sqft":"102.0"},{"id":0,"description":"OPEN BRICK PORCH","yearBuild":"1969","sqft":"24.0"}]}],"lands":[{"landType":"RESIDENTIAL","acres":"0.2755","sqft":"12000.00","marketValue":"$14,700","prodValue":"$0"}],"coordinates":{"id":"61468","lat":"31.315360","lng":"-94.756416"},"thumbnail":"61468","error":false,"urlOwnerDetails":"https://propaccess.trueautomation.com/clientdb/Property.aspx?cid=71&prop_id=61468","urlLandMap":"https://propaccess.trueautomation.com/mapSearch/?cid=71&p=61468","territoryNumber":"50","phoneNumbers":[{"_id":"35ce891057b6e4cbf2e537486ad7d862","name":"Bartlett Baggett &amp; Shands/ Morgan Insurance Agency","contacts":[{"phoneNumber":"936-632-4496","address":"3708 S Medford Dr Lufkin\n"}]},{"_id":"f58665bf66f67974a887982b507b92fb","name":"Morgan Insurance Agency/ Bartlett Baggett &amp; Shands","contacts":[{"phoneNumber":"936-634-7755","address":"3708 S Medford Dr Lufkin\n"}]}]},{"_id":"74019","landId":"74019","ownerId":"34311","allTrue":true,"exemptions":[{"name":"HS","description":"Homestead. (The person on the deed lives at this address.)"},{"name":"OTHER","description":"Exemption not listed."}],"nameDeedSame":true,"addressSame":true,"name":"MALONE DELLA","deed":"MALONE DELLA","physicalAddress":"112 BARBERRY CT","physicalCity":"LUFKIN","physicalState":"TX","physicalZip":"75904","mailingAddress":"112 BARBERRY CT","mailingCity":"LUFKIN","mailingState":"TX","mailingZip":"75904","ownership":"100.0000000000%","showOwnerProperty":false,"ownerProperty":[{"propertyId":"74019","propertyAddress":"112 BARBERRY CT LUFKIN, TX 75904-5402","name":"MALONE DELLA","price":"$210,060","territory":"50","inTerritory":true}],"improvements":[{"id":0,"improvement":"RESIDENTIAL","livingArea":"2272.0 sqft","value":"$181,010","details":[{"id":0,"description":"MAIN AREA","yearBuild":"1996","sqft":"2272.0"},{"id":0,"description":"OPEN BRICK PORCH","yearBuild":"1996","sqft":"160.0"},{"id":0,"description":"OPEN BRICK PORCH","yearBuild":"1996","sqft":"160.0"},{"id":0,"description":"GARAGE BRICK/MAS","yearBuild":"1998","sqft":"400.0"}]},{"id":2,"improvement":"RESIDENTIAL","livingArea":" sqft","value":"$4,800","details":[{"id":2,"description":"MASONRY UTILITY","yearBuild":"1997","sqft":"144.0"}]},{"id":4,"improvement":"MISC IMP","livingArea":" sqft","value":"$7,050","details":[{"id":4,"description":"PREFAB STEEL BLDG","yearBuild":"2016","sqft":"720.0"}]}],"lands":[{"landType":"RESIDENTIAL","acres":"0.3705","sqft":"16141.00","marketValue":"$17,200","prodValue":"$0"}],"coordinates":{"id":"74019","lat":"31.312987","lng":"-94.753970"},"thumbnail":"74019","error":false,"urlOwnerDetails":"https://propaccess.trueautomation.com/clientdb/Property.aspx?cid=71&prop_id=74019","urlLandMap":"https://propaccess.trueautomation.com/mapSearch/?cid=71&p=74019","territoryNumber":"50","phoneNumbers":[{"_id":"4d43ec36af0079711dc545758319aade","name":"Malone, Della","contacts":[{"phoneNumber":"936-634-3488","address":"112 Barberry Court Lufkin\n"}]}]},{"_id":"61480","landId":"61480","ownerId":"152591","allTrue":true,"exemptions":[{"name":"HS","description":"Homestead. (The person on the deed lives at this address.)"}],"nameDeedSame":true,"addressSame":true,"name":"MARTINEZ MARCIAL ETUX OFELIA","deed":"MARTINEZ MARCIAL ETUX OFELIA","physicalAddress":"3 WOODHUE CT","physicalCity":"LUFKIN","physicalState":"TX","physicalZip":"75904","mailingAddress":"3 WOODHUE CT","mailingCity":"LUFKIN","mailingState":"TX","mailingZip":"75904","ownership":"100.0000000000%","showOwnerProperty":false,"ownerProperty":[{"propertyId":"61480","propertyAddress":"3 WOODHUE CT LUFKIN, TX 75904-4318","name":"MARTINEZ MARCIAL ETUX OFELIA","price":"$118,050","territory":"50","inTerritory":true}],"improvements":[{"id":0,"improvement":"RESIDENTIAL","livingArea":"1418.0 sqft","value":"$102,820","details":[{"id":0,"description":"MAIN AREA","yearBuild":"1971","sqft":"1418.0"},{"id":0,"description":"MASONRY UTILITY","yearBuild":"1971","sqft":"108.0"},{"id":0,"description":"OPEN BRICK PORCH","yearBuild":"1971","sqft":"78.0"},{"id":0,"description":"GARAGE BRICK/MAS","yearBuild":"1971","sqft":"360.0"},{"id":0,"description":"OPEN BRICK PORCH","yearBuild":"1971","sqft":"168.0"}]},{"id":2,"improvement":"MISC IMP","livingArea":" sqft","value":"$440","details":[{"id":2,"description":"SHED FR UTILITY","yearBuild":"1985","sqft":"260.0"}]}],"lands":[{"landType":"RESIDENTIAL","acres":"0.2784","sqft":"12125.00","marketValue":"$14,790","prodValue":"$0"}],"coordinates":{"id":"61480","lat":"31.314632","lng":"-94.755773"},"thumbnail":"61480","error":false,"urlOwnerDetails":"https://propaccess.trueautomation.com/clientdb/Property.aspx?cid=71&prop_id=61480","urlLandMap":"https://propaccess.trueautomation.com/mapSearch/?cid=71&p=61480","territoryNumber":"50","phoneNumbers":[{"_id":"639d864dc30bbb99009761bc0a312884","name":"Martinez, Marshall","contacts":[{"phoneNumber":"936-899-5578","address":"3 Woodhue Court Lufkin\n"}]}]},{"_id":"61526","landId":"61526","ownerId":"169649","allTrue":true,"exemptions":[{"name":"HS","description":"Homestead. (The person on the deed lives at this address.)"}],"nameDeedSame":true,"addressSame":true,"name":"MASON STEVEN D ETUX SHAUNA A","deed":"MASON STEVEN D ETUX SHAUNA A","physicalAddress":"1401 WOODLAND DR","physicalCity":"LUFKIN","physicalState":"TX","physicalZip":"75904","mailingAddress":"1401 WOODLAND DR","mailingCity":"LUFKIN","mailingState":"TX","mailingZip":"75904","ownership":"100.0000000000%","showOwnerProperty":false,"ownerProperty":[{"propertyId":"61526","propertyAddress":"1401 WOODLAND DR LUFKIN, TX 75904-4314","name":"MASON STEVEN D ETUX SHAUNA A","price":"$332,800","territory":"50","inTerritory":true}],"improvements":[{"id":0,"improvement":"RESIDENTIAL","livingArea":"3019.0 sqft","value":"$255,570","details":[{"id":0,"description":"MAIN AREA","yearBuild":"1969","sqft":"3019.0"},{"id":0,"description":"GARAGE BRICK/MAS","yearBuild":"1969","sqft":"480.0"},{"id":0,"description":"OPEN BRICK PORCH","yearBuild":"1969","sqft":"252.0"},{"id":0,"description":"OPEN BRICK PORCH","yearBuild":"1969","sqft":"136.0"}]},{"id":2,"improvement":"MISC IMP","livingArea":" sqft","value":"$33,420","details":[{"id":2,"description":"POOL GUNITE","yearBuild":"0","sqft":"800.0"},{"id":2,"description":"PATIO CONCRETE/MASONRY","yearBuild":"0","sqft":"980.0"}]},{"id":4,"improvement":"RESIDENTIAL","livingArea":" sqft","value":"$22,760","details":[{"id":4,"description":"PREFAB STEEL BLDG","yearBuild":"2017","sqft":"1200.0"},{"id":4,"description":"PREFAB STEEL BLDG","yearBuild":"2017","sqft":"600.0"}]}],"lands":[{"landType":"RESIDENTIAL","acres":"0.8781","sqft":"38250.00","marketValue":"$21,050","prodValue":"$0"}],"coordinates":{"id":"61526","lat":"31.313385","lng":"-94.756069"},"thumbnail":"61526","error":false,"urlOwnerDetails":"https://propaccess.trueautomation.com/clientdb/Property.aspx?cid=71&prop_id=61526","urlLandMap":"https://propaccess.trueautomation.com/mapSearch/?cid=71&p=61526","territoryNumber":"50","phoneNumbers":[{"_id":"","name":"","contacts":[{"phoneNumber":"","address":""}]}]},{"_id":"61490","landId":"61490","ownerId":"165304","allTrue":false,"exemptions":[{"name":"EMPTY","description":"No Tax Exemption Listed."}],"nameDeedSame":true,"addressSame":false,"name":"MCILVEENE CHARLES SCOTT & DELISE S","deed":"MCILVEENE CHARLES SCOTT & DELISE S","physicalAddress":"1305 WOODLAND (BEHIND)","physicalCity":"","physicalState":"","physicalZip":"","mailingAddress":"1305 WOODLAND DR","mailingCity":"LUFKIN","mailingState":"TX","mailingZip":"75904","ownership":"100.0000000000%","showOwnerProperty":false,"ownerProperty":[{"propertyId":"61490","propertyAddress":"1305 WOODLAND (BEHIND)","name":"MCILVEENE CHARLES SCOTT & DELISE S","price":"$5,400","territory":"50","inTerritory":true}],"improvements":[],"lands":[{"landType":"RESIDENTIAL","acres":"0.2477","sqft":"10790.00","marketValue":"$5,400","prodValue":"$0"}],"coordinates":{"id":"61490","lat":"31.314972","lng":"-94.756237"},"thumbnail":"61490","error":false,"urlOwnerDetails":"https://propaccess.trueautomation.com/clientdb/Property.aspx?cid=71&prop_id=61490","urlLandMap":"https://propaccess.trueautomation.com/mapSearch/?cid=71&p=61490","territoryNumber":"50","phoneNumbers":[{"_id":"","name":"","contacts":[{"phoneNumber":"","address":""}]}]},{"_id":"61523","landId":"61523","ownerId":"85927","allTrue":true,"exemptions":[{"name":"HS","description":"Homestead. (The person on the deed lives at this address.)"}],"nameDeedSame":true,"addressSame":true,"name":"MCILVEENE S SCOTT & DELISE S","deed":"MCILVEENE S SCOTT & DELISE S","physicalAddress":"1305 WOODLAND DR","physicalCity":"LUFKIN","physicalState":"TX","physicalZip":"75904","mailingAddress":"1305 WOODLAND DR","mailingCity":"LUFKIN","mailingState":"TX","mailingZip":"75904","ownership":"100.0000000000%","showOwnerProperty":false,"ownerProperty":[{"propertyId":"61523","propertyAddress":"1305 WOODLAND DR LUFKIN, TX 75904-4323","name":"MCILVEENE S SCOTT & DELISE S","price":"$251,290","territory":"50","inTerritory":true}],"improvements":[{"id":0,"improvement":"RESIDENTIAL","livingArea":"2524.0 sqft","value":"$232,640","details":[{"id":0,"description":"MAIN AREA","yearBuild":"1967","sqft":"2524.0"},{"id":0,"description":"GARAGE BRICK/MAS","yearBuild":"1967","sqft":"625.0"},{"id":0,"description":"OPEN BRICK PORCH","yearBuild":"1967","sqft":"240.0"},{"id":0,"description":"OPEN BRICK PORCH","yearBuild":"1967","sqft":"272.0"},{"id":0,"description":"MASONRY UTILITY","yearBuild":"1967","sqft":"153.0"}]}],"lands":[{"landType":"RESIDENTIAL","acres":"0.9527","sqft":"41500.00","marketValue":"$18,650","prodValue":"$0"}],"coordinates":{"id":"61523","lat":"31.314817","lng":"-94.756704"},"thumbnail":"61523","error":false,"urlOwnerDetails":"https://propaccess.trueautomation.com/clientdb/Property.aspx?cid=71&prop_id=61523","urlLandMap":"https://propaccess.trueautomation.com/mapSearch/?cid=71&p=61523","territoryNumber":"50","phoneNumbers":[{"_id":"","name":"","contacts":[{"phoneNumber":"","address":""}]}]},{"_id":"74024","landId":"74024","ownerId":"159205","allTrue":true,"exemptions":[{"name":"HS","description":"Homestead. (The person on the deed lives at this address.)"},{"name":"OTHER","description":"Exemption not listed."},{"name":"DVHS","description":"Disabled Veteran Homestead."}],"nameDeedSame":true,"addressSame":true,"name":"MCQUEEN REGINALD","deed":"MCQUEEN REGINALD","physicalAddress":"101 BARBERRY CT","physicalCity":"LUFKIN","physicalState":"TX","physicalZip":"75904","mailingAddress":"101 BARBERRY CT","mailingCity":"LUFKIN","mailingState":"TX","mailingZip":"75904","ownership":"100.0000000000%","showOwnerProperty":false,"ownerProperty":[{"propertyId":"74024","propertyAddress":"101 BARBERRY CT LUFKIN, TX 75904-5402","name":"MCQUEEN REGINALD","price":"$126,990","territory":"50","inTerritory":true}],"improvements":[{"id":0,"improvement":"RESIDENTIAL","livingArea":"1217.0 sqft","value":"$113,220","details":[{"id":0,"description":"MAIN AREA","yearBuild":"1991","sqft":"1217.0"},{"id":0,"description":"GARAGE BRICK/MAS","yearBuild":"1991","sqft":"441.0"},{"id":0,"description":"OPEN BRICK PORCH","yearBuild":"1991","sqft":"15.0"},{"id":0,"description":"CANOPY","yearBuild":"1997","sqft":"360.0"}]}],"lands":[{"landType":"RESIDENTIAL","acres":"0.2204","sqft":"9600.00","marketValue":"$13,770","prodValue":"$0"}],"coordinates":{"id":"74024","lat":"31.314097","lng":"-94.754162"},"thumbnail":"74024","error":false,"urlOwnerDetails":"https://propaccess.trueautomation.com/clientdb/Property.aspx?cid=71&prop_id=74024","urlLandMap":"https://propaccess.trueautomation.com/mapSearch/?cid=71&p=74024","territoryNumber":"50","phoneNumbers":[{"_id":"","name":"","contacts":[{"phoneNumber":"","address":""}]}]},{"_id":"11079","landId":"11079","ownerId":"12391","allTrue":false,"exemptions":[{"name":"OTHER","description":"Exemption not listed."},{"name":"HS","description":"Homestead. (The person on the deed lives at this address.)"}],"nameDeedSame":true,"addressSame":false,"name":"MORRIS LEON","deed":"MORRIS LEON","physicalAddress":"1601 COPELAND","physicalCity":"","physicalState":"","physicalZip":"","mailingAddress":"1601 COPELAND ST","mailingCity":"LUFKIN","mailingState":"TX","mailingZip":"75904","ownership":"100.0000000000%","showOwnerProperty":false,"ownerProperty":[{"propertyId":"11079","propertyAddress":"1601 COPELAND","name":"MORRIS LEON","price":"$212,470","territory":"50","inTerritory":true}],"improvements":[{"id":0,"improvement":"RESIDENTIAL","livingArea":"2130.0 sqft","value":"$181,440","details":[{"id":0,"description":"MAIN AREA","yearBuild":"1969","sqft":"2130.0"},{"id":0,"description":"GARAGE BRICK/MAS","yearBuild":"1969","sqft":"440.0"},{"id":0,"description":"MASONRY UTILITY","yearBuild":"1969","sqft":"160.0"},{"id":0,"description":"PATIO CONCRETE/MASONRY","yearBuild":"1969","sqft":"238.0"},{"id":0,"description":"OPEN BRICK PORCH","yearBuild":"1969","sqft":"30.0"}]}],"lands":[{"landType":"RESIDENTIAL","acres":"2.6700","sqft":"90038.00","marketValue":"$31,030","prodValue":"$0"}],"coordinates":{"id":"11079","lat":"31.313224","lng":"-94.755143"},"thumbnail":"11079","error":false,"urlOwnerDetails":"https://propaccess.trueautomation.com/clientdb/Property.aspx?cid=71&prop_id=11079","urlLandMap":"https://propaccess.trueautomation.com/mapSearch/?cid=71&p=11079","territoryNumber":"50","phoneNumbers":[{"_id":"80ae861abe5dc7e4ad877bdf0d2b6cd7","name":"Morris, Leon","contacts":[{"phoneNumber":"936-634-7628","address":"1601 Copeland Lufkin\n"}]}]},{"_id":"74034","landId":"74034","ownerId":"12391","allTrue":false,"exemptions":[{"name":"EMPTY","description":"No Tax Exemption Listed."}],"nameDeedSame":true,"addressSame":false,"name":"MORRIS LEON","deed":"MORRIS LEON","physicalAddress":"empty","physicalCity":"","physicalState":"","physicalZip":"","mailingAddress":"1601 COPELAND ST","mailingCity":"LUFKIN","mailingState":"TX","mailingZip":"75904","ownership":"100.0000000000%","showOwnerProperty":false,"ownerProperty":[{"propertyId":"74034","propertyAddress":"empty","name":"MORRIS LEON","price":"$1,090","territory":"50","inTerritory":true}],"improvements":[],"lands":[{"landType":"RESIDENTIAL","acres":"0.5565","sqft":"24242.00","marketValue":"$1,090","prodValue":"$0"}],"coordinates":{"id":"74034","lat":"31.313371","lng":"-94.754707"},"thumbnail":"74034","error":false,"urlOwnerDetails":"https://propaccess.trueautomation.com/clientdb/Property.aspx?cid=71&prop_id=74034","urlLandMap":"https://propaccess.trueautomation.com/mapSearch/?cid=71&p=74034","territoryNumber":"50","phoneNumbers":[{"_id":"80ae861abe5dc7e4ad877bdf0d2b6cd7","name":"Morris, Leon","contacts":[{"phoneNumber":"936-634-7628","address":"1601 Copeland Lufkin\n"}]}]},{"_id":"61497","landId":"61497","ownerId":"168071","allTrue":true,"exemptions":[{"name":"HS","description":"Homestead. (The person on the deed lives at this address.)"}],"nameDeedSame":true,"addressSame":true,"name":"NOSEWORTHY TRACY","deed":"NOSEWORTHY TRACY","physicalAddress":"7 WOODHAVEN CT","physicalCity":"","physicalState":"","physicalZip":"","mailingAddress":"7 WOODHAVEN CT","mailingCity":"LUFKIN","mailingState":"TX","mailingZip":"75904","ownership":"100.0000000000%","showOwnerProperty":false,"ownerProperty":[{"propertyId":"61497","propertyAddress":"7 WOODHAVEN CT","name":"NOSEWORTHY TRACY","price":"$96,940","territory":"50","inTerritory":true}],"improvements":[{"id":0,"improvement":"RESIDENTIAL","livingArea":"1215.0 sqft","value":"$83,120","details":[{"id":0,"description":"MAIN AREA","yearBuild":"1972","sqft":"1215.0"},{"id":0,"description":"CARPORT","yearBuild":"1972","sqft":"380.0"},{"id":0,"description":"OPEN BRICK PORCH","yearBuild":"1972","sqft":"104.0"},{"id":0,"description":"MASONRY UTILITY","yearBuild":"1972","sqft":"81.0"}]}],"lands":[{"landType":"RESIDENTIAL","acres":"0.2296","sqft":"10000.00","marketValue":"$13,820","prodValue":"$0"}],"coordinates":{"id":"61497","lat":"31.315643","lng":"-94.754616"},"thumbnail":"61497","error":false,"urlOwnerDetails":"https://propaccess.trueautomation.com/clientdb/Property.aspx?cid=71&prop_id=61497","urlLandMap":"https://propaccess.trueautomation.com/mapSearch/?cid=71&p=61497","territoryNumber":"50","phoneNumbers":[{"_id":"","name":"","contacts":[{"phoneNumber":"","address":""}]}]},{"_id":"74030","landId":"74030","ownerId":"172297","allTrue":false,"exemptions":[{"name":"EMPTY","description":"No Tax Exemption Listed."}],"nameDeedSame":true,"addressSame":false,"name":"OLIVEROS SATURNINO & BELEN","deed":"OLIVEROS SATURNINO & BELEN","physicalAddress":"empty","physicalCity":"","physicalState":"","physicalZip":"","mailingAddress":"114 RAINTREE CT","mailingCity":"LUFKIN","mailingState":"TX","mailingZip":"75904","ownership":"100.0000000000%","showOwnerProperty":false,"ownerProperty":[{"propertyId":"74030","propertyAddress":"empty","name":"OLIVEROS SATURNINO & BELEN","price":"$2,910","territory":"50","inTerritory":true}],"improvements":[],"lands":[{"landType":"RESIDENTIAL","acres":"0.3637","sqft":"15842.77","marketValue":"$2,910","prodValue":"$0"}],"coordinates":{"id":"74030","lat":"31.313689","lng":"-94.752975"},"thumbnail":"74030","error":false,"urlOwnerDetails":"https://propaccess.trueautomation.com/clientdb/Property.aspx?cid=71&prop_id=74030","urlLandMap":"https://propaccess.trueautomation.com/mapSearch/?cid=71&p=74030","territoryNumber":"50","phoneNumbers":[{"_id":"","name":"","contacts":[{"phoneNumber":"","address":""}]}]},{"_id":"74029","landId":"74029","ownerId":"131029","allTrue":false,"exemptions":[{"name":"HS","description":"Homestead. (The person on the deed lives at this address.)"}],"nameDeedSame":true,"addressSame":false,"name":"OLIVEROS SATURNINO ETUX BELEN","deed":"OLIVEROS SATURNINO ETUX BELEN","physicalAddress":"114 RAINTREE","physicalCity":"","physicalState":"","physicalZip":"","mailingAddress":"114 RAINTREE CT","mailingCity":"LUFKIN","mailingState":"TX","mailingZip":"75904","ownership":"100.0000000000%","showOwnerProperty":false,"ownerProperty":[{"propertyId":"74029","propertyAddress":"114 RAINTREE","name":"OLIVEROS SATURNINO ETUX BELEN","price":"$128,990","territory":"50","inTerritory":true}],"improvements":[{"id":0,"improvement":"RESIDENTIAL","livingArea":"1496.0 sqft","value":"$112,050","details":[{"id":0,"description":"MAIN AREA","yearBuild":"1998","sqft":"1496.0"},{"id":0,"description":"OPEN BRICK PORCH","yearBuild":"1998","sqft":"27.0"},{"id":0,"description":"GARAGE BRICK/MAS","yearBuild":"1998","sqft":"448.0"},{"id":0,"description":"OPEN BRICK PORCH","yearBuild":"1998","sqft":"80.0"}]}],"lands":[{"landType":"RESIDENTIAL","acres":"0.1538","sqft":"6698.00","marketValue":"$5,020","prodValue":"$0"},{"landType":"RESIDENTIAL","acres":"0.3655","sqft":"15920.00","marketValue":"$11,920","prodValue":"$0"}],"coordinates":{"id":"74029","lat":"31.313401","lng":"-94.753180"},"thumbnail":"74029","error":false,"urlOwnerDetails":"https://propaccess.trueautomation.com/clientdb/Property.aspx?cid=71&prop_id=74029","urlLandMap":"https://propaccess.trueautomation.com/mapSearch/?cid=71&p=74029","territoryNumber":"50","phoneNumbers":[{"_id":"","name":"","contacts":[{"phoneNumber":"","address":""}]}]},{"_id":"61510","landId":"61510","ownerId":"169794","allTrue":false,"exemptions":[{"name":"EMPTY","description":"No Tax Exemption Listed."}],"nameDeedSame":true,"addressSame":false,"name":"OWENS LYNDA K","deed":"OWENS LYNDA K","physicalAddress":"1320 &amp; 1322 CROOKED CREEK","physicalCity":"","physicalState":"","physicalZip":"","mailingAddress":"11381 FM 357 APPLE","mailingCity":"SPRINGS","mailingState":"TX","mailingZip":"75926","ownership":"100.0000000000%","showOwnerProperty":false,"ownerProperty":[{"propertyId":"61510","propertyAddress":"1320 &amp; 1322 CROOKED CREEK","name":"OWENS LYNDA K","price":"$122,370","territory":"50","inTerritory":true}],"improvements":[{"id":0,"improvement":"RESIDENTIAL","livingArea":"2145.0 sqft","value":"$111,860","details":[{"id":0,"description":"MAIN AREA","yearBuild":"1973","sqft":"2145.0"},{"id":0,"description":"CARPORT","yearBuild":"1973","sqft":"552.0"},{"id":0,"description":"MASONRY UTILITY","yearBuild":"1973","sqft":"120.0"},{"id":0,"description":"OPEN BRICK PORCH","yearBuild":"1973","sqft":"56.0"}]}],"lands":[{"landType":"APARTMENT","acres":"0.2324","sqft":"10125.00","marketValue":"$10,510","prodValue":"$0"}],"coordinates":{"id":"61510","lat":"31.315088","lng":"-94.753303"},"thumbnail":"61510","error":false,"urlOwnerDetails":"https://propaccess.trueautomation.com/clientdb/Property.aspx?cid=71&prop_id=61510","urlLandMap":"https://propaccess.trueautomation.com/mapSearch/?cid=71&p=61510","territoryNumber":"50","phoneNumbers":[{"_id":"","name":"","contacts":[{"phoneNumber":"","address":""}]}]},{"_id":"61511","landId":"61511","ownerId":"169794","allTrue":false,"exemptions":[{"name":"EMPTY","description":"No Tax Exemption Listed."}],"nameDeedSame":true,"addressSame":false,"name":"OWENS LYNDA K","deed":"OWENS LYNDA K","physicalAddress":"1316/1318 CROOKED CREEK","physicalCity":"","physicalState":"","physicalZip":"","mailingAddress":"11381 FM 357 APPLE","mailingCity":"SPRINGS","mailingState":"TX","mailingZip":"75926","ownership":"100.0000000000%","showOwnerProperty":false,"ownerProperty":[{"propertyId":"61511","propertyAddress":"1316/1318 CROOKED CREEK","name":"OWENS LYNDA K","price":"$116,560","territory":"50","inTerritory":true}],"improvements":[{"id":0,"improvement":"RESIDENTIAL","livingArea":"2132.0 sqft","value":"$106,050","details":[{"id":0,"description":"MAIN AREA","yearBuild":"1975","sqft":"2132.0"},{"id":0,"description":"CARPORT","yearBuild":"1975","sqft":"552.0"},{"id":0,"description":"MASONRY UTILITY","yearBuild":"1975","sqft":"168.0"},{"id":0,"description":"OPEN BRICK PORCH","yearBuild":"1975","sqft":"70.0"}]}],"lands":[{"landType":"APARTMENT","acres":"0.2324","sqft":"10125.00","marketValue":"$10,510","prodValue":"$0"}],"coordinates":{"id":"61511","lat":"31.315296","lng":"-94.753395"},"thumbnail":"61511","error":false,"urlOwnerDetails":"https://propaccess.trueautomation.com/clientdb/Property.aspx?cid=71&prop_id=61511","urlLandMap":"https://propaccess.trueautomation.com/mapSearch/?cid=71&p=61511","territoryNumber":"50","phoneNumbers":[{"_id":"","name":"","contacts":[{"phoneNumber":"","address":""}]}]},{"_id":"61513","landId":"61513","ownerId":"169794","allTrue":false,"exemptions":[{"name":"EMPTY","description":"No Tax Exemption Listed."}],"nameDeedSame":true,"addressSame":false,"name":"OWENS LYNDA K","deed":"OWENS LYNDA K","physicalAddress":"1308 &amp; 1310 CROOKED CREEK","physicalCity":"","physicalState":"","physicalZip":"","mailingAddress":"11381 FM 357 APPLE","mailingCity":"SPRINGS","mailingState":"TX","mailingZip":"75926","ownership":"100.0000000000%","showOwnerProperty":false,"ownerProperty":[{"propertyId":"61513","propertyAddress":"1308 &amp; 1310 CROOKED CREEK","name":"OWENS LYNDA K","price":"$101,820","territory":"50","inTerritory":true}],"improvements":[{"id":0,"improvement":"RESIDENTIAL","livingArea":"2132.0 sqft","value":"$90,140","details":[{"id":0,"description":"MAIN AREA","yearBuild":"1975","sqft":"2132.0"},{"id":0,"description":"CARPORT","yearBuild":"1975","sqft":"552.0"},{"id":0,"description":"MASONRY UTILITY","yearBuild":"1975","sqft":"168.0"},{"id":0,"description":"OPEN BRICK PORCH","yearBuild":"1975","sqft":"70.0"}]}],"lands":[{"landType":"APARTMENT","acres":"0.4298","sqft":"18720.00","marketValue":"$11,680","prodValue":"$0"}],"coordinates":{"id":"61513","lat":"31.315747","lng":"-94.753371"},"thumbnail":"61513","error":false,"urlOwnerDetails":"https://propaccess.trueautomation.com/clientdb/Property.aspx?cid=71&prop_id=61513","urlLandMap":"https://propaccess.trueautomation.com/mapSearch/?cid=71&p=61513","territoryNumber":"50","phoneNumbers":[{"_id":"","name":"","contacts":[{"phoneNumber":"","address":""}]}]},{"_id":"61509","landId":"61509","ownerId":"172650","allTrue":false,"exemptions":[{"name":"EMPTY","description":"No Tax Exemption Listed."}],"nameDeedSame":false,"addressSame":false,"name":"OWENS LYNDA K EST","deed":"OWENS LYNDA K","physicalAddress":"1324/1326 CROOKED CREEK","physicalCity":"","physicalState":"","physicalZip":"","mailingAddress":"11381 FM 357 APPLE","mailingCity":"SPRINGS","mailingState":"TX","mailingZip":"75926","ownership":"100.0000000000%","showOwnerProperty":false,"ownerProperty":[{"propertyId":"61509","propertyAddress":"1324/1326 CROOKED CREEK","name":"OWENS LYNDA K EST","price":"$113,420","territory":"50","inTerritory":true}],"improvements":[{"id":0,"improvement":"RESIDENTIAL","livingArea":"2145.0 sqft","value":"$102,910","details":[{"id":0,"description":"MAIN AREA","yearBuild":"1973","sqft":"2145.0"},{"id":0,"description":"CARPORT","yearBuild":"1973","sqft":"552.0"},{"id":0,"description":"MASONRY UTILITY","yearBuild":"1973","sqft":"120.0"},{"id":0,"description":"OPEN BRICK PORCH","yearBuild":"1973","sqft":"56.0"}]}],"lands":[{"landType":"APARTMENT","acres":"0.2324","sqft":"10125.00","marketValue":"$10,510","prodValue":"$0"}],"coordinates":{"id":"61509","lat":"31.314878","lng":"-94.753212"},"thumbnail":"61509","error":false,"urlOwnerDetails":"https://propaccess.trueautomation.com/clientdb/Property.aspx?cid=71&prop_id=61509","urlLandMap":"https://propaccess.trueautomation.com/mapSearch/?cid=71&p=61509","territoryNumber":"50","phoneNumbers":[{"_id":"","name":"","contacts":[{"phoneNumber":"","address":""}]}]},{"_id":"61504","landId":"61504","ownerId":"133563","allTrue":true,"exemptions":[{"name":"HS","description":"Homestead. (The person on the deed lives at this address.)"}],"nameDeedSame":true,"addressSame":true,"name":"PARKER CHERYL","deed":"PARKER CHERYL","physicalAddress":"1321 CROOKED CREEK DR","physicalCity":"","physicalState":"","physicalZip":"","mailingAddress":"1321 CROOKED CREEK DR","mailingCity":"LUFKIN","mailingState":"TX","mailingZip":"75904","ownership":"100.0000000000%","showOwnerProperty":false,"ownerProperty":[{"propertyId":"61504","propertyAddress":"1321 CROOKED CREEK DR","name":"PARKER CHERYL","price":"$80,450","territory":"50","inTerritory":true}],"improvements":[{"id":0,"improvement":"RESIDENTIAL","livingArea":"1312.0 sqft","value":"$68,000","details":[{"id":0,"description":"MAIN AREA","yearBuild":"1976","sqft":"1312.0"},{"id":0,"description":"CARPORT","yearBuild":"1976","sqft":"380.0"},{"id":0,"description":"MASONRY UTILITY","yearBuild":"1976","sqft":"63.0"},{"id":0,"description":"OPEN BRICK PORCH","yearBuild":"1976","sqft":"68.0"},{"id":0,"description":"CANOPY","yearBuild":"1976","sqft":"96.0"}]}],"lands":[{"landType":"RESIDENTIAL","acres":"0.2324","sqft":"10125.00","marketValue":"$12,450","prodValue":"$0"}],"coordinates":{"id":"61504","lat":"31.314909","lng":"-94.753831"},"thumbnail":"61504","error":false,"urlOwnerDetails":"https://propaccess.trueautomation.com/clientdb/Property.aspx?cid=71&prop_id=61504","urlLandMap":"https://propaccess.trueautomation.com/mapSearch/?cid=71&p=61504","territoryNumber":"50","phoneNumbers":[{"_id":"","name":"","contacts":[{"phoneNumber":"","address":""}]}]},{"_id":"61491","landId":"61491","ownerId":"155007","allTrue":true,"exemptions":[{"name":"HS","description":"Homestead. (The person on the deed lives at this address.)"}],"nameDeedSame":true,"addressSame":true,"name":"PEGRAM LISA IRENE","deed":"PEGRAM LISA IRENE","physicalAddress":"1 WOODHAVEN CT","physicalCity":"LUFKIN","physicalState":"TX","physicalZip":"75904","mailingAddress":"1 WOODHAVEN CT","mailingCity":"LUFKIN","mailingState":"TX","mailingZip":"75904","ownership":"100.0000000000%","showOwnerProperty":false,"ownerProperty":[{"propertyId":"61491","propertyAddress":"1 WOODHAVEN CT LUFKIN, TX 75904-4317","name":"PEGRAM LISA IRENE","price":"$132,710","territory":"50","inTerritory":true}],"improvements":[{"id":0,"improvement":"RESIDENTIAL","livingArea":"1509.0 sqft","value":"$118,880","details":[{"id":0,"description":"MAIN AREA","yearBuild":"1972","sqft":"1509.0"},{"id":0,"description":"OPEN BRICK PORCH","yearBuild":"1972","sqft":"63.0"},{"id":0,"description":"GARAGE BRICK/MAS","yearBuild":"1972","sqft":"400.0"},{"id":0,"description":"CANOPY","yearBuild":"1972","sqft":"144.0"}]}],"lands":[{"landType":"RESIDENTIAL","acres":"0.2324","sqft":"10125.00","marketValue":"$13,830","prodValue":"$0"}],"coordinates":{"id":"61491","lat":"31.314412","lng":"-94.754637"},"thumbnail":"61491","error":false,"urlOwnerDetails":"https://propaccess.trueautomation.com/clientdb/Property.aspx?cid=71&prop_id=61491","urlLandMap":"https://propaccess.trueautomation.com/mapSearch/?cid=71&p=61491","territoryNumber":"50","phoneNumbers":[{"_id":"b59068e617138a7ca9b70b7ce6e1099b","name":"Pegram, Lisa","contacts":[{"phoneNumber":"936-899-5733","address":"1 Woodhaven Court Lufkin\n"}]}]},{"_id":"80601","landId":"80601","ownerId":"117000","allTrue":true,"exemptions":[{"name":"HS","description":"Homestead. (The person on the deed lives at this address.)"},{"name":"OTHER","description":"Exemption not listed."}],"nameDeedSame":true,"addressSame":true,"name":"PETERSON LEONARD ETUX BARBARA B","deed":"PETERSON LEONARD ETUX BARBARA B","physicalAddress":"1501 WOODLAND DR","physicalCity":"LUFKIN","physicalState":"TX","physicalZip":"75904","mailingAddress":"1501 WOODLAND DR","mailingCity":"LUFKIN","mailingState":"TX","mailingZip":"75904","ownership":"100.0000000000%","showOwnerProperty":false,"ownerProperty":[{"propertyId":"80601","propertyAddress":"1501 WOODLAND DR LUFKIN, TX 75904-4839","name":"PETERSON LEONARD ETUX BARBARA B","price":"$649,080","territory":"50","inTerritory":true}],"improvements":[{"id":0,"improvement":"RESIDENTIAL","livingArea":"2108.0 sqft","value":"$193,080","details":[{"id":0,"description":"MAIN AREA","yearBuild":"2000","sqft":"2108.0"},{"id":0,"description":"CARPORT","yearBuild":"2000","sqft":"520.0"},{"id":0,"description":"OPEN BRICK PORCH","yearBuild":"2000","sqft":"544.0"}]},{"id":2,"improvement":"RESIDENTIAL","livingArea":"4836.0 sqft","value":"$419,720","details":[{"id":2,"description":"MAIN AREA","yearBuild":"2006","sqft":"1614.0"},{"id":2,"description":"MAIN AREA","yearBuild":"2006","sqft":"1536.0"},{"id":2,"description":"MAIN AREA","yearBuild":"2006","sqft":"48.0"},{"id":2,"description":"MAIN AREA","yearBuild":"2006","sqft":"102.0"},{"id":2,"description":"MASONRY UTILITY","yearBuild":"2006","sqft":"66.0"},{"id":2,"description":"GARAGE BRICK/MAS","yearBuild":"2006","sqft":"820.0"},{"id":2,"description":"OPEN BRICK PORCH","yearBuild":"2006","sqft":"30.0"},{"id":2,"description":"OPEN BRICK PORCH","yearBuild":"2006","sqft":"380.0"},{"id":2,"description":"OPEN BRICK PORCH","yearBuild":"2006","sqft":"378.0"},{"id":2,"description":"PATIO STONE/TILE","yearBuild":"2006","sqft":"722.0"},{"id":2,"description":"MAIN AREA","yearBuild":"2006","sqft":"1536.0"}]}],"lands":[{"landType":"RESIDENTIAL","acres":"2.9900","sqft":"130244.40","marketValue":"$17,880","prodValue":"$0"},{"landType":"RESIDENTIAL","acres":"2.0000","sqft":"87120.00","marketValue":"$18,400","prodValue":"$0"}],"coordinates":{"id":"80601","lat":"31.312197","lng":"-94.754561"},"thumbnail":"80601","error":false,"urlOwnerDetails":"https://propaccess.trueautomation.com/clientdb/Property.aspx?cid=71&prop_id=80601","urlLandMap":"https://propaccess.trueautomation.com/mapSearch/?cid=71&p=80601","territoryNumber":"50","phoneNumbers":[{"_id":"8716cc406bd28a5b85b2623f16627fcd","name":"Peterson, Barbara","contacts":[{"phoneNumber":"936-637-7689","address":"1501 Woodland Dr Lufkin\n"}]}]},{"_id":"61506","landId":"61506","ownerId":"119184","allTrue":false,"exemptions":[{"name":"EMPTY","description":"No Tax Exemption Listed."}],"nameDeedSame":true,"addressSame":false,"name":"POLING CYRUS A ETUX DELIA","deed":"POLING CYRUS A ETUX DELIA","physicalAddress":"1313 CROOKED CREEK DR","physicalCity":"LUFKIN","physicalState":"TX","physicalZip":"75904","mailingAddress":"311 TRAILWOOD CIRCLE","mailingCity":"LUFKIN","mailingState":"TX","mailingZip":"75904","ownership":"100.0000000000%","showOwnerProperty":false,"ownerProperty":[{"propertyId":"61506","propertyAddress":"1313 CROOKED CREEK DR LUFKIN, TX 75904-4309","name":"POLING CYRUS A ETUX DELIA","price":"$105,740","territory":"50","inTerritory":true}],"improvements":[{"id":0,"improvement":"RESIDENTIAL","livingArea":"1309.0 sqft","value":"$93,290","details":[{"id":0,"description":"MAIN AREA","yearBuild":"1975","sqft":"1309.0"},{"id":0,"description":"OPEN BRICK PORCH","yearBuild":"1975","sqft":"80.0"},{"id":0,"description":"GARAGE BRICK/MAS","yearBuild":"1975","sqft":"380.0"},{"id":0,"description":"MASONRY UTILITY","yearBuild":"1975","sqft":"54.0"},{"id":0,"description":"CANOPY","yearBuild":"1975","sqft":"168.0"}]}],"lands":[{"landType":"RESIDENTIAL","acres":"0.2324","sqft":"10125.00","marketValue":"$12,450","prodValue":"$0"}],"coordinates":{"id":"61506","lat":"31.315328","lng":"-94.754017"},"thumbnail":"61506","error":false,"urlOwnerDetails":"https://propaccess.trueautomation.com/clientdb/Property.aspx?cid=71&prop_id=61506","urlLandMap":"https://propaccess.trueautomation.com/mapSearch/?cid=71&p=61506","territoryNumber":"50","phoneNumbers":[{"_id":"","name":"","contacts":[{"phoneNumber":"","address":""}]}]},{"_id":"61485","landId":"61485","ownerId":"119184","allTrue":false,"exemptions":[{"name":"EMPTY","description":"No Tax Exemption Listed."}],"nameDeedSame":true,"addressSame":false,"name":"POLING CYRUS A ETUX DELIA","deed":"POLING CYRUS A ETUX DELIA","physicalAddress":"8 WOODHUE CT","physicalCity":"LUFKIN","physicalState":"TX","physicalZip":"75904","mailingAddress":"311 TRAILWOOD CIRCLE","mailingCity":"LUFKIN","mailingState":"TX","mailingZip":"75904","ownership":"100.0000000000%","showOwnerProperty":false,"ownerProperty":[{"propertyId":"61485","propertyAddress":"8 WOODHUE CT LUFKIN, TX 75904-4318","name":"POLING CYRUS A ETUX DELIA","price":"$147,240","territory":"50","inTerritory":true}],"improvements":[{"id":0,"improvement":"RESIDENTIAL","livingArea":"1716.0 sqft","value":"$131,870","details":[{"id":0,"description":"MAIN AREA","yearBuild":"1971","sqft":"1716.0"},{"id":0,"description":"GARAGE BRICK/MAS","yearBuild":"1971","sqft":"400.0"},{"id":0,"description":"MASONRY UTILITY","yearBuild":"1971","sqft":"70.0"}]},{"id":2,"improvement":"MISC IMP","livingArea":" sqft","value":"$580","details":[{"id":2,"description":"SHED METAL UTILITY","yearBuild":"2004","sqft":"128.0"}]}],"lands":[{"landType":"RESIDENTIAL","acres":"0.2784","sqft":"12125.00","marketValue":"$14,790","prodValue":"$0"}],"coordinates":{"id":"61485","lat":"31.314803","lng":"-94.755237"},"thumbnail":"61485","error":false,"urlOwnerDetails":"https://propaccess.trueautomation.com/clientdb/Property.aspx?cid=71&prop_id=61485","urlLandMap":"https://propaccess.trueautomation.com/mapSearch/?cid=71&p=61485","territoryNumber":"50","phoneNumbers":[{"_id":"","name":"","contacts":[{"phoneNumber":"","address":""}]}]},{"_id":"61484","landId":"61484","ownerId":"119184","allTrue":false,"exemptions":[{"name":"EMPTY","description":"No Tax Exemption Listed."}],"nameDeedSame":true,"addressSame":false,"name":"POLING CYRUS A ETUX DELIA","deed":"POLING CYRUS A ETUX DELIA","physicalAddress":"7 WOODHUE CT","physicalCity":"LUFKIN","physicalState":"TX","physicalZip":"75904","mailingAddress":"311 TRAILWOOD CIRCLE","mailingCity":"LUFKIN","mailingState":"TX","mailingZip":"75904","ownership":"100.0000000000%","showOwnerProperty":false,"ownerProperty":[{"propertyId":"61484","propertyAddress":"7 WOODHUE CT LUFKIN, TX 75904-4318","name":"POLING CYRUS A ETUX DELIA","price":"$151,740","territory":"50","inTerritory":true}],"improvements":[{"id":0,"improvement":"RESIDENTIAL","livingArea":"1800.0 sqft","value":"$137,560","details":[{"id":0,"description":"MAIN AREA","yearBuild":"1971","sqft":"1800.0"},{"id":0,"description":"OPEN BRICK PORCH","yearBuild":"1971","sqft":"104.0"},{"id":0,"description":"GARAGE BRICK/MAS","yearBuild":"1971","sqft":"440.0"}]},{"id":2,"improvement":"MISC IMP","livingArea":" sqft","value":"$360","details":[{"id":2,"description":"SHED FR UTILITY","yearBuild":"2000","sqft":"128.0"}]}],"lands":[{"landType":"RESIDENTIAL","acres":"0.2505","sqft":"10912.00","marketValue":"$13,820","prodValue":"$0"}],"coordinates":{"id":"61484","lat":"31.315052","lng":"-94.755319"},"thumbnail":"61484","error":false,"urlOwnerDetails":"https://propaccess.trueautomation.com/clientdb/Property.aspx?cid=71&prop_id=61484","urlLandMap":"https://propaccess.trueautomation.com/mapSearch/?cid=71&p=61484","territoryNumber":"50","phoneNumbers":[{"_id":"","name":"","contacts":[{"phoneNumber":"","address":""}]}]},{"_id":"61488","landId":"61488","ownerId":"157764","allTrue":false,"exemptions":[{"name":"EMPTY","description":"No Tax Exemption Listed."}],"nameDeedSame":true,"addressSame":false,"name":"RAMIREZ VANESSA LIZZETTE","deed":"RAMIREZ VANESSA LIZZETTE","physicalAddress":"1313 WOODLAND (BEHIND)","physicalCity":"","physicalState":"","physicalZip":"","mailingAddress":"1313 WOODLAND DR","mailingCity":"LUFKIN","mailingState":"TX","mailingZip":"75904","ownership":"100.0000000000%","showOwnerProperty":false,"ownerProperty":[{"propertyId":"61488","propertyAddress":"1313 WOODLAND (BEHIND)","name":"RAMIREZ VANESSA LIZZETTE","price":"$6,960","territory":"50","inTerritory":true}],"improvements":[],"lands":[{"landType":"RESIDENTIAL","acres":"0.2283","sqft":"9945.00","marketValue":"$6,960","prodValue":"$0"}],"coordinates":{"id":"61488","lat":"31.314121","lng":"-94.755867"},"thumbnail":"61488","error":false,"urlOwnerDetails":"https://propaccess.trueautomation.com/clientdb/Property.aspx?cid=71&prop_id=61488","urlLandMap":"https://propaccess.trueautomation.com/mapSearch/?cid=71&p=61488","territoryNumber":"50","phoneNumbers":[{"_id":"","name":"","contacts":[{"phoneNumber":"","address":""}]}]},{"_id":"61525","landId":"61525","ownerId":"157764","allTrue":true,"exemptions":[{"name":"HS","description":"Homestead. (The person on the deed lives at this address.)"}],"nameDeedSame":true,"addressSame":true,"name":"RAMIREZ VANESSA LIZZETTE","deed":"RAMIREZ VANESSA LIZZETTE","physicalAddress":"1313 WOODLAND DR","physicalCity":"LUFKIN","physicalState":"TX","physicalZip":"75904","mailingAddress":"1313 WOODLAND DR","mailingCity":"LUFKIN","mailingState":"TX","mailingZip":"75904","ownership":"100.0000000000%","showOwnerProperty":false,"ownerProperty":[{"propertyId":"61525","propertyAddress":"1313 WOODLAND DR LUFKIN, TX 75904-4323","name":"RAMIREZ VANESSA LIZZETTE","price":"$306,050","territory":"50","inTerritory":true}],"improvements":[{"id":0,"improvement":"RESIDENTIAL","livingArea":"3404.0 sqft","value":"$288,230","details":[{"id":0,"description":"MAIN AREA","yearBuild":"1964","sqft":"2660.0"},{"id":0,"description":"GARAGE BRICK/MAS","yearBuild":"1971","sqft":"745.0"},{"id":0,"description":"OPEN BRICK PORCH","yearBuild":"1964","sqft":"312.0"},{"id":0,"description":"OPEN BRICK PORCH","yearBuild":"1964","sqft":"30.0"},{"id":0,"description":"MAIN AREA","yearBuild":"1964","sqft":"594.0"},{"id":0,"description":"MAIN AREA","yearBuild":"1971","sqft":"150.0"}]}],"lands":[{"landType":"RESIDENTIAL","acres":"0.8781","sqft":"38250.00","marketValue":"$17,820","prodValue":"$0"}],"coordinates":{"id":"61525","lat":"31.313982","lng":"-94.756334"},"thumbnail":"61525","error":false,"urlOwnerDetails":"https://propaccess.trueautomation.com/clientdb/Property.aspx?cid=71&prop_id=61525","urlLandMap":"https://propaccess.trueautomation.com/mapSearch/?cid=71&p=61525","territoryNumber":"50","phoneNumbers":[{"_id":"","name":"","contacts":[{"phoneNumber":"","address":""}]}]},{"_id":"61502","landId":"61502","ownerId":"161423","allTrue":true,"exemptions":[{"name":"OTHER","description":"Exemption not listed."},{"name":"HS","description":"Homestead. (The person on the deed lives at this address.)"},{"name":"DV4S","description":"Disabled Veterans Surviving Spouse 70% - 100%."}],"nameDeedSame":true,"addressSame":true,"name":"RIVERS PATSY","deed":"RIVERS PATSY","physicalAddress":"12 WOODHAVEN CT","physicalCity":"","physicalState":"TX","physicalZip":"","mailingAddress":"12 WOODHAVEN CT","mailingCity":"LUFKIN","mailingState":"TX","mailingZip":"75904","ownership":"100.0000000000%","showOwnerProperty":false,"ownerProperty":[{"propertyId":"61502","propertyAddress":"12 WOODHAVEN CT TX","name":"RIVERS PATSY","price":"$100,420","territory":"50","inTerritory":true}],"improvements":[{"id":0,"improvement":"RESIDENTIAL","livingArea":"1256.0 sqft","value":"$86,420","details":[{"id":0,"description":"MAIN AREA","yearBuild":"1972","sqft":"1256.0"},{"id":0,"description":"CARPORT","yearBuild":"1972","sqft":"400.0"},{"id":0,"description":"OPEN BRICK PORCH","yearBuild":"1972","sqft":"64.0"},{"id":0,"description":"MASONRY UTILITY","yearBuild":"1972","sqft":"60.0"},{"id":0,"description":"CANOPY","yearBuild":"1972","sqft":"216.0"}]},{"id":2,"improvement":"MISC IMP","livingArea":" sqft","value":"$170","details":[{"id":2,"description":"SHED FR UTILITY","yearBuild":"1983","sqft":"120.0"}]}],"lands":[{"landType":"RESIDENTIAL","acres":"0.2324","sqft":"10125.00","marketValue":"$13,830","prodValue":"$0"}],"coordinates":{"id":"61502","lat":"31.314579","lng":"-94.754115"},"thumbnail":"61502","error":false,"urlOwnerDetails":"https://propaccess.trueautomation.com/clientdb/Property.aspx?cid=71&prop_id=61502","urlLandMap":"https://propaccess.trueautomation.com/mapSearch/?cid=71&p=61502","territoryNumber":"50","phoneNumbers":[{"_id":"","name":"","contacts":[{"phoneNumber":"","address":""}]}]},{"_id":"61512","landId":"61512","ownerId":"28798","allTrue":false,"exemptions":[{"name":"EMPTY","description":"No Tax Exemption Listed."}],"nameDeedSame":true,"addressSame":false,"name":"ROCK GARDEN LTD","deed":"ROCK GARDEN LTD","physicalAddress":"1312 &amp; 1314 CROOKED CREEK","physicalCity":"","physicalState":"","physicalZip":"","mailingAddress":"509 APRIL DR","mailingCity":"LUFKIN","mailingState":"TX","mailingZip":"75904","ownership":"100.0000000000%","showOwnerProperty":false,"ownerProperty":[{"propertyId":"61512","propertyAddress":"1312 &amp; 1314 CROOKED CREEK","name":"ROCK GARDEN LTD","price":"$122,800","territory":"50","inTerritory":true}],"improvements":[{"id":0,"improvement":"RESIDENTIAL","livingArea":"2132.0 sqft","value":"$112,290","details":[{"id":0,"description":"MAIN AREA","yearBuild":"1975","sqft":"2132.0"},{"id":0,"description":"CARPORT","yearBuild":"1975","sqft":"552.0"},{"id":0,"description":"MASONRY UTILITY","yearBuild":"1975","sqft":"168.0"},{"id":0,"description":"OPEN BRICK PORCH","yearBuild":"1975","sqft":"70.0"}]}],"lands":[{"landType":"APARTMENT","acres":"0.2324","sqft":"10125.00","marketValue":"$10,510","prodValue":"$0"}],"coordinates":{"id":"61512","lat":"31.315505","lng":"-94.753487"},"thumbnail":"61512","error":false,"urlOwnerDetails":"https://propaccess.trueautomation.com/clientdb/Property.aspx?cid=71&prop_id=61512","urlLandMap":"https://propaccess.trueautomation.com/mapSearch/?cid=71&p=61512","territoryNumber":"50","phoneNumbers":[{"_id":"","name":"","contacts":[{"phoneNumber":"","address":""}]}]},{"_id":"61496","landId":"61496","ownerId":"145477","allTrue":true,"exemptions":[{"name":"HS","description":"Homestead. (The person on the deed lives at this address.)"}],"nameDeedSame":true,"addressSame":true,"name":"RUSSELL HEATHER JO","deed":"RUSSELL HEATHER JO","physicalAddress":"6 WOODHAVEN CT","physicalCity":"LUFKIN","physicalState":"TX","physicalZip":"75904","mailingAddress":"6 WOODHAVEN CT","mailingCity":"LUFKIN","mailingState":"TX","mailingZip":"75904","ownership":"100.0000000000%","showOwnerProperty":false,"ownerProperty":[{"propertyId":"61496","propertyAddress":"6 WOODHAVEN CT LUFKIN, TX 75904-4317","name":"RUSSELL HEATHER JO","price":"$94,800","territory":"50","inTerritory":true}],"improvements":[{"id":0,"improvement":"RESIDENTIAL","livingArea":"1175.0 sqft","value":"$80,980","details":[{"id":0,"description":"MAIN AREA","yearBuild":"1972","sqft":"1175.0"},{"id":0,"description":"CARPORT","yearBuild":"1972","sqft":"342.0"},{"id":0,"description":"OPEN BRICK PORCH","yearBuild":"1972","sqft":"80.0"},{"id":0,"description":"MASONRY UTILITY","yearBuild":"1972","sqft":"80.0"}]}],"lands":[{"landType":"RESIDENTIAL","acres":"0.2296","sqft":"10000.00","marketValue":"$13,820","prodValue":"$0"}],"coordinates":{"id":"61496","lat":"31.315465","lng":"-94.755084"},"thumbnail":"61496","error":false,"urlOwnerDetails":"https://propaccess.trueautomation.com/clientdb/Property.aspx?cid=71&prop_id=61496","urlLandMap":"https://propaccess.trueautomation.com/mapSearch/?cid=71&p=61496","territoryNumber":"50","phoneNumbers":[{"_id":"","name":"","contacts":[{"phoneNumber":"","address":""}]}]},{"_id":"61498","landId":"61498","ownerId":"85989","allTrue":false,"exemptions":[{"name":"OTHER","description":"Exemption not listed."},{"name":"HS","description":"Homestead. (The person on the deed lives at this address.)"}],"nameDeedSame":false,"addressSame":true,"name":"RUTHERFORD MARCIA M NORTHCUTT","deed":"","physicalAddress":"8 WOODHAVEN CT","physicalCity":"LUFKIN","physicalState":"TX","physicalZip":"75904","mailingAddress":"8 WOODHAVEN CT","mailingCity":"LUFKIN","mailingState":"TX","mailingZip":"75904","ownership":"100.0000000000%","showOwnerProperty":false,"ownerProperty":[{"propertyId":"61498","propertyAddress":"8 WOODHAVEN CT LUFKIN, TX 75904-4317","name":"RUTHERFORD MARCIA M NORTHCUTT","price":"$95,640","territory":"50","inTerritory":true}],"improvements":[{"id":0,"improvement":"RESIDENTIAL","livingArea":"1196.0 sqft","value":"$82,200","details":[{"id":0,"description":"MAIN AREA","yearBuild":"1972","sqft":"1196.0"},{"id":0,"description":"CARPORT","yearBuild":"1972","sqft":"380.0"},{"id":0,"description":"MASONRY UTILITY","yearBuild":"1972","sqft":"114.0"},{"id":0,"description":"OPEN BRICK PORCH","yearBuild":"1972","sqft":"64.0"}]}],"lands":[{"landType":"RESIDENTIAL","acres":"0.1970","sqft":"8581.00","marketValue":"$13,440","prodValue":"$0"}],"coordinates":{"id":"61498","lat":"31.315416","lng":"-94.754451"},"thumbnail":"61498","error":false,"urlOwnerDetails":"https://propaccess.trueautomation.com/clientdb/Property.aspx?cid=71&prop_id=61498","urlLandMap":"https://propaccess.trueautomation.com/mapSearch/?cid=71&p=61498","territoryNumber":"50","phoneNumbers":[{"_id":"","name":"","contacts":[{"phoneNumber":"","address":""}]}]},{"_id":"61465","landId":"61465","ownerId":"36345","allTrue":true,"exemptions":[{"name":"HS","description":"Homestead. (The person on the deed lives at this address.)"}],"nameDeedSame":true,"addressSame":true,"name":"SAMANIEGO MIGUEL","deed":"SAMANIEGO MIGUEL","physicalAddress":"1525 TURTLE CREEK DR","physicalCity":"LUFKIN","physicalState":"TX","physicalZip":"75904","mailingAddress":"1525 TURTLE CREEK DR","mailingCity":"LUFKIN","mailingState":"TX","mailingZip":"75904","ownership":"100.0000000000%","showOwnerProperty":false,"ownerProperty":[{"propertyId":"61465","propertyAddress":"1525 TURTLE CREEK DR LUFKIN, TX 75904-4315","name":"SAMANIEGO MIGUEL","price":"$175,190","territory":"50","inTerritory":true}],"improvements":[{"id":0,"improvement":"RESIDENTIAL","livingArea":"1904.0 sqft","value":"$155,930","details":[{"id":0,"description":"MAIN AREA","yearBuild":"1968","sqft":"1904.0"},{"id":0,"description":"ENCL BRICK PORCH","yearBuild":"1986","sqft":"418.0"},{"id":0,"description":"OPEN FRAME PORCH","yearBuild":"1968","sqft":"72.0"},{"id":0,"description":"OPEN BRICK PORCH","yearBuild":"1968","sqft":"88.0"},{"id":0,"description":"CARPORT","yearBuild":"1978","sqft":"660.0"},{"id":0,"description":"FRAME UTILITY","yearBuild":"1978","sqft":"140.0"}]}],"lands":[{"landType":"RESIDENTIAL","acres":"0.2755","sqft":"12000.00","marketValue":"$9,630","prodValue":"$0"},{"landType":"RESIDENTIAL","acres":"0.2755","sqft":"12000.00","marketValue":"$9,630","prodValue":"$0"}],"coordinates":{"id":"61465","lat":"31.315180","lng":"-94.757015"},"thumbnail":"61465","error":false,"urlOwnerDetails":"https://propaccess.trueautomation.com/clientdb/Property.aspx?cid=71&prop_id=61465","urlLandMap":"https://propaccess.trueautomation.com/mapSearch/?cid=71&p=61465","territoryNumber":"50","phoneNumbers":[{"_id":"","name":"","contacts":[{"phoneNumber":"","address":""}]}]},{"_id":"61514","landId":"61514","ownerId":"132179","allTrue":false,"exemptions":[{"name":"EMPTY","description":"No Tax Exemption Listed."}],"nameDeedSame":true,"addressSame":false,"name":"SLOAN ELIZABETH","deed":"SLOAN ELIZABETH","physicalAddress":"1306 CROOKED CREEK DR","physicalCity":"LUFKIN","physicalState":"TX","physicalZip":"75904","mailingAddress":"374 WINTERHAVEN LANE","mailingCity":"BROWNSVILLE","mailingState":"TX","mailingZip":"78526","ownership":"100.0000000000%","showOwnerProperty":false,"ownerProperty":[{"propertyId":"61514","propertyAddress":"1306 CROOKED CREEK DR LUFKIN, TX 75904-4362","name":"SLOAN ELIZABETH","price":"$86,310","territory":"50","inTerritory":true}],"improvements":[{"id":0,"improvement":"RESIDENTIAL","livingArea":"1167.0 sqft","value":"$73,200","details":[{"id":0,"description":"MAIN AREA","yearBuild":"1983","sqft":"1167.0"},{"id":0,"description":"GARAGE BRICK/MAS","yearBuild":"1983","sqft":"234.0"},{"id":0,"description":"OPEN BRICK PORCH","yearBuild":"1983","sqft":"36.0"}]}],"lands":[{"landType":"RESIDENTIAL","acres":"0.3673","sqft":"16000.00","marketValue":"$13,110","prodValue":"$0"}],"coordinates":{"id":"61514","lat":"31.315956","lng":"-94.753557"},"thumbnail":"61514","error":false,"urlOwnerDetails":"https://propaccess.trueautomation.com/clientdb/Property.aspx?cid=71&prop_id=61514","urlLandMap":"https://propaccess.trueautomation.com/mapSearch/?cid=71&p=61514","territoryNumber":"50","phoneNumbers":[{"_id":"","name":"","contacts":[{"phoneNumber":"","address":""}]}]},{"_id":"92293","landId":"92293","ownerId":"157441","allTrue":false,"exemptions":[{"name":"EMPTY","description":"No Tax Exemption Listed."}],"nameDeedSame":true,"addressSame":false,"name":"SMMT INVESTMENTS LLC","deed":"SMMT INVESTMENTS LLC","physicalAddress":"1411 TURTLE CREEK","physicalCity":"","physicalState":"","physicalZip":"","mailingAddress":"1419 TURTLE CREEK DR","mailingCity":"LUFKIN","mailingState":"TX","mailingZip":"75904","ownership":"100.0000000000%","showOwnerProperty":false,"ownerProperty":[{"propertyId":"92293","propertyAddress":"1411 TURTLE CREEK","name":"SMMT INVESTMENTS LLC","price":"$323,820","territory":"50","inTerritory":true}],"improvements":[{"id":0,"improvement":"COMMERCIAL","livingArea":"3600.0 sqft","value":"$206,490","details":[{"id":0,"description":"MAIN AREA","yearBuild":"1992","sqft":"3600.0"},{"id":0,"description":"OPEN BRICK PORCH","yearBuild":"1992","sqft":"420.0"},{"id":0,"description":"PAVING CONCRETE","yearBuild":"1990","sqft":"3700.0"}]}],"lands":[{"landType":"COMMERCIAL","acres":"0.3210","sqft":"13983.00","marketValue":"$24,470","prodValue":"$0"}],"coordinates":{"id":"92293","lat":"31.316555","lng":"-94.752762"},"thumbnail":"92293","error":false,"urlOwnerDetails":"https://propaccess.trueautomation.com/clientdb/Property.aspx?cid=71&prop_id=92293","urlLandMap":"https://propaccess.trueautomation.com/mapSearch/?cid=71&p=92293","territoryNumber":"50","phoneNumbers":[{"_id":"","name":"","contacts":[{"phoneNumber":"","address":""}]}]},{"_id":"61486","landId":"61486","ownerId":"168846","allTrue":true,"exemptions":[{"name":"EMPTY","description":"No Tax Exemption Listed."}],"nameDeedSame":true,"addressSame":true,"name":"STEWART NATAKI & ARELI","deed":"STEWART NATAKI & ARELI","physicalAddress":"9 WOODHUE CT","physicalCity":"","physicalState":"TX","physicalZip":"","mailingAddress":"9 WOODHUE CT","mailingCity":"LUFKIN","mailingState":"TX","mailingZip":"75904","ownership":"100.0000000000%","showOwnerProperty":false,"ownerProperty":[{"propertyId":"61486","propertyAddress":"9 WOODHUE CT TX","name":"STEWART NATAKI & ARELI","price":"$195,550","territory":"50","inTerritory":true}],"improvements":[{"id":0,"improvement":"RESIDENTIAL","livingArea":"1807.0 sqft","value":"$180,230","details":[{"id":0,"description":"MAIN AREA","yearBuild":"1972","sqft":"1807.0"},{"id":0,"description":"OPEN BRICK PORCH","yearBuild":"1972","sqft":"90.0"},{"id":0,"description":"GARAGE BRICK/MAS","yearBuild":"1972","sqft":"484.0"}]},{"id":2,"improvement":"MISC IMP","livingArea":" sqft","value":"$530","details":[{"id":2,"description":"SHED METAL UTILITY","yearBuild":"2005","sqft":"96.0"}]}],"lands":[{"landType":"RESIDENTIAL","acres":"0.2784","sqft":"12125.00","marketValue":"$14,790","prodValue":"$0"}],"coordinates":{"id":"61486","lat":"31.314553","lng":"-94.755128"},"thumbnail":"61486","error":false,"urlOwnerDetails":"https://propaccess.trueautomation.com/clientdb/Property.aspx?cid=71&prop_id=61486","urlLandMap":"https://propaccess.trueautomation.com/mapSearch/?cid=71&p=61486","territoryNumber":"50","phoneNumbers":[{"_id":"","name":"","contacts":[{"phoneNumber":"","address":""}]}]},{"_id":"61505","landId":"61505","ownerId":"159762","allTrue":false,"exemptions":[{"name":"EMPTY","description":"No Tax Exemption Listed."}],"nameDeedSame":true,"addressSame":false,"name":"TAM RENTALS LLC","deed":"TAM RENTALS LLC","physicalAddress":"1317 CROOKED CREEK","physicalCity":"","physicalState":"","physicalZip":"","mailingAddress":"3708 S MEDFORD DR","mailingCity":"LUFKIN","mailingState":"TX","mailingZip":"75904","ownership":"100.0000000000%","showOwnerProperty":false,"ownerProperty":[{"propertyId":"61505","propertyAddress":"1317 CROOKED CREEK","name":"TAM RENTALS LLC","price":"$95,710","territory":"50","inTerritory":true}],"improvements":[{"id":0,"improvement":"RESIDENTIAL","livingArea":"1312.0 sqft","value":"$83,260","details":[{"id":0,"description":"MAIN AREA","yearBuild":"1976","sqft":"1312.0"},{"id":0,"description":"CARPORT","yearBuild":"1976","sqft":"380.0"},{"id":0,"description":"MASONRY UTILITY","yearBuild":"1976","sqft":"63.0"},{"id":0,"description":"OPEN BRICK PORCH","yearBuild":"1976","sqft":"68.0"},{"id":0,"description":"PATIO CONCRETE/MASONRY","yearBuild":"1976","sqft":"100.0"}]}],"lands":[{"landType":"RESIDENTIAL","acres":"0.2324","sqft":"10125.00","marketValue":"$12,450","prodValue":"$0"}],"coordinates":{"id":"61505","lat":"31.315121","lng":"-94.753923"},"thumbnail":"61505","error":false,"urlOwnerDetails":"https://propaccess.trueautomation.com/clientdb/Property.aspx?cid=71&prop_id=61505","urlLandMap":"https://propaccess.trueautomation.com/mapSearch/?cid=71&p=61505","territoryNumber":"50","phoneNumbers":[{"_id":"35ce891057b6e4cbf2e537486ad7d862","name":"Bartlett Baggett &amp; Shands/ Morgan Insurance Agency","contacts":[{"phoneNumber":"936-632-4496","address":"3708 S Medford Dr Lufkin\n"}]},{"_id":"f58665bf66f67974a887982b507b92fb","name":"Morgan Insurance Agency/ Bartlett Baggett &amp; Shands","contacts":[{"phoneNumber":"936-634-7755","address":"3708 S Medford Dr Lufkin\n"}]}]},{"_id":"61476","landId":"61476","ownerId":"169155","allTrue":false,"exemptions":[{"name":"EMPTY","description":"No Tax Exemption Listed."}],"nameDeedSame":true,"addressSame":false,"name":"TAPS REAL ESTATE LLC","deed":"TAPS REAL ESTATE LLC","physicalAddress":"1503 TURTLE CREEK DR","physicalCity":"LUFKIN","physicalState":"TX","physicalZip":"75904","mailingAddress":"3396 TED TROUT DR","mailingCity":"LUFKIN","mailingState":"TX","mailingZip":"75904","ownership":"100.0000000000%","showOwnerProperty":false,"ownerProperty":[{"propertyId":"61476","propertyAddress":"1503 TURTLE CREEK DR LUFKIN, TX 75904-4315","name":"TAPS REAL ESTATE LLC","price":"$102,510","territory":"50","inTerritory":true}],"improvements":[{"id":0,"improvement":"RESIDENTIAL","livingArea":"1550.0 sqft","value":"$87,810","details":[{"id":0,"description":"MAIN AREA","yearBuild":"1968","sqft":"1190.0"},{"id":0,"description":"MASONRY UTILITY","yearBuild":"1968","sqft":"72.0"},{"id":0,"description":"OPEN BRICK PORCH","yearBuild":"1968","sqft":"80.0"},{"id":0,"description":"MAIN AREA","yearBuild":"1968","sqft":"360.0"}]}],"lands":[{"landType":"RESIDENTIAL","acres":"0.2755","sqft":"12000.00","marketValue":"$14,700","prodValue":"$0"}],"coordinates":{"id":"61476","lat":"31.315988","lng":"-94.754493"},"thumbnail":"61476","error":false,"urlOwnerDetails":"https://propaccess.trueautomation.com/clientdb/Property.aspx?cid=71&prop_id=61476","urlLandMap":"https://propaccess.trueautomation.com/mapSearch/?cid=71&p=61476","territoryNumber":"50","phoneNumbers":[{"_id":"","name":"","contacts":[{"phoneNumber":"","address":""}]}]},{"_id":"74031","landId":"74031","ownerId":"161670","allTrue":false,"exemptions":[{"name":"EMPTY","description":"No Tax Exemption Listed."}],"nameDeedSame":true,"addressSame":false,"name":"TRAILWOOD RENTALS LLC","deed":"TRAILWOOD RENTALS LLC","physicalAddress":"105 RAINTREE","physicalCity":"","physicalState":"TX","physicalZip":"","mailingAddress":"804 CROOKED CREEK DR","mailingCity":"LUFKIN","mailingState":"TX","mailingZip":"75904","ownership":"100.0000000000%","showOwnerProperty":false,"ownerProperty":[{"propertyId":"74031","propertyAddress":"105 RAINTREE TX","name":"TRAILWOOD RENTALS LLC","price":"$106,590","territory":"50","inTerritory":true}],"improvements":[{"id":0,"improvement":"RESIDENTIAL","livingArea":"1760.0 sqft","value":"$100,380","details":[{"id":0,"description":"MAIN AREA","yearBuild":"1993","sqft":"1399.0"},{"id":0,"description":"OPEN BRICK PORCH","yearBuild":"1993","sqft":"110.0"},{"id":0,"description":"MAIN AREA","yearBuild":"1993","sqft":"361.0"}]}],"lands":[{"landType":"RESIDENTIAL","acres":"0.2002","sqft":"8720.00","marketValue":"$6,210","prodValue":"$0"}],"coordinates":{"id":"74031","lat":"31.313998","lng":"-94.753102"},"thumbnail":"74031","error":false,"urlOwnerDetails":"https://propaccess.trueautomation.com/clientdb/Property.aspx?cid=71&prop_id=74031","urlLandMap":"https://propaccess.trueautomation.com/mapSearch/?cid=71&p=74031","territoryNumber":"50","phoneNumbers":[{"_id":"","name":"","contacts":[{"phoneNumber":"","address":""}]}]},{"_id":"74032","landId":"74032","ownerId":"161670","allTrue":false,"exemptions":[{"name":"EMPTY","description":"No Tax Exemption Listed."}],"nameDeedSame":true,"addressSame":false,"name":"TRAILWOOD RENTALS LLC","deed":"TRAILWOOD RENTALS LLC","physicalAddress":"103 RAINTREE","physicalCity":"","physicalState":"","physicalZip":"","mailingAddress":"804 CROOKED CREEK DR","mailingCity":"LUFKIN","mailingState":"TX","mailingZip":"75904","ownership":"100.0000000000%","showOwnerProperty":false,"ownerProperty":[{"propertyId":"74032","propertyAddress":"103 RAINTREE","name":"TRAILWOOD RENTALS LLC","price":"$105,370","territory":"50","inTerritory":true}],"improvements":[{"id":0,"improvement":"RESIDENTIAL","livingArea":"1760.0 sqft","value":"$92,980","details":[{"id":0,"description":"MAIN AREA","yearBuild":"1993","sqft":"1399.0"},{"id":0,"description":"MAIN AREA","yearBuild":"1993","sqft":"361.0"},{"id":0,"description":"OPEN BRICK PORCH","yearBuild":"1993","sqft":"110.0"}]}],"lands":[{"landType":"RESIDENTIAL","acres":"0.2204","sqft":"9600.00","marketValue":"$12,390","prodValue":"$0"}],"coordinates":{"id":"74032","lat":"31.314182","lng":"-94.753202"},"thumbnail":"74032","error":false,"urlOwnerDetails":"https://propaccess.trueautomation.com/clientdb/Property.aspx?cid=71&prop_id=74032","urlLandMap":"https://propaccess.trueautomation.com/mapSearch/?cid=71&p=74032","territoryNumber":"50","phoneNumbers":[{"_id":"8b6acdfbcfa3b4f6426b85b7f47a02ff","name":"Allen, Shirley Jeanne","contacts":[{"phoneNumber":"936-632-5919","address":"103 Raintree Court Lufkin\n"}]}]},{"_id":"61479","landId":"61479","ownerId":"85970","allTrue":true,"exemptions":[{"name":"OTHER","description":"Exemption not listed."},{"name":"HS","description":"Homestead. (The person on the deed lives at this address.)"}],"nameDeedSame":true,"addressSame":true,"name":"TRAMMELL DONALD ED","deed":"TRAMMELL DONALD ED","physicalAddress":"2 WOODHUE CT","physicalCity":"LUFKIN","physicalState":"TX","physicalZip":"75904","mailingAddress":"2 WOODHUE CT","mailingCity":"LUFKIN","mailingState":"TX","mailingZip":"75904","ownership":"100.0000000000%","showOwnerProperty":false,"ownerProperty":[{"propertyId":"61479","propertyAddress":"2 WOODHUE CT LUFKIN, TX 75904-4318","name":"TRAMMELL DONALD ED","price":"$179,870","territory":"50","inTerritory":true}],"improvements":[{"id":0,"improvement":"RESIDENTIAL","livingArea":"2149.0 sqft","value":"$165,080","details":[{"id":0,"description":"MAIN AREA","yearBuild":"1971","sqft":"656.0"},{"id":0,"description":"MAIN AREA","yearBuild":"1971","sqft":"216.0"},{"id":0,"description":"MAIN AREA","yearBuild":"1971","sqft":"521.0"},{"id":0,"description":"GARAGE BRICK/MAS","yearBuild":"1971","sqft":"100.0"},{"id":0,"description":"GARAGE BRICK/MAS","yearBuild":"1971","sqft":"385.0"},{"id":0,"description":"OPEN BRICK PORCH","yearBuild":"1971","sqft":"12.0"},{"id":0,"description":"PATIO CONCRETE/MASONRY","yearBuild":"1971","sqft":"168.0"},{"id":0,"description":"MAIN AREA","yearBuild":"1971","sqft":"100.0"},{"id":0,"description":"MAIN AREA","yearBuild":"1971","sqft":"656.0"}]}],"lands":[{"landType":"RESIDENTIAL","acres":"0.2784","sqft":"12125.00","marketValue":"$14,790","prodValue":"$0"}],"coordinates":{"id":"61479","lat":"31.314381","lng":"-94.755663"},"thumbnail":"61479","error":false,"urlOwnerDetails":"https://propaccess.trueautomation.com/clientdb/Property.aspx?cid=71&prop_id=61479","urlLandMap":"https://propaccess.trueautomation.com/mapSearch/?cid=71&p=61479","territoryNumber":"50","phoneNumbers":[{"_id":"","name":"","contacts":[{"phoneNumber":"","address":""}]}]},{"_id":"61501","landId":"61501","ownerId":"157761","allTrue":true,"exemptions":[{"name":"HS","description":"Homestead. (The person on the deed lives at this address.)"}],"nameDeedSame":true,"addressSame":true,"name":"WISDOM DANNEY M","deed":"WISDOM DANNEY M","physicalAddress":"11 WOODHAVEN CT","physicalCity":"LUFKIN","physicalState":"TX","physicalZip":"75904","mailingAddress":"11 WOODHAVEN CT","mailingCity":"LUFKIN","mailingState":"TX","mailingZip":"75904","ownership":"100.0000000000%","showOwnerProperty":false,"ownerProperty":[{"propertyId":"61501","propertyAddress":"11 WOODHAVEN CT LUFKIN, TX 75904-4317","name":"WISDOM DANNEY M","price":"$142,080","territory":"50","inTerritory":true}],"improvements":[{"id":0,"improvement":"RESIDENTIAL","livingArea":"1656.0 sqft","value":"$127,980","details":[{"id":0,"description":"MAIN AREA","yearBuild":"1977","sqft":"1314.0"},{"id":0,"description":"OPEN BRICK PORCH","yearBuild":"1977","sqft":"104.0"},{"id":0,"description":"ENCL BRICK PORCH","yearBuild":"1995","sqft":"120.0"},{"id":0,"description":"CARPORT","yearBuild":"1996","sqft":"432.0"},{"id":0,"description":"MAIN AREA","yearBuild":"1977","sqft":"342.0"}]},{"id":2,"improvement":"MISC IMP","livingArea":" sqft","value":"$270","details":[{"id":2,"description":"SHED FR UTILITY","yearBuild":"1991","sqft":"192.0"}]}],"lands":[{"landType":"RESIDENTIAL","acres":"0.2324","sqft":"10125.00","marketValue":"$13,830","prodValue":"$0"}],"coordinates":{"id":"61501","lat":"31.314788","lng":"-94.754206"},"thumbnail":"61501","error":false,"urlOwnerDetails":"https://propaccess.trueautomation.com/clientdb/Property.aspx?cid=71&prop_id=61501","urlLandMap":"https://propaccess.trueautomation.com/mapSearch/?cid=71&p=61501","territoryNumber":"50","phoneNumbers":[{"_id":"","name":"","contacts":[{"phoneNumber":"","address":""}]}]},{"_id":"11081","landId":"11081","ownerId":"12424","allTrue":false,"exemptions":[{"name":"EMPTY","description":"No Tax Exemption Listed."}],"nameDeedSame":false,"addressSame":false,"name":"WOODED ACRES APT L C","deed":"DUNCAN R H","physicalAddress":"COPELAND RD","physicalCity":"","physicalState":"","physicalZip":"","mailingAddress":"PO BOX 151538","mailingCity":"LUFKIN","mailingState":"TX","mailingZip":"75915","ownership":"100.0000000000%","showOwnerProperty":false,"ownerProperty":[{"propertyId":"11081","propertyAddress":"COPELAND RD","name":"WOODED ACRES APT L C","price":"$1,210","territory":"50","inTerritory":true}],"improvements":[],"lands":[{"landType":"RESIDENTIAL","acres":"0.7100","sqft":"30927.60","marketValue":"$1,210","prodValue":"$0"}],"coordinates":{"id":"11081","lat":"31.313404","lng":"-94.752895"},"thumbnail":"11081","error":false,"urlOwnerDetails":"https://propaccess.trueautomation.com/clientdb/Property.aspx?cid=71&prop_id=11081","urlLandMap":"https://propaccess.trueautomation.com/mapSearch/?cid=71&p=11081","territoryNumber":"50","phoneNumbers":[{"_id":"","name":"","contacts":[{"phoneNumber":"","address":""}]}]},{"_id":"61482","landId":"61482","ownerId":"120988","allTrue":false,"exemptions":[{"name":"EMPTY","description":"No Tax Exemption Listed."}],"nameDeedSame":true,"addressSame":false,"name":"WORTHEN NATHAN LEE","deed":"WORTHEN NATHAN LEE","physicalAddress":"5 WOODHUE CT","physicalCity":"LUFKIN","physicalState":"TX","physicalZip":"75904","mailingAddress":"4087 OLD UNION RD","mailingCity":"LUFKIN","mailingState":"TX","mailingZip":"75904","ownership":"100.0000000000%","showOwnerProperty":false,"ownerProperty":[],"improvements":[{"id":0,"improvement":"RESIDENTIAL","livingArea":"1764.0 sqft","value":"$138,200","details":[{"id":0,"description":"MAIN AREA","yearBuild":"1972","sqft":"1764.0"},{"id":0,"description":"OPEN BRICK PORCH","yearBuild":"1972","sqft":"156.0"},{"id":0,"description":"GARAGE BRICK/MAS","yearBuild":"1972","sqft":"420.0"},{"id":0,"description":"MASONRY UTILITY","yearBuild":"1972","sqft":"110.0"}]}],"lands":[{"landType":"RESIDENTIAL","acres":"0.2846","sqft":"12395.00","marketValue":"$14,990","prodValue":"$0"}],"coordinates":{"id":"61482","lat":"31.315152","lng":"-94.755979"},"thumbnail":"61482","error":false,"urlOwnerDetails":"https://propaccess.trueautomation.com/clientdb/Property.aspx?cid=71&prop_id=61482","urlLandMap":"https://propaccess.trueautomation.com/mapSearch/?cid=71&p=61482","territoryNumber":"50","phoneNumbers":[{"_id":"","name":"","contacts":[{"phoneNumber":"","address":""}]}]},{"_id":"61472","landId":"61472","ownerId":"165184","allTrue":true,"exemptions":[{"name":"EMPTY","description":"No Tax Exemption Listed."}],"nameDeedSame":true,"addressSame":true,"name":"WORTHEN SHEILA P","deed":"WORTHEN SHEILA P","physicalAddress":"1511 TURTLE CREEK DR","physicalCity":"LUFKIN","physicalState":"TX","physicalZip":"75904","mailingAddress":"1511 TURTLE CREEK DR","mailingCity":"LUFKIN","mailingState":"TX","mailingZip":"75904","ownership":"100.0000000000%","showOwnerProperty":false,"ownerProperty":[{"propertyId":"61472","propertyAddress":"1511 TURTLE CREEK DR LUFKIN, TX 75904-4315","name":"WORTHEN SHEILA P","price":"$134,930","territory":"50","inTerritory":true}],"improvements":[{"id":0,"improvement":"RESIDENTIAL","livingArea":"1424.0 sqft","value":"$120,020","details":[{"id":0,"description":"MAIN AREA","yearBuild":"1968","sqft":"1424.0"},{"id":0,"description":"CARPORT","yearBuild":"1968","sqft":"400.0"},{"id":0,"description":"OPEN BRICK PORCH","yearBuild":"1968","sqft":"60.0"},{"id":0,"description":"MASONRY UTILITY","yearBuild":"1968","sqft":"81.0"},{"id":0,"description":"CANOPY","yearBuild":"1968","sqft":"165.0"}]},{"id":2,"improvement":"MISC IMP","livingArea":" sqft","value":"$210","details":[{"id":2,"description":"SHED METAL UTILITY","yearBuild":"1975","sqft":"128.0"}]}],"lands":[{"landType":"RESIDENTIAL","acres":"0.2755","sqft":"12000.00","marketValue":"$14,700","prodValue":"$0"}],"coordinates":{"id":"61472","lat":"31.315675","lng":"-94.755457"},"thumbnail":"61472","error":false,"urlOwnerDetails":"https://propaccess.trueautomation.com/clientdb/Property.aspx?cid=71&prop_id=61472","urlLandMap":"https://propaccess.trueautomation.com/mapSearch/?cid=71&p=61472","territoryNumber":"50","phoneNumbers":[{"_id":"","name":"","contacts":[{"phoneNumber":"","address":""}]}]}]},"__N_SSG":true}