{"pageProps":{"owners":[{"_id":"43466","landId":"43466","ownerId":"164023","allTrue":false,"exemptions":[{"name":"EMPTY","description":"No Tax Exemption Listed."}],"nameDeedSame":true,"addressSame":false,"name":"4 SONS ENTERPRISES LLC","deed":"4 SONS ENTERPRISES LLC","physicalAddress":"602 N BONNER  KING'S OFFICE","physicalCity":"FURNITURE","physicalState":"TX","physicalZip":"","mailingAddress":"C/O JOSEPH BURNS 602 N BONNER ST","mailingCity":"LUFKIN","mailingState":"TX","mailingZip":"75904","ownership":"100.0000000000%","showOwnerProperty":false,"ownerProperty":[{"propertyId":"43466","propertyAddress":"602 N BONNER KING'S OFFICE FURNITURE,, TX","name":"4 SONS ENTERPRISES LLC","price":"$99,070","territory":"21","inTerritory":true}],"improvements":[{"id":0,"improvement":"COMMERCIAL","livingArea":"38628.0 sqft","value":"$54,640","details":[{"id":0,"description":"MAIN AREA","yearBuild":"1969","sqft":"33920.0"},{"id":0,"description":"MAIN AREA","yearBuild":"1969","sqft":"2295.0"},{"id":0,"description":"MAIN AREA","yearBuild":"1969","sqft":"2125.0"},{"id":0,"description":"MAIN AREA","yearBuild":"1969","sqft":"288.0"}]}],"lands":[{"landType":"COMMERCIAL","acres":"2.5500","sqft":"111078.00","marketValue":"$44,430","prodValue":"$0"}],"coordinates":{"id":"43466","lat":"31.344394","lng":"-94.733579"},"thumbnail":"43466","error":false,"urlOwnerDetails":"https://propaccess.trueautomation.com/clientdb/Property.aspx?cid=71&prop_id=43466","urlLandMap":"https://propaccess.trueautomation.com/mapSearch/?cid=71&p=43466","territoryNumber":"21","phoneNumbers":[{"_id":"","name":"","contacts":[{"phoneNumber":"","address":""}]}]},{"_id":"20356","landId":"20356","ownerId":"164023","allTrue":false,"exemptions":[{"name":"EMPTY","description":"No Tax Exemption Listed."}],"nameDeedSame":true,"addressSame":false,"name":"4 SONS ENTERPRISES LLC","deed":"4 SONS ENTERPRISES LLC","physicalAddress":"","physicalCity":"","physicalState":"TX","physicalZip":"","mailingAddress":"C/O JOSEPH BURNS 602 N BONNER ST","mailingCity":"LUFKIN","mailingState":"TX","mailingZip":"75904","ownership":"100.0000000000%","showOwnerProperty":false,"ownerProperty":[{"propertyId":"20356","propertyAddress":"TX","name":"4 SONS ENTERPRISES LLC","price":"$3,350","territory":"21","inTerritory":true}],"improvements":[],"lands":[{"landType":"COMMERCIAL","acres":"0.1540","sqft":"6708.00","marketValue":"$3,350","prodValue":"$0"}],"coordinates":{"id":"20356","lat":"31.344921","lng":"-94.734351"},"thumbnail":"20356","error":false,"urlOwnerDetails":"https://propaccess.trueautomation.com/clientdb/Property.aspx?cid=71&prop_id=20356","urlLandMap":"https://propaccess.trueautomation.com/mapSearch/?cid=71&p=20356","territoryNumber":"21","phoneNumbers":[{"_id":"","name":"","contacts":[{"phoneNumber":"","address":""}]}]},{"_id":"43483","landId":"43483","ownerId":"98463","allTrue":true,"exemptions":[{"name":"DP","description":"Disability."},{"name":"HS","description":"Homestead. (The person on the deed lives at this address.)"}],"nameDeedSame":true,"addressSame":true,"name":"ADAMS BOBBIE J","deed":"ADAMS BOBBIE J","physicalAddress":"606 W GROVE AVE","physicalCity":"LUFKIN","physicalState":"TX","physicalZip":"75904","mailingAddress":"606 W GROVE AVE","mailingCity":"LUFKIN","mailingState":"TX","mailingZip":"75904","ownership":"100.0000000000%","showOwnerProperty":false,"ownerProperty":[{"propertyId":"43483","propertyAddress":"606 W GROVE AVE LUFKIN, TX 75904-3033","name":"ADAMS BOBBIE J","price":"$98,810","territory":"21","inTerritory":true}],"improvements":[{"id":0,"improvement":"RESIDENTIAL","livingArea":"2012.0 sqft","value":"$82,420","details":[{"id":0,"description":"MAIN AREA","yearBuild":"1935","sqft":"1468.0"},{"id":0,"description":"MAIN AREA","yearBuild":"1935","sqft":"544.0"},{"id":0,"description":"WOOD DECK","yearBuild":"1935","sqft":"716.0"},{"id":0,"description":"FRAME UTILITY","yearBuild":"1935","sqft":"340.0"}]},{"id":2,"improvement":"MISC IMP","livingArea":" sqft","value":"$5,330","details":[{"id":2,"description":"GARAGE FR DETACHED","yearBuild":"2010","sqft":"600.0"}]}],"lands":[{"landType":"RESIDENTIAL","acres":"0.3214","sqft":"14000.00","marketValue":"$11,060","prodValue":"$0"}],"coordinates":{"id":"43483","lat":"31.342540","lng":"-94.733937"},"thumbnail":"43483","error":false,"urlOwnerDetails":"https://propaccess.trueautomation.com/clientdb/Property.aspx?cid=71&prop_id=43483","urlLandMap":"https://propaccess.trueautomation.com/mapSearch/?cid=71&p=43483","territoryNumber":"21","phoneNumbers":[{"_id":"","name":"","contacts":[{"phoneNumber":"","address":""}]}]},{"_id":"135252","landId":"135252","ownerId":"7873","allTrue":false,"exemptions":[{"name":"EMPTY","description":"No Tax Exemption Listed."}],"nameDeedSame":true,"addressSame":false,"name":"ALAMO GABRIEL MAXIMO","deed":"ALAMO GABRIEL MAXIMO","physicalAddress":"RAGUET ST","physicalCity":"","physicalState":"TX","physicalZip":"","mailingAddress":"PO BOX 150307","mailingCity":"LUFKIN","mailingState":"TX","mailingZip":"75915","ownership":"100.0000000000%","showOwnerProperty":false,"ownerProperty":[{"propertyId":"135252","propertyAddress":"RAGUET ST TX","name":"ALAMO GABRIEL MAXIMO","price":"$80,520","territory":"21","inTerritory":true}],"improvements":[{"id":0,"improvement":"COMMERCIAL","livingArea":"1088.0 sqft","value":"$71,560","details":[{"id":0,"description":"MAIN AREA","yearBuild":"2005","sqft":"1088.0"},{"id":0,"description":"PAVING CONCRETE","yearBuild":"2005","sqft":"5000.0"}]}],"lands":[{"landType":"COMMERCIAL","acres":"0.3740","sqft":"16291.44","marketValue":"$8,960","prodValue":"$0"}],"coordinates":{"id":"135252","lat":"31.342570","lng":"-94.735397"},"thumbnail":"135252","error":false,"urlOwnerDetails":"https://propaccess.trueautomation.com/clientdb/Property.aspx?cid=71&prop_id=135252","urlLandMap":"https://propaccess.trueautomation.com/mapSearch/?cid=71&p=135252","territoryNumber":"21","phoneNumbers":[{"_id":"","name":"","contacts":[{"phoneNumber":"","address":""}]}]},{"_id":"43518","landId":"43518","ownerId":"60130","allTrue":true,"exemptions":[{"name":"HS","description":"Homestead. (The person on the deed lives at this address.)"},{"name":"OTHER","description":"Exemption not listed."}],"nameDeedSame":true,"addressSame":true,"name":"ANDERSON MICHAEL ETUX SHARLENE","deed":"ANDERSON MICHAEL ETUX SHARLENE","physicalAddress":"320 MANTOOTH AVE","physicalCity":"LUFKIN","physicalState":"TX","physicalZip":"75904","mailingAddress":"320 MANTOOTH AVE","mailingCity":"LUFKIN","mailingState":"TX","mailingZip":"75904","ownership":"100.0000000000%","showOwnerProperty":false,"ownerProperty":[{"propertyId":"43518","propertyAddress":"320 MANTOOTH AVE LUFKIN, TX 75904-3039","name":"ANDERSON MICHAEL ETUX SHARLENE","price":"$96,080","territory":"21","inTerritory":true}],"improvements":[{"id":0,"improvement":"RESIDENTIAL","livingArea":"2152.0 sqft","value":"$85,250","details":[{"id":0,"description":"MAIN AREA","yearBuild":"1935","sqft":"2152.0"}]},{"id":2,"improvement":"MISC IMP","livingArea":" sqft","value":"$1,230","details":[{"id":2,"description":"GARAGE FR DETACHED","yearBuild":"1935","sqft":"360.0"}]}],"lands":[{"landType":"RESIDENTIAL","acres":"0.1607","sqft":"7000.00","marketValue":"$4,800","prodValue":"$0"},{"landType":"RESIDENTIAL","acres":"0.1607","sqft":"7000.00","marketValue":"$4,800","prodValue":"$0"}],"coordinates":{"id":"43518","lat":"31.341860","lng":"-94.732763"},"thumbnail":"43518","error":false,"urlOwnerDetails":"https://propaccess.trueautomation.com/clientdb/Property.aspx?cid=71&prop_id=43518","urlLandMap":"https://propaccess.trueautomation.com/mapSearch/?cid=71&p=43518","territoryNumber":"21","phoneNumbers":[{"_id":"cb0ae356de61434306966e1f97115851","name":"Anderson, Sharlene","contacts":[{"phoneNumber":"936-632-2340","address":"320 Mantooth Ave Lufkin\n"}]}]},{"_id":"42562","landId":"42562","ownerId":"24744","allTrue":false,"exemptions":[{"name":"EX-XV","description":"Other Exemptions (including public property, religious organizations, charitable organizations, and other property not reported elsewhere)."}],"nameDeedSame":true,"addressSame":false,"name":"ANGELINA COUNTY","deed":"ANGELINA COUNTY","physicalAddress":"102 W FRANK","physicalCity":"","physicalState":"","physicalZip":"","mailingAddress":"PO BOX 908","mailingCity":"LUFKIN","mailingState":"TX","mailingZip":"75902","ownership":"100.0000000000%","showOwnerProperty":false,"ownerProperty":[],"improvements":[{"id":0,"improvement":"COMMERCIAL","livingArea":"7968.0 sqft","value":"$250,290","details":[{"id":0,"description":"MAIN AREA","yearBuild":"1939","sqft":"3984.0"},{"id":0,"description":"PAVING ASPHALT","yearBuild":"1990","sqft":"3000.0"},{"id":0,"description":"MAIN AREA","yearBuild":"1939","sqft":"3984.0"}]}],"lands":[{"landType":"EXEMPT","acres":"0.0803","sqft":"3500.00","marketValue":"$5,250","prodValue":"$0"},{"landType":"EXEMPT","acres":"0.0803","sqft":"3500.00","marketValue":"$5,250","prodValue":"$0"}],"coordinates":{"id":"42562","lat":"31.340450","lng":"-94.728466"},"thumbnail":"42562","error":false,"urlOwnerDetails":"https://propaccess.trueautomation.com/clientdb/Property.aspx?cid=71&prop_id=42562","urlLandMap":"https://propaccess.trueautomation.com/mapSearch/?cid=71&p=42562","territoryNumber":"21","phoneNumbers":[{"_id":"18f1b59ca0fcd9bfbf7fd993b6308aa6","name":"Consolidated Co East Texas Fiber Line Inc","contacts":[{"phoneNumber":"936-634-1011","address":"102 W Frank Ave Lufkin\n"}]}]},{"_id":"42564","landId":"42564","ownerId":"24744","allTrue":false,"exemptions":[{"name":"EX-XV","description":"Other Exemptions (including public property, religious organizations, charitable organizations, and other property not reported elsewhere)."}],"nameDeedSame":true,"addressSame":false,"name":"ANGELINA COUNTY","deed":"ANGELINA COUNTY","physicalAddress":"108 FRANK ST","physicalCity":"","physicalState":"TX","physicalZip":"","mailingAddress":"PO BOX 908","mailingCity":"LUFKIN","mailingState":"TX","mailingZip":"75902","ownership":"100.0000000000%","showOwnerProperty":false,"ownerProperty":[],"improvements":[{"id":0,"improvement":"COMMERCIAL","livingArea":" sqft","value":"$3,310","details":[{"id":0,"description":"PAVING ASPHALT","yearBuild":"1990","sqft":"3500.0"}]}],"lands":[{"landType":"EXEMPT","acres":"0.0803","sqft":"3500.00","marketValue":"$5,250","prodValue":"$0"}],"coordinates":{"id":"42564","lat":"31.340484","lng":"-94.728583"},"thumbnail":"42564","error":false,"urlOwnerDetails":"https://propaccess.trueautomation.com/clientdb/Property.aspx?cid=71&prop_id=42564","urlLandMap":"https://propaccess.trueautomation.com/mapSearch/?cid=71&p=42564","territoryNumber":"21","phoneNumbers":[{"_id":"3afbd3e60d9d22570414da81881776c5","name":"Angelina Counseling &amp; Psychological Services","contacts":[{"phoneNumber":"936-637-0074","address":"1214 Ellis Ave\nLufkin TX"}]},{"_id":"b50b58c8ffd8b17a0a9af61614477d7a","name":"Angelina County &amp; Cities Health District","contacts":[{"phoneNumber":"936-632-1139","address":"503 Hill St\nLufkin TX"},{"phoneNumber":"936-632-9109","address":"503 Hill St\nLufkin TX"},{"phoneNumber":"936-633-0661","address":"503 Hill St\nLufkin TX"},{"phoneNumber":"936-632-6972","address":"503 Hill St\nLufkin TX"},{"phoneNumber":"936-637-7242","address":"503 Hill St\nLufkin TX"},{"phoneNumber":"936-829-4666","address":"503 Hill St\nLufkin TX"}]},{"_id":"8fde7ea04247959134bf7e8339b01568","name":"Angelina County Exposition Center","contacts":[{"phoneNumber":"936-637-3976","address":"1200 Ellen Trout Dr Lufkin\n"},{"phoneNumber":"936-633-6877","address":"1200 Ellen Trout Dr Lufkin\n"},{"phoneNumber":"936-634-6644","address":"1200 Ellen Trout Dr Lufkin\n"}]},{"_id":"9a581cbfe46b38037871e1dbc7bf054c","name":"Angelina County Fresh Water District No 1","contacts":[{"phoneNumber":"936-639-3255","address":"3098 FM 2251 Lufkin\n"}]},{"_id":"dff6b52bd844a1f3d9a34c7452550118","name":"Angelina County Juvenile Detention Center","contacts":[{"phoneNumber":"936-634-8689","address":"Lufkin\n"}]},{"_id":"975571b10543da09035c7db8adb48fb9","name":"Angelina County Offices","contacts":[{"phoneNumber":"936-632-7168","address":"Angelina County Landfill 7521 FM 58\n"},{"phoneNumber":"936-632-8239","address":"Angelina County Landfill 7521 FM 58\n"},{"phoneNumber":"936-632-5531","address":"Angelina County Landfill 7521 FM 58\n"},{"phoneNumber":"936-632-5531","address":"Angelina County Landfill 7521 FM 58\n"},{"phoneNumber":"936-634-5242","address":"Angelina County Landfill 7521 FM 58\n"},{"phoneNumber":"936-639-6363","address":"Angelina County Landfill 7521 FM 58\n"},{"phoneNumber":"936-422-4334","address":"Angelina County Landfill 7521 FM 58\n"},{"phoneNumber":"936-637-1391","address":"Angelina County Landfill 7521 FM 58\n"},{"phoneNumber":"936-897-2281","address":"Angelina County Landfill 7521 FM 58\n"},{"phoneNumber":"936-634-3331","address":"Angelina County Landfill 7521 FM 58\n"},{"phoneNumber":"936-634-8233","address":"Angelina County Landfill 7521 FM 58\n"},{"phoneNumber":"936-639-3164","address":"Angelina County Landfill 7521 FM 58\n"},{"phoneNumber":"936-639-0719","address":"Angelina County Landfill 7521 FM 58\n"},{"phoneNumber":"936-634-6984","address":"Angelina County Landfill 7521 FM 58\n"},{"phoneNumber":"936-634-9962","address":"Angelina County Landfill 7521 FM 58\n"},{"phoneNumber":"936-639-3929","address":"Angelina County Landfill 7521 FM 58\n"},{"phoneNumber":"936-632-1500","address":"Angelina County Landfill 7521 FM 58\n"},{"phoneNumber":"936-634-5995","address":"Angelina County Landfill 7521 FM 58\n"},{"phoneNumber":"936-634-8339","address":"Angelina County Landfill 7521 FM 58\n"},{"phoneNumber":"936-639-2204","address":"Angelina County Landfill 7521 FM 58\n"},{"phoneNumber":"936-634-8984","address":"Angelina County Landfill 7521 FM 58\n"},{"phoneNumber":"936-634-5413","address":"Angelina County Landfill 7521 FM 58\n"},{"phoneNumber":"936-639-4827","address":"Angelina County Landfill 7521 FM 58\n"},{"phoneNumber":"936-632-5090","address":"Angelina County Landfill 7521 FM 58\n"},{"phoneNumber":"936-634-4312","address":"Angelina County Landfill 7521 FM 58\n"},{"phoneNumber":"936-639-3775","address":"Angelina County Landfill 7521 FM 58\n"},{"phoneNumber":"936-634-5431","address":"Angelina County Landfill 7521 FM 58\n"},{"phoneNumber":"936-634-4232","address":"Angelina County Landfill 7521 FM 58\n"},{"phoneNumber":"936-632-4423","address":"Angelina County Landfill 7521 FM 58\n"},{"phoneNumber":"936-639-3913","address":"Angelina County Landfill 7521 FM 58\n"},{"phoneNumber":"936-634-8334","address":"Angelina County Landfill 7521 FM 58\n"},{"phoneNumber":"936-634-8336","address":"Angelina County Landfill 7521 FM 58\n"},{"phoneNumber":"936-637-3117","address":"Angelina County Landfill 7521 FM 58\n"},{"phoneNumber":"936-829-3535","address":"Angelina County Landfill 7521 FM 58\n"},{"phoneNumber":"936-634-3976","address":"Angelina County Landfill 7521 FM 58\n"},{"phoneNumber":"936-634-8365","address":"Angelina County Landfill 7521 FM 58\n"},{"phoneNumber":"936-634-3331","address":"Angelina County Landfill 7521 FM 58\n"},{"phoneNumber":"936-637-3668","address":"Angelina County Landfill 7521 FM 58\n"},{"phoneNumber":"936-634-2724","address":"Angelina County Landfill 7521 FM 58\n"},{"phoneNumber":"936-639-8735","address":"Angelina County Landfill 7521 FM 58\n"},{"phoneNumber":"936-634-8376","address":"Angelina County Landfill 7521 FM 58\n"},{"phoneNumber":"936-634-8376","address":"Angelina County Landfill 7521 FM 58\n"},{"phoneNumber":"936-634-8376","address":"Angelina County Landfill 7521 FM 58\n"},{"phoneNumber":"936-634-8376","address":"Angelina County Landfill 7521 FM 58\n"},{"phoneNumber":"936-829-2288","address":"Angelina County Landfill 7521 FM 58\n"},{"phoneNumber":"936-634-8631","address":"Angelina County Landfill 7521 FM 58\n"},{"phoneNumber":"936-634-7312","address":"Angelina County Landfill 7521 FM 58\n"},{"phoneNumber":"936-639-3833","address":"Angelina County Landfill 7521 FM 58\n"}]},{"_id":"0e8ca088231306bd57fdc6b410a6c607","name":"Angelina County Senior Citizens Center","contacts":[{"phoneNumber":"936-634-4179","address":"2801 Valley Ave Lufkin\n"},{"phoneNumber":"936-634-4179","address":"2801 Valley Ave Lufkin\n"}]},{"_id":"9a90008849fd4972ef73e4964ee1bb59","name":"Angelina County Tax Office","contacts":[{"phoneNumber":"936-897-8025","address":"134 Warren Rd Lufkin\n"}]},{"_id":"ce4f58ce174ca208c96e182fc9d9f334","name":"Angelina County Teachers Credit Union","contacts":[{"phoneNumber":"936-634-7922","address":"402 Medford Dr Lufkin\n"}]}]},{"_id":"43523","landId":"43523","ownerId":"148788","allTrue":false,"exemptions":[{"name":"EMPTY","description":"No Tax Exemption Listed."}],"nameDeedSame":true,"addressSame":false,"name":"ARRIAGA JAIME ETUX ESMERALDA","deed":"ARRIAGA JAIME ETUX ESMERALDA","physicalAddress":"MANTOOTH","physicalCity":"","physicalState":"","physicalZip":"","mailingAddress":"313 MANTOOTH AVE","mailingCity":"LUFKIN","mailingState":"TX","mailingZip":"75904","ownership":"100.0000000000%","showOwnerProperty":false,"ownerProperty":[{"propertyId":"43523","propertyAddress":"MANTOOTH","name":"ARRIAGA JAIME ETUX ESMERALDA","price":"$4,800","territory":"21","inTerritory":true}],"improvements":[],"lands":[{"landType":"RESIDENTIAL","acres":"0.1607","sqft":"7000.00","marketValue":"$4,800","prodValue":"$0"}],"coordinates":{"id":"43523","lat":"31.341480","lng":"-94.732163"},"thumbnail":"43523","error":false,"urlOwnerDetails":"https://propaccess.trueautomation.com/clientdb/Property.aspx?cid=71&prop_id=43523","urlLandMap":"https://propaccess.trueautomation.com/mapSearch/?cid=71&p=43523","territoryNumber":"21","phoneNumbers":[{"_id":"","name":"","contacts":[{"phoneNumber":"","address":""}]}]},{"_id":"43522","landId":"43522","ownerId":"148788","allTrue":false,"exemptions":[{"name":"EMPTY","description":"No Tax Exemption Listed."}],"nameDeedSame":true,"addressSame":false,"name":"ARRIAGA JAIME ETUX ESMERALDA","deed":"ARRIAGA JAIME ETUX ESMERALDA","physicalAddress":"313 MANTOOTH","physicalCity":"LUFKIN","physicalState":"TX","physicalZip":"75904","mailingAddress":"313 MANTOOTH AVE","mailingCity":"LUFKIN","mailingState":"TX","mailingZip":"75904","ownership":"100.0000000000%","showOwnerProperty":false,"ownerProperty":[{"propertyId":"43522","propertyAddress":"313 MANTOOTH LUFKIN, TX 75904-3012","name":"ARRIAGA JAIME ETUX ESMERALDA","price":"$95,110","territory":"21","inTerritory":true}],"improvements":[{"id":0,"improvement":"RESIDENTIAL","livingArea":"2258.0 sqft","value":"$88,940","details":[{"id":0,"description":"MAIN AREA","yearBuild":"1932","sqft":"2258.0"}]},{"id":2,"improvement":"MISC IMP","livingArea":" sqft","value":"$1,370","details":[{"id":2,"description":"GARAGE FR DETACHED","yearBuild":"1932","sqft":"320.0"}]}],"lands":[{"landType":"RESIDENTIAL","acres":"0.1607","sqft":"7000.00","marketValue":"$4,800","prodValue":"$0"}],"coordinates":{"id":"43522","lat":"31.341430","lng":"-94.732313"},"thumbnail":"43522","error":false,"urlOwnerDetails":"https://propaccess.trueautomation.com/clientdb/Property.aspx?cid=71&prop_id=43522","urlLandMap":"https://propaccess.trueautomation.com/mapSearch/?cid=71&p=43522","territoryNumber":"21","phoneNumbers":[{"_id":"","name":"","contacts":[{"phoneNumber":"","address":""}]}]},{"_id":"43482","landId":"43482","ownerId":"36132","allTrue":false,"exemptions":[{"name":"OTHER","description":"Exemption not listed."},{"name":"HS","description":"Homestead. (The person on the deed lives at this address.)"}],"nameDeedSame":true,"addressSame":false,"name":"BROWN DELORES ANN & BROWN HAROLD D","deed":"BROWN DELORES ANN & BROWN HAROLD D","physicalAddress":"602 GROVE","physicalCity":"LUFKIN","physicalState":"TX","physicalZip":"75904","mailingAddress":"602 W GROVE AVE","mailingCity":"LUFKIN","mailingState":"TX","mailingZip":"75904","ownership":"100.0000000000%","showOwnerProperty":false,"ownerProperty":[{"propertyId":"43482","propertyAddress":"602 GROVE LUFKIN, TX 75904-3033","name":"BROWN DELORES ANN & BROWN HAROLD D","price":"$84,770","territory":"21","inTerritory":true}],"improvements":[{"id":0,"improvement":"RESIDENTIAL","livingArea":"2001.0 sqft","value":"$71,510","details":[{"id":0,"description":"MAIN AREA","yearBuild":"1932","sqft":"2001.0"},{"id":0,"description":"OPEN FRAME PORCH","yearBuild":"1932","sqft":"296.0"}]},{"id":2,"improvement":"MISC IMP","livingArea":" sqft","value":"$2,200","details":[{"id":2,"description":"GARAGE FR DETACHED","yearBuild":"1990","sqft":"576.0"},{"id":2,"description":"SHED FR UTILITY","yearBuild":"1990","sqft":"140.0"}]}],"lands":[{"landType":"RESIDENTIAL","acres":"0.3214","sqft":"14000.00","marketValue":"$11,060","prodValue":"$0"}],"coordinates":{"id":"43482","lat":"31.342637","lng":"-94.733638"},"thumbnail":"43482","error":false,"urlOwnerDetails":"https://propaccess.trueautomation.com/clientdb/Property.aspx?cid=71&prop_id=43482","urlLandMap":"https://propaccess.trueautomation.com/mapSearch/?cid=71&p=43482","territoryNumber":"21","phoneNumbers":[{"_id":"","name":"","contacts":[{"phoneNumber":"","address":""}]}]},{"_id":"74682","landId":"74682","ownerId":"166831","allTrue":false,"exemptions":[{"name":"EMPTY","description":"No Tax Exemption Listed."}],"nameDeedSame":true,"addressSame":false,"name":"CAMPBELL ROBERT WAYNE","deed":"CAMPBELL ROBERT WAYNE","physicalAddress":"1305 ABNEY","physicalCity":"","physicalState":"TX","physicalZip":"","mailingAddress":"902 COPELAND ST","mailingCity":"LUFKIN","mailingState":"TX","mailingZip":"75904","ownership":"100.0000000000%","showOwnerProperty":false,"ownerProperty":[{"propertyId":"74682","propertyAddress":"1305 ABNEY TX","name":"CAMPBELL ROBERT WAYNE","price":"$22,210","territory":"21","inTerritory":true}],"improvements":[{"id":0,"improvement":"COMMERCIAL","livingArea":"2112.0 sqft","value":"$16,980","details":[{"id":0,"description":"MAIN AREA","yearBuild":"1973","sqft":"2112.0"},{"id":0,"description":"PAVING ASPHALT","yearBuild":"","sqft":"7092.0"}]}],"lands":[{"landType":"COMMERCIAL","acres":"0.2400","sqft":"10454.40","marketValue":"$5,230","prodValue":"$0"}],"coordinates":{"id":"74682","lat":"31.344635","lng":"-94.735796"},"thumbnail":"74682","error":false,"urlOwnerDetails":"https://propaccess.trueautomation.com/clientdb/Property.aspx?cid=71&prop_id=74682","urlLandMap":"https://propaccess.trueautomation.com/mapSearch/?cid=71&p=74682","territoryNumber":"21","phoneNumbers":[{"_id":"","name":"","contacts":[{"phoneNumber":"","address":""}]}]},{"_id":"43524","landId":"43524","ownerId":"68015","allTrue":false,"exemptions":[{"name":"EMPTY","description":"No Tax Exemption Listed."}],"nameDeedSame":true,"addressSame":false,"name":"CASTELBERRY'S INC","deed":"CASTELBERRY'S INC","physicalAddress":"MANTOOTH","physicalCity":"LUFKIN","physicalState":"TX","physicalZip":"75901","mailingAddress":"113 SUNTORY WAY","mailingCity":"LUFKIN","mailingState":"TX","mailingZip":"75901","ownership":"100.0000000000%","showOwnerProperty":false,"ownerProperty":[{"propertyId":"43524","propertyAddress":"MANTOOTH LUFKIN, TX 75901","name":"CASTELBERRY'S INC","price":"$1,750","territory":"21","inTerritory":true}],"improvements":[],"lands":[{"landType":"RESIDENTIAL","acres":"0.0803","sqft":"3500.00","marketValue":"$1,750","prodValue":"$0"}],"coordinates":{"id":"43524","lat":"31.341612","lng":"-94.732052"},"thumbnail":"43524","error":false,"urlOwnerDetails":"https://propaccess.trueautomation.com/clientdb/Property.aspx?cid=71&prop_id=43524","urlLandMap":"https://propaccess.trueautomation.com/mapSearch/?cid=71&p=43524","territoryNumber":"21","phoneNumbers":[{"_id":"604d00951baaf51a47c539e6d35b78a4","name":"Castleberry, Cooper","contacts":[{"phoneNumber":"936-632-7017","address":"113 Suntory Way Lufkin\n"}]}]},{"_id":"43525","landId":"43525","ownerId":"129173","allTrue":false,"exemptions":[{"name":"EMPTY","description":"No Tax Exemption Listed."}],"nameDeedSame":true,"addressSame":false,"name":"CASTLEBERRY HARRY COOPER JR ETUX JULIE N","deed":"CASTLEBERRY HARRY COOPER JR ETUX JULIE N","physicalAddress":"309-319 HERNDON","physicalCity":"","physicalState":"","physicalZip":"","mailingAddress":"113 SUNTORY WAY","mailingCity":"LUFKIN","mailingState":"TX","mailingZip":"75901","ownership":"100.0000000000%","showOwnerProperty":false,"ownerProperty":[{"propertyId":"43525","propertyAddress":"309-319 HERNDON","name":"CASTLEBERRY HARRY COOPER JR ETUX JULIE N","price":"$42,730","territory":"21","inTerritory":true}],"improvements":[{"id":0,"improvement":"COMMERCIAL","livingArea":"12648.0 sqft","value":"$40,980","details":[{"id":0,"description":"MAIN AREA","yearBuild":"1985","sqft":"12648.0"}]}],"lands":[{"landType":"COMMERCIAL","acres":"0.0803","sqft":"3500.00","marketValue":"$1,750","prodValue":"$0"}],"coordinates":{"id":"43525","lat":"31.341432","lng":"-94.731972"},"thumbnail":"43525","error":false,"urlOwnerDetails":"https://propaccess.trueautomation.com/clientdb/Property.aspx?cid=71&prop_id=43525","urlLandMap":"https://propaccess.trueautomation.com/mapSearch/?cid=71&p=43525","territoryNumber":"21","phoneNumbers":[{"_id":"604d00951baaf51a47c539e6d35b78a4","name":"Castleberry, Cooper","contacts":[{"phoneNumber":"936-632-7017","address":"113 Suntory Way Lufkin\n"}]}]},{"_id":"43526","landId":"43526","ownerId":"129173","allTrue":false,"exemptions":[{"name":"EMPTY","description":"No Tax Exemption Listed."}],"nameDeedSame":true,"addressSame":false,"name":"CASTLEBERRY HARRY COOPER JR ETUX JULIE N","deed":"CASTLEBERRY HARRY COOPER JR ETUX JULIE N","physicalAddress":"HERNDON","physicalCity":"","physicalState":"TX","physicalZip":"","mailingAddress":"113 SUNTORY WAY","mailingCity":"LUFKIN","mailingState":"TX","mailingZip":"75901","ownership":"100.0000000000%","showOwnerProperty":false,"ownerProperty":[{"propertyId":"43526","propertyAddress":"HERNDON TX","name":"CASTLEBERRY HARRY COOPER JR ETUX JULIE N","price":"$3,500","territory":"21","inTerritory":true}],"improvements":[],"lands":[{"landType":"RESIDENTIAL","acres":"0.1607","sqft":"7000.00","marketValue":"$3,500","prodValue":"$0"}],"coordinates":{"id":"43526","lat":"31.341579","lng":"-94.731862"},"thumbnail":"43526","error":false,"urlOwnerDetails":"https://propaccess.trueautomation.com/clientdb/Property.aspx?cid=71&prop_id=43526","urlLandMap":"https://propaccess.trueautomation.com/mapSearch/?cid=71&p=43526","territoryNumber":"21","phoneNumbers":[{"_id":"604d00951baaf51a47c539e6d35b78a4","name":"Castleberry, Cooper","contacts":[{"phoneNumber":"936-632-7017","address":"113 Suntory Way Lufkin\n"}]}]},{"_id":"139472","landId":"139472","ownerId":"148850","allTrue":false,"exemptions":[{"name":"EMPTY","description":"No Tax Exemption Listed."}],"nameDeedSame":false,"addressSame":false,"name":"CCLAD INC","deed":"","physicalAddress":"410 BONNER","physicalCity":"","physicalState":"TX","physicalZip":"","mailingAddress":"841 GEORGE SIMPSON RD","mailingCity":"HUNTINGTON","mailingState":"TX","mailingZip":"75949","ownership":"100.0000000000%","showOwnerProperty":false,"ownerProperty":[{"propertyId":"139472","propertyAddress":"410 BONNER TX","name":"CCLAD INC","price":"$81,560","territory":"21","inTerritory":true}],"improvements":[{"id":0,"improvement":"RESIDENTIAL","livingArea":"900.0 sqft","value":"$75,940","details":[{"id":0,"description":"MAIN AREA","yearBuild":"2019","sqft":"900.0"},{"id":0,"description":"OPEN FRAME PORCH","yearBuild":"2019","sqft":"36.0"}]}],"lands":[{"landType":"RESIDENTIAL","acres":"0.0515","sqft":"2243.34","marketValue":"$2,810","prodValue":"$0"},{"landType":"RESIDENTIAL","acres":"0.0515","sqft":"2243.34","marketValue":"$2,810","prodValue":"$0"}],"coordinates":{"id":"139472","lat":"31.342168","lng":"-94.732884"},"thumbnail":"139472","error":false,"urlOwnerDetails":"https://propaccess.trueautomation.com/clientdb/Property.aspx?cid=71&prop_id=139472","urlLandMap":"https://propaccess.trueautomation.com/mapSearch/?cid=71&p=139472","territoryNumber":"21","phoneNumbers":[{"_id":"b26015fee181b9922b1a8aefae6170df","name":"Mulkey, Dennis","contacts":[{"phoneNumber":"936-422-3348","address":"841 George Simpson Rd Lufkin\n"}]}]},{"_id":"139471","landId":"139471","ownerId":"148850","allTrue":false,"exemptions":[{"name":"EMPTY","description":"No Tax Exemption Listed."}],"nameDeedSame":false,"addressSame":false,"name":"CCLAD INC","deed":"","physicalAddress":"412 BONNER","physicalCity":"","physicalState":"TX","physicalZip":"","mailingAddress":"841 GEORGE SIMPSON RD","mailingCity":"HUNTINGTON","mailingState":"TX","mailingZip":"75949","ownership":"100.0000000000%","showOwnerProperty":false,"ownerProperty":[{"propertyId":"139471","propertyAddress":"412 BONNER TX","name":"CCLAD INC","price":"$81,560","territory":"21","inTerritory":true}],"improvements":[{"id":0,"improvement":"RESIDENTIAL","livingArea":"900.0 sqft","value":"$75,940","details":[{"id":0,"description":"MAIN AREA","yearBuild":"2019","sqft":"900.0"},{"id":0,"description":"OPEN FRAME PORCH","yearBuild":"2019","sqft":"36.0"}]}],"lands":[{"landType":"RESIDENTIAL","acres":"0.0515","sqft":"2243.34","marketValue":"$2,810","prodValue":"$0"},{"landType":"RESIDENTIAL","acres":"0.0515","sqft":"2243.34","marketValue":"$2,810","prodValue":"$0"}],"coordinates":{"id":"139471","lat":"31.342284","lng":"-94.732935"},"thumbnail":"139471","error":false,"urlOwnerDetails":"https://propaccess.trueautomation.com/clientdb/Property.aspx?cid=71&prop_id=139471","urlLandMap":"https://propaccess.trueautomation.com/mapSearch/?cid=71&p=139471","territoryNumber":"21","phoneNumbers":[{"_id":"b26015fee181b9922b1a8aefae6170df","name":"Mulkey, Dennis","contacts":[{"phoneNumber":"936-422-3348","address":"841 George Simpson Rd Lufkin\n"}]}]},{"_id":"139470","landId":"139470","ownerId":"148850","allTrue":false,"exemptions":[{"name":"EMPTY","description":"No Tax Exemption Listed."}],"nameDeedSame":false,"addressSame":false,"name":"CCLAD INC","deed":"","physicalAddress":"414 BONNER","physicalCity":"","physicalState":"TX","physicalZip":"","mailingAddress":"841 GEORGE SIMPSON RD","mailingCity":"HUNTINGTON","mailingState":"TX","mailingZip":"75949","ownership":"100.0000000000%","showOwnerProperty":false,"ownerProperty":[{"propertyId":"139470","propertyAddress":"414 BONNER TX","name":"CCLAD INC","price":"$82,020","territory":"21","inTerritory":true}],"improvements":[{"id":0,"improvement":"RESIDENTIAL","livingArea":"900.0 sqft","value":"$75,940","details":[{"id":0,"description":"MAIN AREA","yearBuild":"2019","sqft":"900.0"},{"id":0,"description":"OPEN FRAME PORCH","yearBuild":"2019","sqft":"36.0"}]}],"lands":[{"landType":"RESIDENTIAL","acres":"0.0575","sqft":"2504.70","marketValue":"$3,040","prodValue":"$0"},{"landType":"RESIDENTIAL","acres":"0.0575","sqft":"2504.70","marketValue":"$3,040","prodValue":"$0"}],"coordinates":{"id":"139470","lat":"31.342406","lng":"-94.732989"},"thumbnail":"139470","error":false,"urlOwnerDetails":"https://propaccess.trueautomation.com/clientdb/Property.aspx?cid=71&prop_id=139470","urlLandMap":"https://propaccess.trueautomation.com/mapSearch/?cid=71&p=139470","territoryNumber":"21","phoneNumbers":[{"_id":"b26015fee181b9922b1a8aefae6170df","name":"Mulkey, Dennis","contacts":[{"phoneNumber":"936-422-3348","address":"841 George Simpson Rd Lufkin\n"}]}]},{"_id":"42565","landId":"42565","ownerId":"127357","allTrue":false,"exemptions":[{"name":"EMPTY","description":"No Tax Exemption Listed."}],"nameDeedSame":true,"addressSame":false,"name":"CONSOLIDATED COMM OF TEXAS CO","deed":"CONSOLIDATED COMM OF TEXAS CO","physicalAddress":"108 FRANK ST  LCTX PARKING","physicalCity":"LOT","physicalState":"TX","physicalZip":"","mailingAddress":"350 S LOOP 336 W","mailingCity":"CONROE","mailingState":"TX","mailingZip":"77304","ownership":"100.0000000000%","showOwnerProperty":false,"ownerProperty":[{"propertyId":"42565","propertyAddress":"108 FRANK ST LCTX PARKING LOT,, TX","name":"CONSOLIDATED COMM OF TEXAS CO","price":"$9,440","territory":"21","inTerritory":true}],"improvements":[{"id":0,"improvement":"COMMERCIAL","livingArea":" sqft","value":"$3,310","details":[{"id":0,"description":"PAVING ASPHALT","yearBuild":"1990","sqft":"3500.0"}]}],"lands":[{"landType":"UTILITY","acres":"0.0803","sqft":"3500.00","marketValue":"$6,130","prodValue":"$0"}],"coordinates":{"id":"42565","lat":"31.340508","lng":"-94.728658"},"thumbnail":"42565","error":false,"urlOwnerDetails":"https://propaccess.trueautomation.com/clientdb/Property.aspx?cid=71&prop_id=42565","urlLandMap":"https://propaccess.trueautomation.com/mapSearch/?cid=71&p=42565","territoryNumber":"21","phoneNumbers":[{"_id":"18f1b59ca0fcd9bfbf7fd993b6308aa6","name":"Consolidated Co East Texas Fiber Line Inc","contacts":[{"phoneNumber":"936-634-1011","address":"102 W Frank Ave Lufkin\n"}]},{"_id":"d58f80a31a26954c6a453c7443e2d9e1","name":"Consolidated Health Care Services","contacts":[{"phoneNumber":"936-699-5007","address":"507 Gaslight Blvd Lufkin\n"}]}]},{"_id":"42569","landId":"42569","ownerId":"127357","allTrue":false,"exemptions":[{"name":"EMPTY","description":"No Tax Exemption Listed."}],"nameDeedSame":true,"addressSame":false,"name":"CONSOLIDATED COMM OF TEXAS CO","deed":"CONSOLIDATED COMM OF TEXAS CO","physicalAddress":"110 W FRANK 112","physicalCity":"","physicalState":"","physicalZip":"","mailingAddress":"350 S LOOP 336 W","mailingCity":"CONROE","mailingState":"TX","mailingZip":"77304","ownership":"100.0000000000%","showOwnerProperty":false,"ownerProperty":[{"propertyId":"42569","propertyAddress":"110 W FRANK 112","name":"CONSOLIDATED COMM OF TEXAS CO","price":"$273,830","territory":"21","inTerritory":true}],"improvements":[{"id":0,"improvement":"COMMERCIAL","livingArea":"12109.0 sqft","value":"$222,080","details":[{"id":0,"description":"MAIN AREA","yearBuild":"1986","sqft":"6251.0"},{"id":0,"description":"MAIN AREA","yearBuild":"1922","sqft":"5162.0"},{"id":0,"description":"MAIN AREA","yearBuild":"0","sqft":"696.0"}]}],"lands":[{"landType":"UTILITY","acres":"0.0775","sqft":"3375.00","marketValue":"$5,060","prodValue":"$0"},{"landType":"UTILITY","acres":"0.0717","sqft":"3125.00","marketValue":"$4,690","prodValue":"$0"},{"landType":"UTILITY","acres":"0.6428","sqft":"28000.00","marketValue":"$42,000","prodValue":"$0"}],"coordinates":{"id":"42569","lat":"31.340759","lng":"-94.729001"},"thumbnail":"42569","error":false,"urlOwnerDetails":"https://propaccess.trueautomation.com/clientdb/Property.aspx?cid=71&prop_id=42569","urlLandMap":"https://propaccess.trueautomation.com/mapSearch/?cid=71&p=42569","territoryNumber":"21","phoneNumbers":[{"_id":"18f1b59ca0fcd9bfbf7fd993b6308aa6","name":"Consolidated Co East Texas Fiber Line Inc","contacts":[{"phoneNumber":"936-634-1011","address":"102 W Frank Ave Lufkin\n"}]},{"_id":"d58f80a31a26954c6a453c7443e2d9e1","name":"Consolidated Health Care Services","contacts":[{"phoneNumber":"936-699-5007","address":"507 Gaslight Blvd Lufkin\n"}]}]},{"_id":"42558","landId":"42558","ownerId":"127357","allTrue":false,"exemptions":[{"name":"EMPTY","description":"No Tax Exemption Listed."}],"nameDeedSame":true,"addressSame":false,"name":"CONSOLIDATED COMM OF TEXAS CO","deed":"CONSOLIDATED COMM OF TEXAS CO","physicalAddress":"215 N FIRST ST","physicalCity":"","physicalState":"","physicalZip":"","mailingAddress":"350 S LOOP 336 W","mailingCity":"CONROE","mailingState":"TX","mailingZip":"77304","ownership":"100.0000000000%","showOwnerProperty":false,"ownerProperty":[{"propertyId":"42558","propertyAddress":"215 N FIRST ST","name":"CONSOLIDATED COMM OF TEXAS CO","price":"$323,470","territory":"21","inTerritory":true}],"improvements":[{"id":0,"improvement":"COMMERCIAL","livingArea":"14673.0 sqft","value":"$312,540","details":[{"id":0,"description":"MAIN AREA","yearBuild":"1987","sqft":"4416.0"},{"id":0,"description":"MAIN AREA","yearBuild":"1987","sqft":"3651.0"},{"id":0,"description":"MAIN AREA","yearBuild":"1987","sqft":"5562.0"},{"id":0,"description":"PAVING ASPHALT","yearBuild":"1987","sqft":"17568.0"},{"id":0,"description":"MAIN AREA","yearBuild":"1987","sqft":"612.0"},{"id":0,"description":"MAIN AREA","yearBuild":"2001","sqft":"432.0"}]}],"lands":[{"landType":"UTILITY","acres":"0.0671","sqft":"2925.00","marketValue":"$4,390","prodValue":"$0"},{"landType":"UTILITY","acres":"0.0643","sqft":"2800.00","marketValue":"$4,200","prodValue":"$0"},{"landType":"UTILITY","acres":"0.0359","sqft":"1562.00","marketValue":"$2,340","prodValue":"$0"}],"coordinates":{"id":"42558","lat":"31.340923","lng":"-94.728763"},"thumbnail":"42558","error":false,"urlOwnerDetails":"https://propaccess.trueautomation.com/clientdb/Property.aspx?cid=71&prop_id=42558","urlLandMap":"https://propaccess.trueautomation.com/mapSearch/?cid=71&p=42558","territoryNumber":"21","phoneNumbers":[{"_id":"18f1b59ca0fcd9bfbf7fd993b6308aa6","name":"Consolidated Co East Texas Fiber Line Inc","contacts":[{"phoneNumber":"936-634-1011","address":"102 W Frank Ave Lufkin\n"}]},{"_id":"d58f80a31a26954c6a453c7443e2d9e1","name":"Consolidated Health Care Services","contacts":[{"phoneNumber":"936-699-5007","address":"507 Gaslight Blvd Lufkin\n"}]}]},{"_id":"73482","landId":"73482","ownerId":"127357","allTrue":false,"exemptions":[{"name":"EMPTY","description":"No Tax Exemption Listed."}],"nameDeedSame":true,"addressSame":false,"name":"CONSOLIDATED COMM OF TEXAS CO","deed":"CONSOLIDATED COMM OF TEXAS CO","physicalAddress":"207 N FIRST","physicalCity":"","physicalState":"","physicalZip":"","mailingAddress":"350 S LOOP 336 W","mailingCity":"CONROE","mailingState":"TX","mailingZip":"77304","ownership":"100.0000000000%","showOwnerProperty":false,"ownerProperty":[{"propertyId":"73482","propertyAddress":"207 N FIRST","name":"CONSOLIDATED COMM OF TEXAS CO","price":"$36,430","territory":"21","inTerritory":true}],"improvements":[{"id":0,"improvement":"MISC IMP","livingArea":" sqft","value":"$2,710","details":[{"id":0,"description":"CANOPY","yearBuild":"2002","sqft":"432.0"}]}],"lands":[{"landType":"UTILITY","acres":"0.5160","sqft":"22477.00","marketValue":"$33,720","prodValue":"$0"}],"coordinates":{"id":"73482","lat":"31.341062","lng":"-94.728649"},"thumbnail":"73482","error":false,"urlOwnerDetails":"https://propaccess.trueautomation.com/clientdb/Property.aspx?cid=71&prop_id=73482","urlLandMap":"https://propaccess.trueautomation.com/mapSearch/?cid=71&p=73482","territoryNumber":"21","phoneNumbers":[{"_id":"18f1b59ca0fcd9bfbf7fd993b6308aa6","name":"Consolidated Co East Texas Fiber Line Inc","contacts":[{"phoneNumber":"936-634-1011","address":"102 W Frank Ave Lufkin\n"}]},{"_id":"d58f80a31a26954c6a453c7443e2d9e1","name":"Consolidated Health Care Services","contacts":[{"phoneNumber":"936-699-5007","address":"507 Gaslight Blvd Lufkin\n"}]}]},{"_id":"43461","landId":"43461","ownerId":"128351","allTrue":false,"exemptions":[{"name":"EMPTY","description":"No Tax Exemption Listed."}],"nameDeedSame":true,"addressSame":false,"name":"DELANEY MARK H SR & CRAGER ROY","deed":"DELANEY MARK H SR & CRAGER ROY","physicalAddress":"609 BONNER","physicalCity":"LUFKIN","physicalState":"TX","physicalZip":"75904","mailingAddress":"609 N BONNER ST","mailingCity":"LUFKIN","mailingState":"TX","mailingZip":"75904","ownership":"100.0000000000%","showOwnerProperty":false,"ownerProperty":[{"propertyId":"43461","propertyAddress":"609 BONNER LUFKIN, TX 75904-2869","name":"DELANEY MARK H SR & CRAGER ROY","price":"$37,930","territory":"21","inTerritory":true}],"improvements":[{"id":0,"improvement":"RESIDENTIAL","livingArea":"672.0 sqft","value":"$27,160","details":[{"id":0,"description":"MAIN AREA","yearBuild":"1950","sqft":"672.0"},{"id":0,"description":"OPEN FRAME PORCH","yearBuild":"1950","sqft":"24.0"}]},{"id":2,"improvement":"MISC IMP","livingArea":" sqft","value":"$650","details":[{"id":2,"description":"SHED METAL UTILITY","yearBuild":"1950","sqft":"460.0"}]}],"lands":[{"landType":"RESIDENTIAL","acres":"0.2755","sqft":"12000.00","marketValue":"$10,120","prodValue":"$0"}],"coordinates":{"id":"43461","lat":"31.344032","lng":"-94.734325"},"thumbnail":"43461","error":false,"urlOwnerDetails":"https://propaccess.trueautomation.com/clientdb/Property.aspx?cid=71&prop_id=43461","urlLandMap":"https://propaccess.trueautomation.com/mapSearch/?cid=71&p=43461","territoryNumber":"21","phoneNumbers":[{"_id":"","name":"","contacts":[{"phoneNumber":"","address":""}]}]},{"_id":"43495","landId":"43495","ownerId":"163370","allTrue":false,"exemptions":[{"name":"EMPTY","description":"No Tax Exemption Listed."}],"nameDeedSame":true,"addressSame":false,"name":"DELVELA LLC","deed":"DELVELA LLC","physicalAddress":"701 DOUGLAS","physicalCity":"","physicalState":"","physicalZip":"","mailingAddress":"P.O. BOX 27365","mailingCity":"HOUSTON","mailingState":"TX","mailingZip":"77227","ownership":"100.0000000000%","showOwnerProperty":false,"ownerProperty":[{"propertyId":"43495","propertyAddress":"701 DOUGLAS","name":"DELVELA LLC","price":"$2,800","territory":"21","inTerritory":true}],"improvements":[],"lands":[{"landType":"APARTMENT","acres":"0.1286","sqft":"5600.00","marketValue":"$2,800","prodValue":"$0"}],"coordinates":{"id":"43495","lat":"31.341720","lng":"-94.734684"},"thumbnail":"43495","error":false,"urlOwnerDetails":"https://propaccess.trueautomation.com/clientdb/Property.aspx?cid=71&prop_id=43495","urlLandMap":"https://propaccess.trueautomation.com/mapSearch/?cid=71&p=43495","territoryNumber":"21","phoneNumbers":[{"_id":"","name":"","contacts":[{"phoneNumber":"","address":""}]}]},{"_id":"43496","landId":"43496","ownerId":"163370","allTrue":false,"exemptions":[{"name":"EMPTY","description":"No Tax Exemption Listed."}],"nameDeedSame":true,"addressSame":false,"name":"DELVELA LLC","deed":"DELVELA LLC","physicalAddress":"701 W GROVE","physicalCity":"","physicalState":"TX","physicalZip":"","mailingAddress":"P.O. BOX 27365","mailingCity":"HOUSTON","mailingState":"TX","mailingZip":"77227","ownership":"100.0000000000%","showOwnerProperty":false,"ownerProperty":[{"propertyId":"43496","propertyAddress":"701 W GROVE TX","name":"DELVELA LLC","price":"$228,960","territory":"21","inTerritory":true}],"improvements":[{"id":0,"improvement":"COMMERCIAL","livingArea":"7488.0 sqft","value":"$221,960","details":[{"id":0,"description":"MAIN AREA","yearBuild":"1969","sqft":"7488.0"},{"id":0,"description":"PAVING ASPHALT","yearBuild":"1969","sqft":"1500.0"}]}],"lands":[{"landType":"APARTMENT","acres":"0.3214","sqft":"14000.00","marketValue":"$7,000","prodValue":"$0"}],"coordinates":{"id":"43496","lat":"31.341786","lng":"-94.734481"},"thumbnail":"43496","error":false,"urlOwnerDetails":"https://propaccess.trueautomation.com/clientdb/Property.aspx?cid=71&prop_id=43496","urlLandMap":"https://propaccess.trueautomation.com/mapSearch/?cid=71&p=43496","territoryNumber":"21","phoneNumbers":[{"_id":"e9579ae0ded192def57af0309aea29bb","name":"Shieods, Essie","contacts":[{"phoneNumber":"936-899-5485","address":"701 W Grove Ave Lufkin\n"}]}]},{"_id":"43505","landId":"43505","ownerId":"9127","allTrue":false,"exemptions":[{"name":"EMPTY","description":"No Tax Exemption Listed."}],"nameDeedSame":true,"addressSame":false,"name":"DP SOLUTIONS","deed":"DP SOLUTIONS","physicalAddress":"MANTOOTH","physicalCity":"","physicalState":"","physicalZip":"","mailingAddress":"1508 S FIRST ST","mailingCity":"LUFKIN","mailingState":"TX","mailingZip":"75901","ownership":"100.0000000000%","showOwnerProperty":false,"ownerProperty":[{"propertyId":"43505","propertyAddress":"MANTOOTH","name":"DP SOLUTIONS","price":"$2,810","territory":"21","inTerritory":true}],"improvements":[],"lands":[{"landType":"RESIDENTIAL","acres":"0.1125","sqft":"4900.00","marketValue":"$2,810","prodValue":"$0"}],"coordinates":{"id":"43505","lat":"31.341633","lng":"-94.733461"},"thumbnail":"43505","error":false,"urlOwnerDetails":"https://propaccess.trueautomation.com/clientdb/Property.aspx?cid=71&prop_id=43505","urlLandMap":"https://propaccess.trueautomation.com/mapSearch/?cid=71&p=43505","territoryNumber":"21","phoneNumbers":[{"_id":"","name":"","contacts":[{"phoneNumber":"","address":""}]}]},{"_id":"43504","landId":"43504","ownerId":"9127","allTrue":false,"exemptions":[{"name":"EMPTY","description":"No Tax Exemption Listed."}],"nameDeedSame":true,"addressSame":false,"name":"DP SOLUTIONS","deed":"DP SOLUTIONS","physicalAddress":"404 MANTOOTH","physicalCity":"","physicalState":"","physicalZip":"","mailingAddress":"1508 S FIRST ST","mailingCity":"LUFKIN","mailingState":"TX","mailingZip":"75901","ownership":"100.0000000000%","showOwnerProperty":false,"ownerProperty":[{"propertyId":"43504","propertyAddress":"404 MANTOOTH","name":"DP SOLUTIONS","price":"$110,790","territory":"21","inTerritory":true}],"improvements":[{"id":0,"improvement":"RESIDENTIAL","livingArea":"2234.0 sqft","value":"$87,240","details":[{"id":0,"description":"MAIN AREA","yearBuild":"1908","sqft":"2234.0"},{"id":0,"description":"OPEN FRAME PORCH","yearBuild":"1908","sqft":"350.0"}]},{"id":2,"improvement":"MISC IMP","livingArea":" sqft","value":"$830","details":[{"id":2,"description":"CARPORT","yearBuild":"1974","sqft":"400.0"}]},{"id":4,"improvement":"RESIDENTIAL","livingArea":"400.0 sqft","value":"$5,000","details":[{"id":4,"description":"MAIN AREA","yearBuild":"1949","sqft":"400.0"},{"id":4,"description":"FRAME UTILITY","yearBuild":"1949","sqft":"400.0"}]}],"lands":[{"landType":"RESIDENTIAL","acres":"0.3214","sqft":"14000.00","marketValue":"$8,030","prodValue":"$0"}],"coordinates":{"id":"43504","lat":"31.341706","lng":"-94.733238"},"thumbnail":"43504","error":false,"urlOwnerDetails":"https://propaccess.trueautomation.com/clientdb/Property.aspx?cid=71&prop_id=43504","urlLandMap":"https://propaccess.trueautomation.com/mapSearch/?cid=71&p=43504","territoryNumber":"21","phoneNumbers":[{"_id":"","name":"","contacts":[{"phoneNumber":"","address":""}]}]},{"_id":"43539","landId":"43539","ownerId":"65867","allTrue":false,"exemptions":[{"name":"EMPTY","description":"No Tax Exemption Listed."}],"nameDeedSame":true,"addressSame":false,"name":"DP SOLUTIONS INC","deed":"DP SOLUTIONS INC","physicalAddress":"420 W FRANK AVE","physicalCity":"","physicalState":"TX","physicalZip":"","mailingAddress":"1508 S FIRST ST","mailingCity":"LUFKIN","mailingState":"TX","mailingZip":"75901","ownership":"100.0000000000%","showOwnerProperty":false,"ownerProperty":[{"propertyId":"43539","propertyAddress":"420 W FRANK AVE TX","name":"DP SOLUTIONS INC","price":"$152,300","territory":"21","inTerritory":true}],"improvements":[{"id":0,"improvement":"COMMERCIAL","livingArea":"2768.0 sqft","value":"$105,040","details":[{"id":0,"description":"MAIN AREA","yearBuild":"1976","sqft":"2768.0"},{"id":0,"description":"OPEN BRICK PORCH","yearBuild":"1976","sqft":"498.0"},{"id":0,"description":"PAVING ASPHALT","yearBuild":"0","sqft":"11820.0"},{"id":0,"description":"OPEN FRAME PORCH","yearBuild":"1976","sqft":"120.0"}]}],"lands":[{"landType":"COMMERCIAL","acres":"0.3099","sqft":"13500.00","marketValue":"$23,630","prodValue":"$0"},{"landType":"COMMERCIAL","acres":"0.3099","sqft":"13500.00","marketValue":"$23,630","prodValue":"$0"}],"coordinates":{"id":"43539","lat":"31.340662","lng":"-94.733292"},"thumbnail":"43539","error":false,"urlOwnerDetails":"https://propaccess.trueautomation.com/clientdb/Property.aspx?cid=71&prop_id=43539","urlLandMap":"https://propaccess.trueautomation.com/mapSearch/?cid=71&p=43539","territoryNumber":"21","phoneNumbers":[{"_id":"150f0cafe9f97fb8e0fa9ce44472c23a","name":"Mom's Diner","contacts":[{"phoneNumber":"936-637-6610","address":"420 W Frank Ave Lufkin\n"}]}]},{"_id":"43494","landId":"43494","ownerId":"23838","allTrue":false,"exemptions":[{"name":"EMPTY","description":"No Tax Exemption Listed."}],"nameDeedSame":true,"addressSame":false,"name":"DRAKE DARRELL ETUX BEVERLY","deed":"DRAKE DARRELL ETUX BEVERLY","physicalAddress":"N RAGUET","physicalCity":"","physicalState":"","physicalZip":"","mailingAddress":"420 N RAGUET ST","mailingCity":"LUFKIN","mailingState":"TX","mailingZip":"75904","ownership":"100.0000000000%","showOwnerProperty":false,"ownerProperty":[{"propertyId":"43494","propertyAddress":"N RAGUET","name":"DRAKE DARRELL ETUX BEVERLY","price":"$4,200","territory":"21","inTerritory":true}],"improvements":[],"lands":[{"landType":"RESIDENTIAL","acres":"0.1928","sqft":"8400.00","marketValue":"$4,200","prodValue":"$0"}],"coordinates":{"id":"43494","lat":"31.341674","lng":"-94.734827"},"thumbnail":"43494","error":false,"urlOwnerDetails":"https://propaccess.trueautomation.com/clientdb/Property.aspx?cid=71&prop_id=43494","urlLandMap":"https://propaccess.trueautomation.com/mapSearch/?cid=71&p=43494","territoryNumber":"21","phoneNumbers":[{"_id":"5ed1765f6faaacadb800269ae24d7142","name":"Drake, Darrell J","contacts":[{"phoneNumber":"936-634-4327","address":"420 N Raguet St Lufkin\n"}]}]},{"_id":"43493","landId":"43493","ownerId":"23838","allTrue":true,"exemptions":[{"name":"HS","description":"Homestead. (The person on the deed lives at this address.)"}],"nameDeedSame":true,"addressSame":true,"name":"DRAKE DARRELL ETUX BEVERLY","deed":"DRAKE DARRELL ETUX BEVERLY","physicalAddress":"420 N RAGUET ST","physicalCity":"LUFKIN","physicalState":"TX","physicalZip":"75904","mailingAddress":"420 N RAGUET ST","mailingCity":"LUFKIN","mailingState":"TX","mailingZip":"75904","ownership":"100.0000000000%","showOwnerProperty":false,"ownerProperty":[{"propertyId":"43493","propertyAddress":"420 N RAGUET ST LUFKIN, TX 75904-3052","name":"DRAKE DARRELL ETUX BEVERLY","price":"$133,920","territory":"21","inTerritory":true}],"improvements":[{"id":0,"improvement":"RESIDENTIAL","livingArea":"2623.0 sqft","value":"$125,540","details":[{"id":0,"description":"MAIN AREA","yearBuild":"1937","sqft":"2623.0"},{"id":0,"description":"OPEN FRAME PORCH","yearBuild":"1937","sqft":"200.0"},{"id":0,"description":"ENCLOSED FR PORCH","yearBuild":"1937","sqft":"192.0"},{"id":0,"description":"PATIO CONCRETE/MASONRY","yearBuild":"1937","sqft":"250.0"}]},{"id":2,"improvement":"MISC IMP","livingArea":" sqft","value":"$1,390","details":[{"id":2,"description":"GARAGE FR DETACHED","yearBuild":"1937","sqft":"520.0"}]}],"lands":[{"landType":"RESIDENTIAL","acres":"0.3214","sqft":"14000.00","marketValue":"$6,990","prodValue":"$0"}],"coordinates":{"id":"43493","lat":"31.341600","lng":"-94.735052"},"thumbnail":"43493","error":false,"urlOwnerDetails":"https://propaccess.trueautomation.com/clientdb/Property.aspx?cid=71&prop_id=43493","urlLandMap":"https://propaccess.trueautomation.com/mapSearch/?cid=71&p=43493","territoryNumber":"21","phoneNumbers":[{"_id":"5ed1765f6faaacadb800269ae24d7142","name":"Drake, Darrell J","contacts":[{"phoneNumber":"936-634-4327","address":"420 N Raguet St Lufkin\n"}]}]},{"_id":"135253","landId":"135253","ownerId":"160697","allTrue":false,"exemptions":[{"name":"HS","description":"Homestead. (The person on the deed lives at this address.)"}],"nameDeedSame":true,"addressSame":false,"name":"FAJARDO JESUS VALENTINO ETUX CINDY MARTINEZ","deed":"FAJARDO JESUS VALENTINO ETUX CINDY MARTINEZ","physicalAddress":"705 PERSIMMON ST","physicalCity":"","physicalState":"TX","physicalZip":"","mailingAddress":"705 PERSIMMON AVE","mailingCity":"LUFKIN","mailingState":"TX","mailingZip":"75904","ownership":"100.0000000000%","showOwnerProperty":false,"ownerProperty":[{"propertyId":"135253","propertyAddress":"705 PERSIMMON ST TX","name":"FAJARDO JESUS VALENTINO ETUX CINDY MARTINEZ","price":"$156,800","territory":"21","inTerritory":true}],"improvements":[{"id":0,"improvement":"RESIDENTIAL","livingArea":"1600.0 sqft","value":"$148,250","details":[{"id":0,"description":"MAIN AREA","yearBuild":"2017","sqft":"1600.0"},{"id":0,"description":"OPEN BRICK PORCH","yearBuild":"2017","sqft":"90.0"},{"id":0,"description":"OPEN BRICK PORCH","yearBuild":"2017","sqft":"194.0"}]}],"lands":[{"landType":"RESIDENTIAL","acres":"0.2250","sqft":"9801.00","marketValue":"$8,550","prodValue":"$0"}],"coordinates":{"id":"135253","lat":"31.342646","lng":"-94.735118"},"thumbnail":"135253","error":false,"urlOwnerDetails":"https://propaccess.trueautomation.com/clientdb/Property.aspx?cid=71&prop_id=135253","urlLandMap":"https://propaccess.trueautomation.com/mapSearch/?cid=71&p=135253","territoryNumber":"21","phoneNumbers":[{"_id":"a35efe8a8836021388280d5a85850f05","name":"Garcia, Makeshia","contacts":[{"phoneNumber":"936-526-2012","address":"705 Persimmon St Lufkin\n"}]}]},{"_id":"43460","landId":"43460","ownerId":"165458","allTrue":false,"exemptions":[{"name":"EMPTY","description":"No Tax Exemption Listed."}],"nameDeedSame":true,"addressSame":false,"name":"FERRELL ANTHONY STEVEN ETAL","deed":"FERRELL ANTHONY STEVEN ETAL","physicalAddress":"607 BONNER","physicalCity":"","physicalState":"","physicalZip":"","mailingAddress":"1127 N 1ST ST","mailingCity":"LUFKIN","mailingState":"TX","mailingZip":"75904","ownership":"100.0000000000%","showOwnerProperty":false,"ownerProperty":[{"propertyId":"43460","propertyAddress":"607 BONNER","name":"FERRELL ANTHONY STEVEN ETAL","price":"$9,190","territory":"21","inTerritory":true}],"improvements":[],"lands":[{"landType":"RESIDENTIAL","acres":"0.1928","sqft":"8400.00","marketValue":"$9,190","prodValue":"$0"}],"coordinates":{"id":"43460","lat":"31.343854","lng":"-94.734246"},"thumbnail":"43460","error":false,"urlOwnerDetails":"https://propaccess.trueautomation.com/clientdb/Property.aspx?cid=71&prop_id=43460","urlLandMap":"https://propaccess.trueautomation.com/mapSearch/?cid=71&p=43460","territoryNumber":"21","phoneNumbers":[{"_id":"","name":"","contacts":[{"phoneNumber":"","address":""}]}]},{"_id":"43487","landId":"43487","ownerId":"26772","allTrue":true,"exemptions":[{"name":"HS","description":"Homestead. (The person on the deed lives at this address.)"}],"nameDeedSame":true,"addressSame":true,"name":"FLORES JOSE M ETUX NORMA","deed":"FLORES JOSE M ETUX NORMA","physicalAddress":"701 PERSIMMON AVE","physicalCity":"LUFKIN","physicalState":"TX","physicalZip":"75904","mailingAddress":"701 PERSIMMON AVE","mailingCity":"LUFKIN","mailingState":"TX","mailingZip":"75904","ownership":"100.0000000000%","showOwnerProperty":false,"ownerProperty":[{"propertyId":"43487","propertyAddress":"701 PERSIMMON AVE LUFKIN, TX 75904-2829","name":"FLORES JOSE M ETUX NORMA","price":"$69,910","territory":"21","inTerritory":true}],"improvements":[{"id":0,"improvement":"RESIDENTIAL","livingArea":"1526.0 sqft","value":"$58,830","details":[{"id":0,"description":"MAIN AREA","yearBuild":"1914","sqft":"1526.0"},{"id":0,"description":"OPEN FRAME PORCH","yearBuild":"1914","sqft":"240.0"},{"id":0,"description":"CANOPY","yearBuild":"1985","sqft":"630.0"}]},{"id":2,"improvement":"MISC IMP","livingArea":" sqft","value":"$1,560","details":[{"id":2,"description":"GARAGE FR DETACHED","yearBuild":"1914","sqft":"528.0"}]}],"lands":[{"landType":"RESIDENTIAL","acres":"0.2319","sqft":"10100.00","marketValue":"$9,520","prodValue":"$0"}],"coordinates":{"id":"43487","lat":"31.342726","lng":"-94.734906"},"thumbnail":"43487","error":false,"urlOwnerDetails":"https://propaccess.trueautomation.com/clientdb/Property.aspx?cid=71&prop_id=43487","urlLandMap":"https://propaccess.trueautomation.com/mapSearch/?cid=71&p=43487","territoryNumber":"21","phoneNumbers":[{"_id":"","name":"","contacts":[{"phoneNumber":"","address":""}]}]},{"_id":"43478","landId":"43478","ownerId":"158737","allTrue":false,"exemptions":[{"name":"EMPTY","description":"No Tax Exemption Listed."}],"nameDeedSame":true,"addressSame":false,"name":"FULLER ELDON J ETUX SANDRA","deed":"FULLER ELDON J ETUX SANDRA","physicalAddress":"502 BONNER  AD FAB","physicalCity":"SIGNS","physicalState":"TX","physicalZip":"","mailingAddress":"502 BONNER ST","mailingCity":"LUFKIN","mailingState":"TX","mailingZip":"75901","ownership":"100.0000000000%","showOwnerProperty":false,"ownerProperty":[{"propertyId":"43478","propertyAddress":"502 BONNER AD FAB SIGNS,, TX","name":"FULLER ELDON J ETUX SANDRA","price":"$13,400","territory":"21","inTerritory":true}],"improvements":[{"id":0,"improvement":"COMMERCIAL","livingArea":"5200.0 sqft","value":"$6,400","details":[{"id":0,"description":"MAIN AREA","yearBuild":"1948","sqft":"3200.0"},{"id":0,"description":"MAIN AREA","yearBuild":"1948","sqft":"2000.0"}]}],"lands":[{"landType":"COMMERCIAL","acres":"0.3214","sqft":"14000.00","marketValue":"$7,000","prodValue":"$0"}],"coordinates":{"id":"43478","lat":"31.342788","lng":"-94.733169"},"thumbnail":"43478","error":false,"urlOwnerDetails":"https://propaccess.trueautomation.com/clientdb/Property.aspx?cid=71&prop_id=43478","urlLandMap":"https://propaccess.trueautomation.com/mapSearch/?cid=71&p=43478","territoryNumber":"21","phoneNumbers":[{"_id":"","name":"","contacts":[{"phoneNumber":"","address":""}]}]},{"_id":"43489","landId":"43489","ownerId":"161051","allTrue":false,"exemptions":[{"name":"HS","description":"Homestead. (The person on the deed lives at this address.)"}],"nameDeedSame":true,"addressSame":false,"name":"GLOVER RAYMOND PAUL ETUX BELEN","deed":"GLOVER RAYMOND PAUL ETUX BELEN","physicalAddress":"702 W GROVE ST","physicalCity":"LUFKIN","physicalState":"TX","physicalZip":"75904","mailingAddress":"702 WEST GROVE AVE","mailingCity":"LUFKIN","mailingState":"TX","mailingZip":"75904","ownership":"100.0000000000%","showOwnerProperty":false,"ownerProperty":[{"propertyId":"43489","propertyAddress":"702 W GROVE ST LUFKIN, TX 75904","name":"GLOVER RAYMOND PAUL ETUX BELEN","price":"$138,000","territory":"21","inTerritory":true}],"improvements":[{"id":0,"improvement":"RESIDENTIAL","livingArea":"3128.0 sqft","value":"$121,690","details":[{"id":0,"description":"MAIN AREA","yearBuild":"1925","sqft":"1480.0"},{"id":0,"description":"MAIN AREA","yearBuild":"1925","sqft":"168.0"},{"id":0,"description":"CARPORT","yearBuild":"1925","sqft":"240.0"},{"id":0,"description":"OPEN FRAME PORCH","yearBuild":"1925","sqft":"108.0"},{"id":0,"description":"PATIO CONCRETE/MASONRY","yearBuild":"1925","sqft":"160.0"},{"id":0,"description":"OPEN FRAME PORCH","yearBuild":"1925","sqft":"48.0"},{"id":0,"description":"MAIN AREA","yearBuild":"1925","sqft":"1480.0"}]},{"id":2,"improvement":"RESIDENTIAL","livingArea":"500.0 sqft","value":"$5,250","details":[{"id":2,"description":"MAIN AREA","yearBuild":"1925","sqft":"500.0"},{"id":2,"description":"CARPORT","yearBuild":"1925","sqft":"200.0"},{"id":2,"description":"FRAME GARAGE","yearBuild":"1925","sqft":"240.0"}]}],"lands":[{"landType":"RESIDENTIAL","acres":"0.3214","sqft":"14000.00","marketValue":"$11,060","prodValue":"$0"}],"coordinates":{"id":"43489","lat":"31.342298","lng":"-94.734700"},"thumbnail":"43489","error":false,"urlOwnerDetails":"https://propaccess.trueautomation.com/clientdb/Property.aspx?cid=71&prop_id=43489","urlLandMap":"https://propaccess.trueautomation.com/mapSearch/?cid=71&p=43489","territoryNumber":"21","phoneNumbers":[{"_id":"","name":"","contacts":[{"phoneNumber":"","address":""}]}]},{"_id":"43481","landId":"43481","ownerId":"160453","allTrue":false,"exemptions":[{"name":"EMPTY","description":"No Tax Exemption Listed."}],"nameDeedSame":true,"addressSame":false,"name":"GONCUOGLU NACI ETUX RUTH","deed":"GONCUOGLU NACI ETUX RUTH","physicalAddress":"511513515 BONNER 517519","physicalCity":"","physicalState":"TX","physicalZip":"","mailingAddress":"21338 HURON BEND DR","mailingCity":"PORTER","mailingState":"TX","mailingZip":"77365","ownership":"100.0000000000%","showOwnerProperty":false,"ownerProperty":[{"propertyId":"43481","propertyAddress":"511,513,515 BONNER 517,519 TX","name":"GONCUOGLU NACI ETUX RUTH","price":"$156,470","territory":"21","inTerritory":true}],"improvements":[{"id":0,"improvement":"RESIDENTIAL","livingArea":"3780.0 sqft","value":"$145,410","details":[{"id":0,"description":"MAIN AREA","yearBuild":"1973","sqft":"3780.0"}]}],"lands":[{"landType":"APARTMENT","acres":"0.3214","sqft":"14000.00","marketValue":"$11,060","prodValue":"$0"}],"coordinates":{"id":"43481","lat":"31.343062","lng":"-94.733825"},"thumbnail":"43481","error":false,"urlOwnerDetails":"https://propaccess.trueautomation.com/clientdb/Property.aspx?cid=71&prop_id=43481","urlLandMap":"https://propaccess.trueautomation.com/mapSearch/?cid=71&p=43481","territoryNumber":"21","phoneNumbers":[{"_id":"","name":"","contacts":[{"phoneNumber":"","address":""}]}]},{"_id":"43452","landId":"43452","ownerId":"32673","allTrue":false,"exemptions":[{"name":"EMPTY","description":"No Tax Exemption Listed."}],"nameDeedSame":true,"addressSame":false,"name":"GONZALEZ JORGE CRUZ","deed":"GONZALEZ JORGE CRUZ","physicalAddress":"706 N RAGUET","physicalCity":"","physicalState":"TX","physicalZip":"","mailingAddress":"508 CHRISTOPHER DR","mailingCity":"LUFKIN","mailingState":"TX","mailingZip":"75904","ownership":"100.0000000000%","showOwnerProperty":false,"ownerProperty":[{"propertyId":"43452","propertyAddress":"706 N RAGUET TX","name":"GONZALEZ JORGE CRUZ","price":"$45,560","territory":"21","inTerritory":true}],"improvements":[{"id":0,"improvement":"COMMERCIAL","livingArea":"3630.0 sqft","value":"$15,030","details":[{"id":0,"description":"MAIN AREA","yearBuild":"1957","sqft":"3630.0"}]},{"id":2,"improvement":"COMMERCIAL","livingArea":"1500.0 sqft","value":"$1,520","details":[{"id":2,"description":"MAIN AREA","yearBuild":"1960","sqft":"1500.0"}]},{"id":4,"improvement":"COMMERCIAL","livingArea":"1500.0 sqft","value":"$6,210","details":[{"id":4,"description":"MAIN AREA","yearBuild":"1968","sqft":"1500.0"}]}],"lands":[{"landType":"COMMERCIAL","acres":"0.4821","sqft":"21000.00","marketValue":"$10,500","prodValue":"$0"},{"landType":"COMMERCIAL","acres":"0.4821","sqft":"21000.00","marketValue":"$11,550","prodValue":"$0"},{"landType":"COMMERCIAL","acres":"0.0344","sqft":"1500.00","marketValue":"$750","prodValue":"$0"}],"coordinates":{"id":"43452","lat":"31.344070","lng":"-94.735783"},"thumbnail":"43452","error":false,"urlOwnerDetails":"https://propaccess.trueautomation.com/clientdb/Property.aspx?cid=71&prop_id=43452","urlLandMap":"https://propaccess.trueautomation.com/mapSearch/?cid=71&p=43452","territoryNumber":"21","phoneNumbers":[{"_id":"","name":"","contacts":[{"phoneNumber":"","address":""}]}]},{"_id":"43455","landId":"43455","ownerId":"137159","allTrue":false,"exemptions":[{"name":"EMPTY","description":"No Tax Exemption Listed."}],"nameDeedSame":true,"addressSame":false,"name":"GONZALEZ RAMON ETUX RAQUEL","deed":"GONZALEZ RAMON ETUX RAQUEL","physicalAddress":"702 PERSIMMON","physicalCity":"LUFKIN","physicalState":"TX","physicalZip":"75904","mailingAddress":"702 PERSIMMON AVE","mailingCity":"LUFKIN","mailingState":"TX","mailingZip":"75904","ownership":"100.0000000000%","showOwnerProperty":false,"ownerProperty":[{"propertyId":"43455","propertyAddress":"702 PERSIMMON LUFKIN, TX 75904-2837","name":"GONZALEZ RAMON ETUX RAQUEL","price":"$41,720","territory":"21","inTerritory":true}],"improvements":[{"id":0,"improvement":"RESIDENTIAL","livingArea":"1724.0 sqft","value":"$30,660","details":[{"id":0,"description":"MAIN AREA","yearBuild":"1920","sqft":"1724.0"},{"id":0,"description":"OPEN FRAME PORCH","yearBuild":"1920","sqft":"400.0"}]}],"lands":[{"landType":"RESIDENTIAL","acres":"0.3214","sqft":"14000.00","marketValue":"$11,060","prodValue":"$0"}],"coordinates":{"id":"43455","lat":"31.343224","lng":"-94.735103"},"thumbnail":"43455","error":false,"urlOwnerDetails":"https://propaccess.trueautomation.com/clientdb/Property.aspx?cid=71&prop_id=43455","urlLandMap":"https://propaccess.trueautomation.com/mapSearch/?cid=71&p=43455","territoryNumber":"21","phoneNumbers":[{"_id":"","name":"","contacts":[{"phoneNumber":"","address":""}]}]},{"_id":"43463","landId":"43463","ownerId":"143467","allTrue":true,"exemptions":[{"name":"HS","description":"Homestead. (The person on the deed lives at this address.)"}],"nameDeedSame":true,"addressSame":true,"name":"GREER EDITH MUNOZ","deed":"GREER EDITH MUNOZ","physicalAddress":"606 PERSIMMON AVE","physicalCity":"LUFKIN","physicalState":"TX","physicalZip":"75904","mailingAddress":"606 PERSIMMON AVE","mailingCity":"LUFKIN","mailingState":"TX","mailingZip":"75904","ownership":"100.0000000000%","showOwnerProperty":false,"ownerProperty":[{"propertyId":"43463","propertyAddress":"606 PERSIMMON AVE LUFKIN, TX 75904-2828","name":"GREER EDITH MUNOZ","price":"$52,940","territory":"21","inTerritory":true}],"improvements":[{"id":0,"improvement":"RESIDENTIAL","livingArea":"1240.0 sqft","value":"$43,420","details":[{"id":0,"description":"MAIN AREA","yearBuild":"1938","sqft":"1180.0"},{"id":0,"description":"CANOPY","yearBuild":"1938","sqft":"204.0"},{"id":0,"description":"OPEN FRAME PORCH","yearBuild":"1938","sqft":"30.0"},{"id":0,"description":"FRAME UTILITY","yearBuild":"1938","sqft":"20.0"},{"id":0,"description":"MAIN AREA","yearBuild":"1938","sqft":"60.0"}]}],"lands":[{"landType":"RESIDENTIAL","acres":"0.2300","sqft":"10018.80","marketValue":"$9,520","prodValue":"$0"}],"coordinates":{"id":"43463","lat":"31.343511","lng":"-94.734218"},"thumbnail":"43463","error":false,"urlOwnerDetails":"https://propaccess.trueautomation.com/clientdb/Property.aspx?cid=71&prop_id=43463","urlLandMap":"https://propaccess.trueautomation.com/mapSearch/?cid=71&p=43463","territoryNumber":"21","phoneNumbers":[{"_id":"","name":"","contacts":[{"phoneNumber":"","address":""}]}]},{"_id":"43506","landId":"43506","ownerId":"67997","allTrue":false,"exemptions":[{"name":"HS","description":"Homestead. (The person on the deed lives at this address.)"},{"name":"OTHER","description":"Exemption not listed."}],"nameDeedSame":false,"addressSame":true,"name":"HALL RONNIE E","deed":"empty","physicalAddress":"410 MANTOOTH AVE","physicalCity":"LUFKIN","physicalState":"TX","physicalZip":"75904","mailingAddress":"410 MANTOOTH AVE","mailingCity":"LUFKIN","mailingState":"TX","mailingZip":"75904","ownership":"100.0000000000%","showOwnerProperty":false,"ownerProperty":[{"propertyId":"43506","propertyAddress":"410 MANTOOTH AVE LUFKIN, TX 75904-3013","name":"HALL RONNIE E","price":"$77,370","territory":"21","inTerritory":true}],"improvements":[{"id":0,"improvement":"RESIDENTIAL","livingArea":"1464.0 sqft","value":"$69,000","details":[{"id":0,"description":"MAIN AREA","yearBuild":"1940","sqft":"1464.0"},{"id":0,"description":"OPEN FRAME PORCH","yearBuild":"1940","sqft":"204.0"}]},{"id":2,"improvement":"MISC IMP","livingArea":" sqft","value":"$220","details":[{"id":2,"description":"SHED METAL UTILITY","yearBuild":"2002","sqft":"80.0"}]}],"lands":[{"landType":"RESIDENTIAL","acres":"0.2089","sqft":"9100.00","marketValue":"$8,150","prodValue":"$0"}],"coordinates":{"id":"43506","lat":"31.341584","lng":"-94.733609"},"thumbnail":"43506","error":false,"urlOwnerDetails":"https://propaccess.trueautomation.com/clientdb/Property.aspx?cid=71&prop_id=43506","urlLandMap":"https://propaccess.trueautomation.com/mapSearch/?cid=71&p=43506","territoryNumber":"21","phoneNumbers":[{"_id":"5915fcb464fe791e48488a75a43db709","name":"Hall, R E","contacts":[{"phoneNumber":"936-634-4832","address":"410 Mantooth Ave Lufkin\n"}]}]},{"_id":"43502","landId":"43502","ownerId":"136452","allTrue":false,"exemptions":[{"name":"EMPTY","description":"No Tax Exemption Listed."}],"nameDeedSame":true,"addressSame":false,"name":"HAY KYLE D","deed":"HAY KYLE D","physicalAddress":"607 W GROVE AVE","physicalCity":"LUFKIN","physicalState":"TX","physicalZip":"75904","mailingAddress":"122 S 2ND ST","mailingCity":"LUFKIN","mailingState":"TX","mailingZip":"75901","ownership":"100.0000000000%","showOwnerProperty":false,"ownerProperty":[{"propertyId":"43502","propertyAddress":"607 W GROVE AVE LUFKIN, TX 75904-3006","name":"HAY KYLE D","price":"$86,020","territory":"21","inTerritory":true}],"improvements":[{"id":0,"improvement":"RESIDENTIAL","livingArea":"1064.0 sqft","value":"$73,870","details":[{"id":0,"description":"MAIN AREA","yearBuild":"2010","sqft":"1064.0"},{"id":0,"description":"OPEN FRAME PORCH","yearBuild":"2010","sqft":"80.0"}]},{"id":2,"improvement":"MISC IMP","livingArea":" sqft","value":"$1,090","details":[{"id":2,"description":"SHED FR UTILITY","yearBuild":"2010","sqft":"240.0"}]}],"lands":[{"landType":"RESIDENTIAL","acres":"0.3214","sqft":"14000.00","marketValue":"$11,060","prodValue":"$0"}],"coordinates":{"id":"43502","lat":"31.342033","lng":"-94.733720"},"thumbnail":"43502","error":false,"urlOwnerDetails":"https://propaccess.trueautomation.com/clientdb/Property.aspx?cid=71&prop_id=43502","urlLandMap":"https://propaccess.trueautomation.com/mapSearch/?cid=71&p=43502","territoryNumber":"21","phoneNumbers":[{"_id":"","name":"","contacts":[{"phoneNumber":"","address":""}]}]},{"_id":"43484","landId":"43484","ownerId":"26552","allTrue":false,"exemptions":[{"name":"EMPTY","description":"No Tax Exemption Listed."}],"nameDeedSame":true,"addressSame":false,"name":"HEADRICK MAURINE","deed":"HEADRICK MAURINE","physicalAddress":"610 W GROVE","physicalCity":"LUFKIN","physicalState":"TX","physicalZip":"75904","mailingAddress":"419 N RAGUET ST","mailingCity":"LUFKIN","mailingState":"TX","mailingZip":"75904","ownership":"100.0000000000%","showOwnerProperty":false,"ownerProperty":[{"propertyId":"43484","propertyAddress":"610 W GROVE LUFKIN, TX 75904-3033","name":"HEADRICK MAURINE","price":"$86,910","territory":"21","inTerritory":true}],"improvements":[{"id":0,"improvement":"RESIDENTIAL","livingArea":"1610.0 sqft","value":"$75,850","details":[{"id":0,"description":"MAIN AREA","yearBuild":"1910","sqft":"1610.0"},{"id":0,"description":"CARPORT","yearBuild":"1910","sqft":"264.0"},{"id":0,"description":"OPEN FRAME PORCH","yearBuild":"1910","sqft":"162.0"},{"id":0,"description":"CANOPY","yearBuild":"1910","sqft":"240.0"},{"id":0,"description":"WOOD DECK","yearBuild":"2000","sqft":"128.0"}]}],"lands":[{"landType":"RESIDENTIAL","acres":"0.3214","sqft":"14000.00","marketValue":"$11,060","prodValue":"$0"}],"coordinates":{"id":"43484","lat":"31.342442","lng":"-94.734236"},"thumbnail":"43484","error":false,"urlOwnerDetails":"https://propaccess.trueautomation.com/clientdb/Property.aspx?cid=71&prop_id=43484","urlLandMap":"https://propaccess.trueautomation.com/mapSearch/?cid=71&p=43484","territoryNumber":"21","phoneNumbers":[{"_id":"64400e2bd6e45da9dc9fc5f6aeed1389","name":"Headrick, Maurine","contacts":[{"phoneNumber":"936-632-2355","address":"419 N Raguet St Lufkin\n"}]}]},{"_id":"43446","landId":"43446","ownerId":"132761","allTrue":false,"exemptions":[{"name":"EMPTY","description":"No Tax Exemption Listed."}],"nameDeedSame":true,"addressSame":false,"name":"HICKS OPERATING CO LLC","deed":"HICKS OPERATING CO LLC","physicalAddress":"703 BONNER","physicalCity":"","physicalState":"","physicalZip":"","mailingAddress":"PO BOX 1403","mailingCity":"LUFKIN","mailingState":"TX","mailingZip":"75902","ownership":"100.0000000000%","showOwnerProperty":false,"ownerProperty":[{"propertyId":"43446","propertyAddress":"703 BONNER","name":"HICKS OPERATING CO LLC","price":"$100,730","territory":"21","inTerritory":true}],"improvements":[{"id":0,"improvement":"COMMERCIAL","livingArea":"4950.0 sqft","value":"$81,080","details":[{"id":0,"description":"MAIN AREA","yearBuild":"2002","sqft":"4950.0"}]}],"lands":[{"landType":"COMMERCIAL","acres":"0.3516","sqft":"15315.00","marketValue":"$7,660","prodValue":"$0"},{"landType":"COMMERCIAL","acres":"0.4962","sqft":"21616.00","marketValue":"$10,810","prodValue":"$0"},{"landType":"COMMERCIAL","acres":"0.0542","sqft":"2360.00","marketValue":"$1,180","prodValue":"$0"}],"coordinates":{"id":"43446","lat":"31.344666","lng":"-94.734600"},"thumbnail":"43446","error":false,"urlOwnerDetails":"https://propaccess.trueautomation.com/clientdb/Property.aspx?cid=71&prop_id=43446","urlLandMap":"https://propaccess.trueautomation.com/mapSearch/?cid=71&p=43446","territoryNumber":"21","phoneNumbers":[{"_id":"","name":"","contacts":[{"phoneNumber":"","address":""}]}]},{"_id":"43528","landId":"43528","ownerId":"141819","allTrue":false,"exemptions":[{"name":"EMPTY","description":"No Tax Exemption Listed."}],"nameDeedSame":true,"addressSame":false,"name":"JOANNROQUE LLC","deed":"JOANNROQUE LLC","physicalAddress":"307 HERNDON","physicalCity":"","physicalState":"TX","physicalZip":"","mailingAddress":"P O BOX 152408","mailingCity":"LUFKIN","mailingState":"TX","mailingZip":"75915","ownership":"100.0000000000%","showOwnerProperty":false,"ownerProperty":[{"propertyId":"43528","propertyAddress":"307 HERNDON TX","name":"JOANNROQUE LLC","price":"$36,680","territory":"21","inTerritory":true}],"improvements":[{"id":0,"improvement":"COMMERCIAL","livingArea":" sqft","value":"$21,170","details":[{"id":0,"description":"STORAGE WHSE LC","yearBuild":"1937","sqft":"1161.0"},{"id":0,"description":"STORAGE WHSE LC","yearBuild":"1937","sqft":"4240.0"}]}],"lands":[{"landType":"COMMERCIAL","acres":"0.1630","sqft":"7100.00","marketValue":"$6,390","prodValue":"$0"},{"landType":"COMMERCIAL","acres":"0.1550","sqft":"6750.00","marketValue":"$6,080","prodValue":"$0"},{"landType":"COMMERCIAL","acres":"0.0775","sqft":"3375.00","marketValue":"$3,040","prodValue":"$0"}],"coordinates":{"id":"43528","lat":"31.341151","lng":"-94.731795"},"thumbnail":"43528","error":false,"urlOwnerDetails":"https://propaccess.trueautomation.com/clientdb/Property.aspx?cid=71&prop_id=43528","urlLandMap":"https://propaccess.trueautomation.com/mapSearch/?cid=71&p=43528","territoryNumber":"21","phoneNumbers":[{"_id":"","name":"","contacts":[{"phoneNumber":"","address":""}]}]},{"_id":"43473","landId":"43473","ownerId":"160638","allTrue":false,"exemptions":[{"name":"EMPTY","description":"No Tax Exemption Listed."}],"nameDeedSame":true,"addressSame":false,"name":"JRF ASSET MANAGEMENT LLC","deed":"JRF ASSET MANAGEMENT LLC","physicalAddress":"508 BONNER  SPRING","physicalCity":"VALLEY","physicalState":"TX","physicalZip":"","mailingAddress":"PO BOX 1403","mailingCity":"LUFKIN","mailingState":"TX","mailingZip":"75902","ownership":"100.0000000000%","showOwnerProperty":false,"ownerProperty":[{"propertyId":"43473","propertyAddress":"508 BONNER SPRING VALLEY, TX","name":"JRF ASSET MANAGEMENT LLC","price":"$93,600","territory":"21","inTerritory":true}],"improvements":[{"id":0,"improvement":"COMMERCIAL","livingArea":"4000.0 sqft","value":"$86,600","details":[{"id":0,"description":"MAIN AREA","yearBuild":"2018","sqft":"4000.0"}]}],"lands":[{"landType":"COMMERCIAL","acres":"0.3214","sqft":"14000.00","marketValue":"$7,000","prodValue":"$0"}],"coordinates":{"id":"43473","lat":"31.343215","lng":"-94.733358"},"thumbnail":"43473","error":false,"urlOwnerDetails":"https://propaccess.trueautomation.com/clientdb/Property.aspx?cid=71&prop_id=43473","urlLandMap":"https://propaccess.trueautomation.com/mapSearch/?cid=71&p=43473","territoryNumber":"21","phoneNumbers":[{"_id":"","name":"","contacts":[{"phoneNumber":"","address":""}]}]},{"_id":"43536","landId":"43536","ownerId":"147549","allTrue":true,"exemptions":[{"name":"HS","description":"Homestead. (The person on the deed lives at this address.)"},{"name":"OTHER","description":"Exemption not listed."}],"nameDeedSame":true,"addressSame":true,"name":"KIRKLAND MARGIE W","deed":"KIRKLAND MARGIE W","physicalAddress":"411 MANTOOTH AVE","physicalCity":"LUFKIN","physicalState":"TX","physicalZip":"75904","mailingAddress":"411 MANTOOTH AVE","mailingCity":"LUFKIN","mailingState":"TX","mailingZip":"75904","ownership":"100.0000000000%","showOwnerProperty":false,"ownerProperty":[{"propertyId":"43536","propertyAddress":"411 MANTOOTH AVE LUFKIN, TX 75904-3042","name":"KIRKLAND MARGIE W","price":"$100,990","territory":"21","inTerritory":true}],"improvements":[{"id":0,"improvement":"RESIDENTIAL","livingArea":"2578.0 sqft","value":"$62,010","details":[{"id":0,"description":"MAIN AREA","yearBuild":"1913","sqft":"396.0"},{"id":0,"description":"MAIN AREA","yearBuild":"1913","sqft":"1732.0"},{"id":0,"description":"PORCH ENC FRAME","yearBuild":"1913","sqft":"170.0"},{"id":0,"description":"PORCH ENC FRAME","yearBuild":"1913","sqft":"36.0"},{"id":0,"description":"MAIN AREA","yearBuild":"1913","sqft":"54.0"},{"id":0,"description":"MAIN AREA","yearBuild":"1913","sqft":"396.0"}]},{"id":2,"improvement":"MISC IMP","livingArea":" sqft","value":"$630","details":[{"id":2,"description":"CARPORT","yearBuild":"1950","sqft":"400.0"}]},{"id":4,"improvement":"RESIDENTIAL","livingArea":"640.0 sqft","value":"$28,280","details":[{"id":4,"description":"MAIN AREA","yearBuild":"1913","sqft":"640.0"},{"id":4,"description":"CARPORT","yearBuild":"1913","sqft":"360.0"},{"id":4,"description":"FRAME UTILITY","yearBuild":"1913","sqft":"144.0"},{"id":4,"description":"FRAME UTILITY","yearBuild":"1913","sqft":"280.0"}]}],"lands":[{"landType":"RESIDENTIAL","acres":"0.3214","sqft":"14000.00","marketValue":"$9,160","prodValue":"$0"},{"landType":"RESIDENTIAL","acres":"0.0321","sqft":"1400.00","marketValue":"$910","prodValue":"$0"}],"coordinates":{"id":"43536","lat":"31.341117","lng":"-94.733331"},"thumbnail":"43536","error":false,"urlOwnerDetails":"https://propaccess.trueautomation.com/clientdb/Property.aspx?cid=71&prop_id=43536","urlLandMap":"https://propaccess.trueautomation.com/mapSearch/?cid=71&p=43536","territoryNumber":"21","phoneNumbers":[{"_id":"","name":"","contacts":[{"phoneNumber":"","address":""}]}]},{"_id":"43537","landId":"43537","ownerId":"16904","allTrue":true,"exemptions":[{"name":"OTHER","description":"Exemption not listed."},{"name":"HS","description":"Homestead. (The person on the deed lives at this address.)"}],"nameDeedSame":true,"addressSame":true,"name":"KURTH SARA ELLA ETAL","deed":"KURTH SARA ELLA ETAL","physicalAddress":"403 MANTOOTH AVE","physicalCity":"LUFKIN","physicalState":"TX","physicalZip":"75904","mailingAddress":"403 MANTOOTH AVE","mailingCity":"LUFKIN","mailingState":"TX","mailingZip":"75904","ownership":"100.0000000000%","showOwnerProperty":false,"ownerProperty":[{"propertyId":"43537","propertyAddress":"403 MANTOOTH AVE LUFKIN, TX 75904-3042","name":"KURTH SARA ELLA ETAL","price":"$258,640","territory":"21","inTerritory":true}],"improvements":[{"id":0,"improvement":"RESIDENTIAL","livingArea":"5202.0 sqft","value":"$183,460","details":[{"id":0,"description":"MAIN AREA","yearBuild":"1917","sqft":"1608.0"},{"id":0,"description":"OPEN FRAME PORCH","yearBuild":"1917","sqft":"252.0"},{"id":0,"description":"PATIO CONCRETE/MASONRY","yearBuild":"1917","sqft":"190.0"},{"id":0,"description":"ENCLOSED FR PORCH","yearBuild":"1917","sqft":"260.0"},{"id":0,"description":"MAIN AREA","yearBuild":"2000","sqft":"495.0"},{"id":0,"description":"MAIN AREA","yearBuild":"2000","sqft":"996.0"},{"id":0,"description":"FRAME GARAGE","yearBuild":"2000","sqft":"736.0"},{"id":0,"description":"MAIN AREA","yearBuild":"1917","sqft":"1608.0"},{"id":0,"description":"MAIN AREA","yearBuild":"2000","sqft":"495.0"}]},{"id":2,"improvement":"RESIDENTIAL","livingArea":"992.0 sqft","value":"$68,180","details":[{"id":2,"description":"MAIN AREA","yearBuild":"1980","sqft":"600.0"},{"id":2,"description":"FRAME GARAGE","yearBuild":"1960","sqft":"600.0"},{"id":2,"description":"MAIN AREA","yearBuild":"2006","sqft":"392.0"}]}],"lands":[{"landType":"RESIDENTIAL","acres":"0.3214","sqft":"14000.00","marketValue":"$7,000","prodValue":"$0"}],"coordinates":{"id":"43537","lat":"31.341206","lng":"-94.733020"},"thumbnail":"43537","error":false,"urlOwnerDetails":"https://propaccess.trueautomation.com/clientdb/Property.aspx?cid=71&prop_id=43537","urlLandMap":"https://propaccess.trueautomation.com/mapSearch/?cid=71&p=43537","territoryNumber":"21","phoneNumbers":[{"_id":"609078c3f9e24bcd44e69f18be776a5a","name":"Kurth, Robert L Dr","contacts":[{"phoneNumber":"936-634-7588","address":"403 Mantooth Ave Lufkin\n"}]}]},{"_id":"43458","landId":"43458","ownerId":"148621","allTrue":false,"exemptions":[{"name":"EMPTY","description":"No Tax Exemption Listed."}],"nameDeedSame":true,"addressSame":false,"name":"LIRA JOSE ANDRES","deed":"LIRA JOSE ANDRES","physicalAddress":"OAK ST","physicalCity":"","physicalState":"","physicalZip":"","mailingAddress":"609 OAK AVE","mailingCity":"LUFKIN","mailingState":"TX","mailingZip":"75904","ownership":"100.0000000000%","showOwnerProperty":false,"ownerProperty":[{"propertyId":"43458","propertyAddress":"OAK ST","name":"LIRA JOSE ANDRES","price":"$8,530","territory":"21","inTerritory":true}],"improvements":[],"lands":[{"landType":"RESIDENTIAL","acres":"0.1607","sqft":"7000.00","marketValue":"$8,530","prodValue":"$0"}],"coordinates":{"id":"43458","lat":"31.343861","lng":"-94.734583"},"thumbnail":"43458","error":false,"urlOwnerDetails":"https://propaccess.trueautomation.com/clientdb/Property.aspx?cid=71&prop_id=43458","urlLandMap":"https://propaccess.trueautomation.com/mapSearch/?cid=71&p=43458","territoryNumber":"21","phoneNumbers":[{"_id":"","name":"","contacts":[{"phoneNumber":"","address":""}]}]},{"_id":"70237","landId":"70237","ownerId":"148621","allTrue":true,"exemptions":[{"name":"HS","description":"Homestead. (The person on the deed lives at this address.)"}],"nameDeedSame":true,"addressSame":true,"name":"LIRA JOSE ANDRES","deed":"LIRA JOSE ANDRES","physicalAddress":"609 OAK AVE","physicalCity":"LUFKIN","physicalState":"TX","physicalZip":"75904","mailingAddress":"609 OAK AVE","mailingCity":"LUFKIN","mailingState":"TX","mailingZip":"75904","ownership":"100.0000000000%","showOwnerProperty":false,"ownerProperty":[{"propertyId":"70237","propertyAddress":"609 OAK AVE LUFKIN, TX 75904-2826","name":"LIRA JOSE ANDRES","price":"$96,990","territory":"21","inTerritory":true}],"improvements":[{"id":0,"improvement":"RESIDENTIAL","livingArea":"1242.0 sqft","value":"$88,190","details":[{"id":0,"description":"MAIN AREA","yearBuild":"1996","sqft":"1242.0"},{"id":0,"description":"OPEN BRICK PORCH","yearBuild":"1996","sqft":"128.0"},{"id":0,"description":"GARAGE BRICK/MAS","yearBuild":"1996","sqft":"294.0"}]}],"lands":[{"landType":"RESIDENTIAL","acres":"0.1722","sqft":"7500.00","marketValue":"$8,800","prodValue":"$0"}],"coordinates":{"id":"70237","lat":"31.343870","lng":"-94.734846"},"thumbnail":"70237","error":false,"urlOwnerDetails":"https://propaccess.trueautomation.com/clientdb/Property.aspx?cid=71&prop_id=70237","urlLandMap":"https://propaccess.trueautomation.com/mapSearch/?cid=71&p=70237","territoryNumber":"21","phoneNumbers":[{"_id":"","name":"","contacts":[{"phoneNumber":"","address":""}]}]},{"_id":"43534","landId":"43534","ownerId":"124846","allTrue":false,"exemptions":[{"name":"EMPTY","description":"No Tax Exemption Listed."}],"nameDeedSame":true,"addressSame":false,"name":"LOPEZ ANTONIO ETUX JENNIFER","deed":"LOPEZ ANTONIO ETUX JENNIFER","physicalAddress":"415 MANTOOTH AVE","physicalCity":"LUFKIN","physicalState":"TX","physicalZip":"75901","mailingAddress":"203 TWIN CREEK ST","mailingCity":"LUFKIN","mailingState":"TX","mailingZip":"75904","ownership":"100.0000000000%","showOwnerProperty":false,"ownerProperty":[{"propertyId":"43534","propertyAddress":"415 MANTOOTH AVE LUFKIN, TX 75901-3042","name":"LOPEZ ANTONIO ETUX JENNIFER","price":"$118,290","territory":"21","inTerritory":true}],"improvements":[{"id":0,"improvement":"RESIDENTIAL","livingArea":"1716.0 sqft","value":"$109,240","details":[{"id":0,"description":"MAIN AREA","yearBuild":"1960","sqft":"1716.0"},{"id":0,"description":"CARPORT","yearBuild":"1960","sqft":"460.0"},{"id":0,"description":"OPEN FRAME PORCH","yearBuild":"1960","sqft":"84.0"}]}],"lands":[{"landType":"RESIDENTIAL","acres":"0.2890","sqft":"12588.84","marketValue":"$9,050","prodValue":"$0"}],"coordinates":{"id":"43534","lat":"31.341005","lng":"-94.733629"},"thumbnail":"43534","error":false,"urlOwnerDetails":"https://propaccess.trueautomation.com/clientdb/Property.aspx?cid=71&prop_id=43534","urlLandMap":"https://propaccess.trueautomation.com/mapSearch/?cid=71&p=43534","territoryNumber":"21","phoneNumbers":[{"_id":"","name":"","contacts":[{"phoneNumber":"","address":""}]}]},{"_id":"43516","landId":"43516","ownerId":"164466","allTrue":false,"exemptions":[{"name":"EMPTY","description":"No Tax Exemption Listed."}],"nameDeedSame":true,"addressSame":false,"name":"LOPEZ CEASAR & CARLA","deed":"LOPEZ CEASAR & CARLA","physicalAddress":"312 MANTOOTH","physicalCity":"LUFKIN","physicalState":"TX","physicalZip":"75904","mailingAddress":"1228 EDGEWOOD CIRCLE","mailingCity":"LUFKIN","mailingState":"TX","mailingZip":"75904","ownership":"100.0000000000%","showOwnerProperty":false,"ownerProperty":[{"propertyId":"43516","propertyAddress":"312 MANTOOTH LUFKIN, TX 75904-3039","name":"LOPEZ CEASAR & CARLA","price":"$18,650","territory":"21","inTerritory":true}],"improvements":[{"id":0,"improvement":"RESIDENTIAL","livingArea":"1822.0 sqft","value":"$11,240","details":[{"id":0,"description":"MAIN AREA","yearBuild":"1941","sqft":"616.0"},{"id":0,"description":"MAIN AREA","yearBuild":"1941","sqft":"270.0"},{"id":0,"description":"MAIN AREA","yearBuild":"1941","sqft":"320.0"},{"id":0,"description":"OPEN FRAME PORCH","yearBuild":"1941","sqft":"144.0"},{"id":0,"description":"OPEN FRAME PORCH","yearBuild":"1941","sqft":"16.0"},{"id":0,"description":"MAIN AREA","yearBuild":"1941","sqft":"616.0"}]}],"lands":[{"landType":"RESIDENTIAL","acres":"0.1607","sqft":"7000.00","marketValue":"$7,410","prodValue":"$0"}],"coordinates":{"id":"43516","lat":"31.341983","lng":"-94.732392"},"thumbnail":"43516","error":false,"urlOwnerDetails":"https://propaccess.trueautomation.com/clientdb/Property.aspx?cid=71&prop_id=43516","urlLandMap":"https://propaccess.trueautomation.com/mapSearch/?cid=71&p=43516","territoryNumber":"21","phoneNumbers":[{"_id":"","name":"","contacts":[{"phoneNumber":"","address":""}]}]},{"_id":"43449","landId":"43449","ownerId":"143959","allTrue":false,"exemptions":[{"name":"EMPTY","description":"No Tax Exemption Listed."}],"nameDeedSame":true,"addressSame":false,"name":"M B SAI INC","deed":"M B SAI INC","physicalAddress":"708 RAGUET","physicalCity":"","physicalState":"TX","physicalZip":"","mailingAddress":"221 EAGLE CREEK DR","mailingCity":"LUFKIN","mailingState":"TX","mailingZip":"75901","ownership":"100.0000000000%","showOwnerProperty":false,"ownerProperty":[{"propertyId":"43449","propertyAddress":"708 RAGUET TX","name":"M B SAI INC","price":"$131,500","territory":"21","inTerritory":true}],"improvements":[{"id":0,"improvement":"COMMERCIAL","livingArea":" sqft","value":"$81,580","details":[{"id":0,"description":"CONVENIENCE STORE AV","yearBuild":"1992","sqft":"3000.0"},{"id":0,"description":"CANOPY","yearBuild":"1992","sqft":"300.0"}]},{"id":2,"improvement":"COMMERCIAL","livingArea":" sqft","value":"$20,480","details":[{"id":2,"description":"PAVING CONCRETE","yearBuild":"1992","sqft":"6500.0"}]},{"id":4,"improvement":"COMMERCIAL","livingArea":" sqft","value":"$4,750","details":[{"id":4,"description":"CANOPY","yearBuild":"1992","sqft":"720.0"}]}],"lands":[{"landType":"COMMERCIAL","acres":"0.4178","sqft":"18200.00","marketValue":"$16,380","prodValue":"$0"},{"landType":"COMMERCIAL","acres":"0.0620","sqft":"2700.00","marketValue":"$2,430","prodValue":"$0"},{"landType":"COMMERCIAL","acres":"0.2455","sqft":"10693.00","marketValue":"$5,880","prodValue":"$0"}],"coordinates":{"id":"43449","lat":"31.344432","lng":"-94.735965"},"thumbnail":"43449","error":false,"urlOwnerDetails":"https://propaccess.trueautomation.com/clientdb/Property.aspx?cid=71&prop_id=43449","urlLandMap":"https://propaccess.trueautomation.com/mapSearch/?cid=71&p=43449","territoryNumber":"21","phoneNumbers":[{"_id":"","name":"","contacts":[{"phoneNumber":"","address":""}]}]},{"_id":"43500","landId":"43500","ownerId":"152520","allTrue":false,"exemptions":[{"name":"DP","description":"Disability."},{"name":"HS","description":"Homestead. (The person on the deed lives at this address.)"}],"nameDeedSame":true,"addressSame":false,"name":"MARK LOLA MARIE","deed":"MARK LOLA MARIE","physicalAddress":"518 MANTOOTH","physicalCity":"","physicalState":"","physicalZip":"","mailingAddress":"518 MANTOOTH AVE","mailingCity":"LUFKIN","mailingState":"TX","mailingZip":"75904","ownership":"100.0000000000%","showOwnerProperty":false,"ownerProperty":[{"propertyId":"43500","propertyAddress":"518 MANTOOTH","name":"MARK LOLA MARIE","price":"$109,540","territory":"21","inTerritory":true}],"improvements":[{"id":0,"improvement":"RESIDENTIAL","livingArea":"1640.0 sqft","value":"$97,890","details":[{"id":0,"description":"MAIN AREA","yearBuild":"1959","sqft":"1640.0"},{"id":0,"description":"GARAGE BRICK/MAS","yearBuild":"1959","sqft":"462.0"},{"id":0,"description":"MASONRY UTILITY","yearBuild":"1959","sqft":"84.0"},{"id":0,"description":"OPEN BRICK PORCH","yearBuild":"1959","sqft":"186.0"},{"id":0,"description":"PATIO CONCRETE/MASONRY","yearBuild":"1959","sqft":"60.0"},{"id":0,"description":"FRAME UTILITY","yearBuild":"2017","sqft":"112.0"}]}],"lands":[{"landType":"RESIDENTIAL","acres":"0.3181","sqft":"13858.00","marketValue":"$6,480","prodValue":"$0"},{"landType":"RESIDENTIAL","acres":"0.2539","sqft":"11058.00","marketValue":"$5,170","prodValue":"$0"}],"coordinates":{"id":"43500","lat":"31.341230","lng":"-94.734757"},"thumbnail":"43500","error":false,"urlOwnerDetails":"https://propaccess.trueautomation.com/clientdb/Property.aspx?cid=71&prop_id=43500","urlLandMap":"https://propaccess.trueautomation.com/mapSearch/?cid=71&p=43500","territoryNumber":"21","phoneNumbers":[{"_id":"2c1d83d9c35a4c15ca0a92bca56caa94","name":"Mark, Lola Marie","contacts":[{"phoneNumber":"936-632-1907","address":"518 Mantooth Ave Lufkin\n"}]}]},{"_id":"43517","landId":"43517","ownerId":"171911","allTrue":false,"exemptions":[{"name":"OTHER","description":"Exemption not listed."},{"name":"HS","description":"Homestead. (The person on the deed lives at this address.)"}],"nameDeedSame":false,"addressSame":false,"name":"MIRELES ANGEL EST","deed":"MIRELES ANGEL","physicalAddress":"316 MANTOOTH","physicalCity":"LUFKIN","physicalState":"TX","physicalZip":"75904","mailingAddress":"316 MANTOOTH AVE","mailingCity":"LUFKIN","mailingState":"TX","mailingZip":"75904","ownership":"100.0000000000%","showOwnerProperty":false,"ownerProperty":[{"propertyId":"43517","propertyAddress":"316 MANTOOTH LUFKIN, TX 75904-3039","name":"MIRELES ANGEL EST","price":"$50,510","territory":"21","inTerritory":true}],"improvements":[{"id":0,"improvement":"RESIDENTIAL","livingArea":"1260.0 sqft","value":"$43,100","details":[{"id":0,"description":"MAIN AREA","yearBuild":"1940","sqft":"1260.0"},{"id":0,"description":"OPEN FRAME PORCH","yearBuild":"1940","sqft":"168.0"},{"id":0,"description":"FRAME UTILITY","yearBuild":"1940","sqft":"56.0"}]}],"lands":[{"landType":"RESIDENTIAL","acres":"0.1607","sqft":"7000.00","marketValue":"$7,410","prodValue":"$0"}],"coordinates":{"id":"43517","lat":"31.341934","lng":"-94.732540"},"thumbnail":"43517","error":false,"urlOwnerDetails":"https://propaccess.trueautomation.com/clientdb/Property.aspx?cid=71&prop_id=43517","urlLandMap":"https://propaccess.trueautomation.com/mapSearch/?cid=71&p=43517","territoryNumber":"21","phoneNumbers":[{"_id":"","name":"","contacts":[{"phoneNumber":"","address":""}]}]},{"_id":"43447","landId":"43447","ownerId":"100844","allTrue":false,"exemptions":[{"name":"EMPTY","description":"No Tax Exemption Listed."}],"nameDeedSame":true,"addressSame":false,"name":"MONTALVO ROLANDO ETUX ELVIRA","deed":"MONTALVO ROLANDO ETUX ELVIRA","physicalAddress":"702 DOUGLAS","physicalCity":"","physicalState":"TX","physicalZip":"","mailingAddress":"815 SCARBROUGH ST","mailingCity":"LUFKIN","mailingState":"TX","mailingZip":"75904","ownership":"100.0000000000%","showOwnerProperty":false,"ownerProperty":[{"propertyId":"43447","propertyAddress":"702 DOUGLAS TX","name":"MONTALVO ROLANDO ETUX ELVIRA","price":"$40,950","territory":"21","inTerritory":true}],"improvements":[{"id":0,"improvement":"RESIDENTIAL","livingArea":"818.0 sqft","value":"$34,800","details":[{"id":0,"description":"MAIN AREA","yearBuild":"1949","sqft":"818.0"},{"id":0,"description":"OPEN FRAME PORCH","yearBuild":"1949","sqft":"16.0"}]},{"id":2,"improvement":"MISC IMP","livingArea":" sqft","value":"$900","details":[{"id":2,"description":"GARAGE FR DETACHED","yearBuild":"1949","sqft":"264.0"}]}],"lands":[{"landType":"RESIDENTIAL","acres":"0.2410","sqft":"10500.00","marketValue":"$5,250","prodValue":"$0"}],"coordinates":{"id":"43447","lat":"31.344238","lng":"-94.734926"},"thumbnail":"43447","error":false,"urlOwnerDetails":"https://propaccess.trueautomation.com/clientdb/Property.aspx?cid=71&prop_id=43447","urlLandMap":"https://propaccess.trueautomation.com/mapSearch/?cid=71&p=43447","territoryNumber":"21","phoneNumbers":[{"_id":"d12402c88e5117156c516329308265bc","name":"Montalvo, Rolando","contacts":[{"phoneNumber":"936-637-1609","address":"815 Scarbrough Lufkin\n"}]}]},{"_id":"43477","landId":"43477","ownerId":"14290","allTrue":false,"exemptions":[{"name":"EMPTY","description":"No Tax Exemption Listed."}],"nameDeedSame":true,"addressSame":false,"name":"MORGAN OIL CO","deed":"MORGAN OIL CO","physicalAddress":"500 GROVE","physicalCity":"","physicalState":"","physicalZip":"","mailingAddress":"PO BOX 63005","mailingCity":"NACOGDOCHES","mailingState":"TX","mailingZip":"75963","ownership":"100.0000000000%","showOwnerProperty":false,"ownerProperty":[{"propertyId":"43477","propertyAddress":"500 GROVE","name":"MORGAN OIL CO","price":"$7,000","territory":"21","inTerritory":true}],"improvements":[],"lands":[{"landType":"COMMERCIAL","acres":"0.3214","sqft":"14000.00","marketValue":"$7,000","prodValue":"$0"}],"coordinates":{"id":"43477","lat":"31.342884","lng":"-94.732877"},"thumbnail":"43477","error":false,"urlOwnerDetails":"https://propaccess.trueautomation.com/clientdb/Property.aspx?cid=71&prop_id=43477","urlLandMap":"https://propaccess.trueautomation.com/mapSearch/?cid=71&p=43477","territoryNumber":"21","phoneNumbers":[{"_id":"9637d1350013137480e6b192f51ad073","name":"Morgan Oil Co","contacts":[{"phoneNumber":"936-564-4801","address":"4921 NW Stallings Dr Lufkin\n"}]}]},{"_id":"43476","landId":"43476","ownerId":"14290","allTrue":false,"exemptions":[{"name":"EMPTY","description":"No Tax Exemption Listed."}],"nameDeedSame":true,"addressSame":false,"name":"MORGAN OIL CO","deed":"MORGAN OIL CO","physicalAddress":"500 GROVE","physicalCity":"","physicalState":"","physicalZip":"","mailingAddress":"PO BOX 63005","mailingCity":"NACOGDOCHES","mailingState":"TX","mailingZip":"75963","ownership":"100.0000000000%","showOwnerProperty":false,"ownerProperty":[{"propertyId":"43476","propertyAddress":"500 GROVE","name":"MORGAN OIL CO","price":"$7,000","territory":"21","inTerritory":true}],"improvements":[],"lands":[{"landType":"COMMERCIAL","acres":"0.3214","sqft":"14000.00","marketValue":"$7,000","prodValue":"$0"}],"coordinates":{"id":"43476","lat":"31.342980","lng":"-94.732585"},"thumbnail":"43476","error":false,"urlOwnerDetails":"https://propaccess.trueautomation.com/clientdb/Property.aspx?cid=71&prop_id=43476","urlLandMap":"https://propaccess.trueautomation.com/mapSearch/?cid=71&p=43476","territoryNumber":"21","phoneNumbers":[{"_id":"9637d1350013137480e6b192f51ad073","name":"Morgan Oil Co","contacts":[{"phoneNumber":"936-564-4801","address":"4921 NW Stallings Dr Lufkin\n"}]}]},{"_id":"43507","landId":"43507","ownerId":"1602","allTrue":false,"exemptions":[{"name":"EMPTY","description":"No Tax Exemption Listed."}],"nameDeedSame":true,"addressSame":false,"name":"MOSS LERA H","deed":"MOSS LERA H","physicalAddress":"420 MANTOOTH","physicalCity":"","physicalState":"TX","physicalZip":"","mailingAddress":"941 THIGPEN RD","mailingCity":"POLLOK","mailingState":"TX","mailingZip":"75969","ownership":"100.0000000000%","showOwnerProperty":false,"ownerProperty":[{"propertyId":"43507","propertyAddress":"420 MANTOOTH TX","name":"MOSS LERA H","price":"$62,270","territory":"21","inTerritory":true}],"improvements":[{"id":0,"improvement":"RESIDENTIAL","livingArea":"1739.0 sqft","value":"$49,890","details":[{"id":0,"description":"MAIN AREA","yearBuild":"1934","sqft":"1739.0"},{"id":0,"description":"OPEN BRICK PORCH","yearBuild":"1934","sqft":"221.0"}]},{"id":2,"improvement":"MISC IMP","livingArea":" sqft","value":"$2,770","details":[{"id":2,"description":"GARAGE FR DETACHED","yearBuild":"1984","sqft":"960.0"}]}],"lands":[{"landType":"RESIDENTIAL","acres":"0.3214","sqft":"14000.00","marketValue":"$9,610","prodValue":"$0"}],"coordinates":{"id":"43507","lat":"31.341511","lng":"-94.733833"},"thumbnail":"43507","error":false,"urlOwnerDetails":"https://propaccess.trueautomation.com/clientdb/Property.aspx?cid=71&prop_id=43507","urlLandMap":"https://propaccess.trueautomation.com/mapSearch/?cid=71&p=43507","territoryNumber":"21","phoneNumbers":[{"_id":"d5d00e6ddfd817bfdbc4054d67b94614","name":"Moss, Roger","contacts":[{"phoneNumber":"936-853-3316","address":"941 Thigpen Rd Lufkin\n"}]}]},{"_id":"43465","landId":"43465","ownerId":"154609","allTrue":true,"exemptions":[{"name":"HS","description":"Homestead. (The person on the deed lives at this address.)"},{"name":"OTHER","description":"Exemption not listed."}],"nameDeedSame":true,"addressSame":true,"name":"MURPHY NATHANIEL ETUX WILLIE F","deed":"MURPHY NATHANIEL ETUX WILLIE F","physicalAddress":"608 PERSIMMON AVE","physicalCity":"LUFKIN","physicalState":"TX","physicalZip":"75904","mailingAddress":"608 PERSIMMON AVE","mailingCity":"LUFKIN","mailingState":"TX","mailingZip":"75904","ownership":"100.0000000000%","showOwnerProperty":false,"ownerProperty":[{"propertyId":"43465","propertyAddress":"608 PERSIMMON AVE LUFKIN, TX 75904-2828","name":"MURPHY NATHANIEL ETUX WILLIE F","price":"$53,440","territory":"21","inTerritory":true}],"improvements":[{"id":0,"improvement":"RESIDENTIAL","livingArea":"1450.0 sqft","value":"$43,300","details":[{"id":0,"description":"MAIN AREA","yearBuild":"1935","sqft":"1450.0"},{"id":0,"description":"OPEN FRAME PORCH","yearBuild":"1935","sqft":"184.0"}]},{"id":2,"improvement":"MISC IMP","livingArea":" sqft","value":"$620","details":[{"id":2,"description":"GARAGE FR DETACHED","yearBuild":"1935","sqft":"360.0"}]}],"lands":[{"landType":"RESIDENTIAL","acres":"0.2410","sqft":"10500.00","marketValue":"$9,520","prodValue":"$0"}],"coordinates":{"id":"43465","lat":"31.343437","lng":"-94.734441"},"thumbnail":"43465","error":false,"urlOwnerDetails":"https://propaccess.trueautomation.com/clientdb/Property.aspx?cid=71&prop_id=43465","urlLandMap":"https://propaccess.trueautomation.com/mapSearch/?cid=71&p=43465","territoryNumber":"21","phoneNumbers":[{"_id":"1131d7a53336ed8a2a5f85d5b42ab1eb","name":"Murphy, Nathaniel","contacts":[{"phoneNumber":"936-632-5790","address":"608 Persimmon Ave Lufkin\n"}]}]},{"_id":"43501","landId":"43501","ownerId":"134586","allTrue":false,"exemptions":[{"name":"EMPTY","description":"No Tax Exemption Listed."}],"nameDeedSame":true,"addressSame":false,"name":"ONYX QUALITY HOMES LLC","deed":"ONYX QUALITY HOMES LLC","physicalAddress":"611 W GROVE","physicalCity":"","physicalState":"","physicalZip":"","mailingAddress":"PO BOX 151023","mailingCity":"LUFKIN","mailingState":"TX","mailingZip":"75915","ownership":"100.0000000000%","showOwnerProperty":false,"ownerProperty":[{"propertyId":"43501","propertyAddress":"611 W GROVE","name":"ONYX QUALITY HOMES LLC","price":"$74,470","territory":"21","inTerritory":true}],"improvements":[{"id":0,"improvement":"RESIDENTIAL","livingArea":"5486.0 sqft","value":"$63,410","details":[{"id":0,"description":"MAIN AREA","yearBuild":"1910","sqft":"2718.0"},{"id":0,"description":"PATIO CONCRETE/MASONRY","yearBuild":"1910","sqft":"380.0"},{"id":0,"description":"MAIN AREA","yearBuild":"1910","sqft":"1384.0"},{"id":0,"description":"MAIN AREA","yearBuild":"1910","sqft":"1384.0"}]}],"lands":[{"landType":"RESIDENTIAL","acres":"0.3214","sqft":"14000.00","marketValue":"$11,060","prodValue":"$0"}],"coordinates":{"id":"43501","lat":"31.341936","lng":"-94.734017"},"thumbnail":"43501","error":false,"urlOwnerDetails":"https://propaccess.trueautomation.com/clientdb/Property.aspx?cid=71&prop_id=43501","urlLandMap":"https://propaccess.trueautomation.com/mapSearch/?cid=71&p=43501","territoryNumber":"21","phoneNumbers":[{"_id":"","name":"","contacts":[{"phoneNumber":"","address":""}]}]},{"_id":"43453","landId":"43453","ownerId":"171430","allTrue":false,"exemptions":[{"name":"EMPTY","description":"No Tax Exemption Listed."}],"nameDeedSame":true,"addressSame":false,"name":"PARTNERS NNN INVESTORS LP SERIES B","deed":"PARTNERS NNN INVESTORS LP SERIES B","physicalAddress":"620 RAGUET","physicalCity":"","physicalState":"TX","physicalZip":"","mailingAddress":"7410 BLANCO RD SUITE 225 SAN","mailingCity":"ANTONIO","mailingState":"TX","mailingZip":"78216","ownership":"100.0000000000%","showOwnerProperty":false,"ownerProperty":[{"propertyId":"43453","propertyAddress":"620 RAGUET TX","name":"PARTNERS NNN INVESTORS LP SERIES B","price":"$1,520","territory":"21","inTerritory":true}],"improvements":[{"id":0,"improvement":"COMMERCIAL","livingArea":" sqft","value":"$53,740","details":[{"id":0,"description":"CONVENIENCE STORE AV","yearBuild":"1976","sqft":"2800.0"},{"id":0,"description":"CANOPY","yearBuild":"1976","sqft":"420.0"}]},{"id":2,"improvement":"COMMERCIAL","livingArea":" sqft","value":"$13,460","details":[{"id":2,"description":"PAVING CONCRETE","yearBuild":"1980","sqft":"14950.0"}]},{"id":4,"improvement":"COMMERCIAL","livingArea":" sqft","value":"$3,270","details":[{"id":4,"description":"CANOPY","yearBuild":"1976","sqft":"840.0"}]}],"lands":[{"landType":"COMMERCIAL","acres":"0.0611","sqft":"2659.97","marketValue":"$1,460","prodValue":"$0"},{"landType":"COMMERCIAL","acres":"0.0285","sqft":"1243.00","marketValue":"$60","prodValue":"$0"}],"coordinates":{"id":"43453","lat":"31.343560","lng":"-94.735563"},"thumbnail":"43453","error":false,"urlOwnerDetails":"https://propaccess.trueautomation.com/clientdb/Property.aspx?cid=71&prop_id=43453","urlLandMap":"https://propaccess.trueautomation.com/mapSearch/?cid=71&p=43453","territoryNumber":"21","phoneNumbers":[{"_id":"","name":"","contacts":[{"phoneNumber":"","address":""}]}]},{"_id":"43462","landId":"43462","ownerId":"29968","allTrue":false,"exemptions":[{"name":"EMPTY","description":"No Tax Exemption Listed."}],"nameDeedSame":true,"addressSame":false,"name":"PATEL KIRITKUMAR R","deed":"PATEL KIRITKUMAR R","physicalAddress":"602 PERSIMMON 604  603","physicalCity":"BONNER","physicalState":"TX","physicalZip":"","mailingAddress":"421 ATKINSON DR","mailingCity":"LUFKIN","mailingState":"TX","mailingZip":"75901","ownership":"100.0000000000%","showOwnerProperty":false,"ownerProperty":[],"improvements":[{"id":0,"improvement":"RESIDENTIAL","livingArea":"1358.0 sqft","value":"$33,910","details":[{"id":0,"description":"MAIN AREA","yearBuild":"1934","sqft":"1358.0"},{"id":0,"description":"OPEN FRAME PORCH","yearBuild":"1934","sqft":"106.0"},{"id":0,"description":"OPEN FRAME PORCH","yearBuild":"1934","sqft":"106.0"}]},{"id":2,"improvement":"RESIDENTIAL","livingArea":"720.0 sqft","value":"$19,610","details":[{"id":2,"description":"MAIN AREA","yearBuild":"1934","sqft":"720.0"},{"id":2,"description":"OPEN FRAME PORCH","yearBuild":"1934","sqft":"48.0"}]},{"id":4,"improvement":"MISC IMP","livingArea":" sqft","value":"$310","details":[{"id":4,"description":"SHED FR UTILITY","yearBuild":"2000","sqft":"112.0"}]}],"lands":[{"landType":"APARTMENT","acres":"0.2410","sqft":"10500.00","marketValue":"$9,520","prodValue":"$0"}],"coordinates":{"id":"43462","lat":"31.343584","lng":"-94.734000"},"thumbnail":"43462","error":false,"urlOwnerDetails":"https://propaccess.trueautomation.com/clientdb/Property.aspx?cid=71&prop_id=43462","urlLandMap":"https://propaccess.trueautomation.com/mapSearch/?cid=71&p=43462","territoryNumber":"21","phoneNumbers":[{"_id":"80c1304900feff07581e0534213b22f1","name":"Patel Properties","contacts":[{"phoneNumber":"936-634-2233","address":"421 Atkinson Dr Ste A Lufkin\n"}]}]},{"_id":"43459","landId":"43459","ownerId":"31376","allTrue":false,"exemptions":[{"name":"EMPTY","description":"No Tax Exemption Listed."}],"nameDeedSame":true,"addressSame":false,"name":"RAMIREZ MARIA L","deed":"RAMIREZ MARIA L","physicalAddress":"DOUGLAS","physicalCity":"","physicalState":"","physicalZip":"","mailingAddress":"504 N RAGUET ST","mailingCity":"LUFKIN","mailingState":"TX","mailingZip":"75904","ownership":"100.0000000000%","showOwnerProperty":false,"ownerProperty":[{"propertyId":"43459","propertyAddress":"DOUGLAS","name":"RAMIREZ MARIA L","price":"$8,210","territory":"21","inTerritory":true}],"improvements":[],"lands":[{"landType":"RESIDENTIAL","acres":"0.1492","sqft":"6500.00","marketValue":"$8,210","prodValue":"$0"}],"coordinates":{"id":"43459","lat":"31.343688","lng":"-94.734769"},"thumbnail":"43459","error":false,"urlOwnerDetails":"https://propaccess.trueautomation.com/clientdb/Property.aspx?cid=71&prop_id=43459","urlLandMap":"https://propaccess.trueautomation.com/mapSearch/?cid=71&p=43459","territoryNumber":"21","phoneNumbers":[{"_id":"","name":"","contacts":[{"phoneNumber":"","address":""}]}]},{"_id":"43490","landId":"43490","ownerId":"31376","allTrue":false,"exemptions":[{"name":"EMPTY","description":"No Tax Exemption Listed."}],"nameDeedSame":true,"addressSame":false,"name":"RAMIREZ MARIA L","deed":"RAMIREZ MARIA L","physicalAddress":"706 W GROVE","physicalCity":"LUFKIN","physicalState":"TX","physicalZip":"75904","mailingAddress":"504 N RAGUET ST","mailingCity":"LUFKIN","mailingState":"TX","mailingZip":"75904","ownership":"100.0000000000%","showOwnerProperty":false,"ownerProperty":[{"propertyId":"43490","propertyAddress":"706 W GROVE LUFKIN, TX 75904-3007","name":"RAMIREZ MARIA L","price":"$10,420","territory":"21","inTerritory":true}],"improvements":[],"lands":[{"landType":"RESIDENTIAL","acres":"0.2893","sqft":"12600.00","marketValue":"$10,420","prodValue":"$0"}],"coordinates":{"id":"43490","lat":"31.342208","lng":"-94.734978"},"thumbnail":"43490","error":false,"urlOwnerDetails":"https://propaccess.trueautomation.com/clientdb/Property.aspx?cid=71&prop_id=43490","urlLandMap":"https://propaccess.trueautomation.com/mapSearch/?cid=71&p=43490","territoryNumber":"21","phoneNumbers":[{"_id":"","name":"","contacts":[{"phoneNumber":"","address":""}]}]},{"_id":"43538","landId":"43538","ownerId":"30356","allTrue":false,"exemptions":[{"name":"EMPTY","description":"No Tax Exemption Listed."}],"nameDeedSame":true,"addressSame":false,"name":"RAMOS RUBEN","deed":"RAMOS RUBEN","physicalAddress":"400 W FRANK AVE","physicalCity":"","physicalState":"","physicalZip":"","mailingAddress":"1410 LARK ST","mailingCity":"LUFKIN","mailingState":"TX","mailingZip":"75904","ownership":"100.0000000000%","showOwnerProperty":false,"ownerProperty":[{"propertyId":"43538","propertyAddress":"400 W FRANK AVE","name":"RAMOS RUBEN","price":"$167,900","territory":"21","inTerritory":true}],"improvements":[{"id":0,"improvement":"COMMERCIAL","livingArea":" sqft","value":"$147,650","details":[{"id":0,"description":"FAST FOOD LOW COST","yearBuild":"2010","sqft":"1500.0"},{"id":0,"description":"OPEN FRAME PORCH","yearBuild":"2010","sqft":"240.0"},{"id":0,"description":"PAVING CONCRETE","yearBuild":"2010","sqft":"11800.0"}]}],"lands":[{"landType":"COMMERCIAL","acres":"0.3099","sqft":"13500.00","marketValue":"$20,250","prodValue":"$0"}],"coordinates":{"id":"43538","lat":"31.340794","lng":"-94.732844"},"thumbnail":"43538","error":false,"urlOwnerDetails":"https://propaccess.trueautomation.com/clientdb/Property.aspx?cid=71&prop_id=43538","urlLandMap":"https://propaccess.trueautomation.com/mapSearch/?cid=71&p=43538","territoryNumber":"21","phoneNumbers":[{"_id":"4c4f15abc5be58e85ff4607cb363d790","name":"Zeste Burger","contacts":[{"phoneNumber":"936-637-7007","address":"400 W Frank Ave Lufkin\n"}]}]},{"_id":"43531","landId":"43531","ownerId":"172312","allTrue":false,"exemptions":[{"name":"EMPTY","description":"No Tax Exemption Listed."}],"nameDeedSame":true,"addressSame":false,"name":"RAMOS RUBEN","deed":"RAMOS RUBEN","physicalAddress":"316 W FRANK AVE","physicalCity":"","physicalState":"TX","physicalZip":"","mailingAddress":"811 N RAGUET ST","mailingCity":"LUFKIN","mailingState":"TX","mailingZip":"75904","ownership":"100.0000000000%","showOwnerProperty":false,"ownerProperty":[{"propertyId":"43531","propertyAddress":"316 W FRANK AVE TX","name":"RAMOS RUBEN","price":"$21,280","territory":"21","inTerritory":true}],"improvements":[],"lands":[{"landType":"COMMERCIAL","acres":"0.1550","sqft":"6750.00","marketValue":"$6,080","prodValue":"$0"},{"landType":"COMMERCIAL","acres":"0.1550","sqft":"6750.00","marketValue":"$6,080","prodValue":"$0"},{"landType":"COMMERCIAL","acres":"0.1550","sqft":"6750.00","marketValue":"$6,080","prodValue":"$0"},{"landType":"COMMERCIAL","acres":"0.0775","sqft":"3375.00","marketValue":"$3,040","prodValue":"$0"}],"coordinates":{"id":"43531","lat":"31.341006","lng":"-94.732251"},"thumbnail":"43531","error":false,"urlOwnerDetails":"https://propaccess.trueautomation.com/clientdb/Property.aspx?cid=71&prop_id=43531","urlLandMap":"https://propaccess.trueautomation.com/mapSearch/?cid=71&p=43531","territoryNumber":"21","phoneNumbers":[{"_id":"","name":"","contacts":[{"phoneNumber":"","address":""}]}]},{"_id":"43488","landId":"43488","ownerId":"27632","allTrue":false,"exemptions":[{"name":"EMPTY","description":"No Tax Exemption Listed."}],"nameDeedSame":true,"addressSame":false,"name":"REAVIS STEVEN ETUX CHANDA","deed":"REAVIS STEVEN ETUX CHANDA","physicalAddress":"509 DOUGLAS","physicalCity":"LUFKIN","physicalState":"TX","physicalZip":"75904","mailingAddress":"PO BOX 1325","mailingCity":"LUFKIN","mailingState":"TX","mailingZip":"75902","ownership":"100.0000000000%","showOwnerProperty":false,"ownerProperty":[{"propertyId":"43488","propertyAddress":"509 DOUGLAS LUFKIN, TX 75904-2875","name":"REAVIS STEVEN ETUX CHANDA","price":"$32,030","territory":"21","inTerritory":true}],"improvements":[{"id":0,"improvement":"RESIDENTIAL","livingArea":"884.0 sqft","value":"$26,360","details":[{"id":0,"description":"MAIN AREA","yearBuild":"1959","sqft":"884.0"},{"id":0,"description":"FRAME UTILITY","yearBuild":"1959","sqft":"66.0"}]}],"lands":[{"landType":"RESIDENTIAL","acres":"0.0895","sqft":"3900.00","marketValue":"$5,670","prodValue":"$0"}],"coordinates":{"id":"43488","lat":"31.342636","lng":"-94.734782"},"thumbnail":"43488","error":false,"urlOwnerDetails":"https://propaccess.trueautomation.com/clientdb/Property.aspx?cid=71&prop_id=43488","urlLandMap":"https://propaccess.trueautomation.com/mapSearch/?cid=71&p=43488","territoryNumber":"21","phoneNumbers":[{"_id":"","name":"","contacts":[{"phoneNumber":"","address":""}]}]},{"_id":"43492","landId":"43492","ownerId":"135898","allTrue":false,"exemptions":[{"name":"EMPTY","description":"No Tax Exemption Listed."}],"nameDeedSame":true,"addressSame":false,"name":"RIVAS ALMA ROSA ETAL","deed":"RIVAS ALMA ROSA ETAL","physicalAddress":"504 N RAGUET ST","physicalCity":"LUFKIN","physicalState":"TX","physicalZip":"75904","mailingAddress":"1603 BILBAO DR","mailingCity":"LAREDO","mailingState":"TX","mailingZip":"78046","ownership":"100.0000000000%","showOwnerProperty":false,"ownerProperty":[{"propertyId":"43492","propertyAddress":"504 N RAGUET ST LUFKIN, TX 75904-2834","name":"RIVAS ALMA ROSA ETAL","price":"$60,860","territory":"21","inTerritory":true}],"improvements":[{"id":0,"improvement":"RESIDENTIAL","livingArea":"1222.0 sqft","value":"$49,320","details":[{"id":0,"description":"MAIN AREA","yearBuild":"1960","sqft":"932.0"},{"id":0,"description":"OPEN FRAME PORCH","yearBuild":"1960","sqft":"72.0"},{"id":0,"description":"MAIN AREA","yearBuild":"1960","sqft":"170.0"},{"id":0,"description":"FRAME UTILITY","yearBuild":"1960","sqft":"50.0"},{"id":0,"description":"MAIN AREA","yearBuild":"2010","sqft":"120.0"}]}],"lands":[{"landType":"RESIDENTIAL","acres":"0.3182","sqft":"13860.00","marketValue":"$10,480","prodValue":"$0"},{"landType":"RESIDENTIAL","acres":"0.0321","sqft":"1400.00","marketValue":"$1,060","prodValue":"$0"}],"coordinates":{"id":"43492","lat":"31.342116","lng":"-94.735263"},"thumbnail":"43492","error":false,"urlOwnerDetails":"https://propaccess.trueautomation.com/clientdb/Property.aspx?cid=71&prop_id=43492","urlLandMap":"https://propaccess.trueautomation.com/mapSearch/?cid=71&p=43492","territoryNumber":"21","phoneNumbers":[{"_id":"","name":"","contacts":[{"phoneNumber":"","address":""}]}]},{"_id":"43520","landId":"43520","ownerId":"24731","allTrue":false,"exemptions":[{"name":"HS","description":"Homestead. (The person on the deed lives at this address.)"}],"nameDeedSame":true,"addressSame":false,"name":"ROBERSON ANNA","deed":"ROBERSON ANNA","physicalAddress":"319 MANTOOTH","physicalCity":"LUFKIN","physicalState":"TX","physicalZip":"75904","mailingAddress":"319 MANTOOTH AVE","mailingCity":"LUFKIN","mailingState":"TX","mailingZip":"75904","ownership":"100.0000000000%","showOwnerProperty":false,"ownerProperty":[{"propertyId":"43520","propertyAddress":"319 MANTOOTH LUFKIN, TX 75904-3012","name":"ROBERSON ANNA","price":"$116,600","territory":"21","inTerritory":true}],"improvements":[{"id":0,"improvement":"RESIDENTIAL","livingArea":"2991.0 sqft","value":"$111,800","details":[{"id":0,"description":"MAIN AREA","yearBuild":"1945","sqft":"2139.0"},{"id":0,"description":"OPEN FRAME PORCH","yearBuild":"1945","sqft":"120.0"},{"id":0,"description":"MAIN AREA","yearBuild":"1945","sqft":"528.0"},{"id":0,"description":"MAIN AREA","yearBuild":"1994","sqft":"324.0"},{"id":0,"description":"OPEN FRAME PORCH","yearBuild":"1945","sqft":"25.0"},{"id":0,"description":"CANOPY","yearBuild":"1945","sqft":"400.0"}]}],"lands":[{"landType":"RESIDENTIAL","acres":"0.1607","sqft":"7000.00","marketValue":"$4,800","prodValue":"$0"}],"coordinates":{"id":"43520","lat":"31.341331","lng":"-94.732614"},"thumbnail":"43520","error":false,"urlOwnerDetails":"https://propaccess.trueautomation.com/clientdb/Property.aspx?cid=71&prop_id=43520","urlLandMap":"https://propaccess.trueautomation.com/mapSearch/?cid=71&p=43520","territoryNumber":"21","phoneNumbers":[{"_id":"","name":"","contacts":[{"phoneNumber":"","address":""}]}]},{"_id":"43521","landId":"43521","ownerId":"24731","allTrue":false,"exemptions":[{"name":"EMPTY","description":"No Tax Exemption Listed."}],"nameDeedSame":true,"addressSame":false,"name":"ROBERSON ANNA","deed":"ROBERSON ANNA","physicalAddress":"319 MANTOOTH","physicalCity":"LUFKIN","physicalState":"TX","physicalZip":"75904","mailingAddress":"319 MANTOOTH AVE","mailingCity":"LUFKIN","mailingState":"TX","mailingZip":"75904","ownership":"100.0000000000%","showOwnerProperty":false,"ownerProperty":[{"propertyId":"43521","propertyAddress":"319 MANTOOTH LUFKIN, TX 75904-3012","name":"ROBERSON ANNA","price":"$4,800","territory":"21","inTerritory":true}],"improvements":[],"lands":[{"landType":"RESIDENTIAL","acres":"0.1607","sqft":"7000.00","marketValue":"$4,800","prodValue":"$0"}],"coordinates":{"id":"43521","lat":"31.341381","lng":"-94.732463"},"thumbnail":"43521","error":false,"urlOwnerDetails":"https://propaccess.trueautomation.com/clientdb/Property.aspx?cid=71&prop_id=43521","urlLandMap":"https://propaccess.trueautomation.com/mapSearch/?cid=71&p=43521","territoryNumber":"21","phoneNumbers":[{"_id":"","name":"","contacts":[{"phoneNumber":"","address":""}]}]},{"_id":"43503","landId":"43503","ownerId":"74330","allTrue":false,"exemptions":[{"name":"HS","description":"Homestead. (The person on the deed lives at this address.)"}],"nameDeedSame":true,"addressSame":false,"name":"ROBINSON DOROTHEA","deed":"ROBINSON DOROTHEA","physicalAddress":"417 BONNER","physicalCity":"LUFKIN","physicalState":"TX","physicalZip":"75904","mailingAddress":"417 N BONNER ST","mailingCity":"LUFKIN","mailingState":"TX","mailingZip":"75904","ownership":"100.0000000000%","showOwnerProperty":false,"ownerProperty":[{"propertyId":"43503","propertyAddress":"417 BONNER LUFKIN, TX 75904-3024","name":"ROBINSON DOROTHEA","price":"$108,490","territory":"21","inTerritory":true}],"improvements":[{"id":0,"improvement":"RESIDENTIAL","livingArea":"1891.0 sqft","value":"$97,430","details":[{"id":0,"description":"MAIN AREA","yearBuild":"1967","sqft":"1891.0"},{"id":0,"description":"OPEN BRICK PORCH","yearBuild":"1967","sqft":"102.0"},{"id":0,"description":"MASONRY UTILITY","yearBuild":"1967","sqft":"117.0"},{"id":0,"description":"FRAME GARAGE","yearBuild":"1967","sqft":"825.0"}]}],"lands":[{"landType":"RESIDENTIAL","acres":"0.3214","sqft":"14000.00","marketValue":"$11,060","prodValue":"$0"}],"coordinates":{"id":"43503","lat":"31.342130","lng":"-94.733423"},"thumbnail":"43503","error":false,"urlOwnerDetails":"https://propaccess.trueautomation.com/clientdb/Property.aspx?cid=71&prop_id=43503","urlLandMap":"https://propaccess.trueautomation.com/mapSearch/?cid=71&p=43503","territoryNumber":"21","phoneNumbers":[{"_id":"","name":"","contacts":[{"phoneNumber":"","address":""}]}]},{"_id":"43464","landId":"43464","ownerId":"67955","allTrue":false,"exemptions":[{"name":"HS","description":"Homestead. (The person on the deed lives at this address.)"}],"nameDeedSame":true,"addressSame":false,"name":"RODRIQUEZ ERNESTO ETUX FRANCISCA","deed":"RODRIQUEZ ERNESTO ETUX FRANCISCA","physicalAddress":"610 PERSIMMON","physicalCity":"","physicalState":"","physicalZip":"","mailingAddress":"610 PERSIMMON AVE","mailingCity":"LUFKIN","mailingState":"TX","mailingZip":"75904","ownership":"100.0000000000%","showOwnerProperty":false,"ownerProperty":[{"propertyId":"43464","propertyAddress":"610 PERSIMMON","name":"RODRIQUEZ ERNESTO ETUX FRANCISCA","price":"$60,060","territory":"21","inTerritory":true}],"improvements":[{"id":0,"improvement":"RESIDENTIAL","livingArea":"1368.0 sqft","value":"$49,920","details":[{"id":0,"description":"MAIN AREA","yearBuild":"1935","sqft":"1008.0"},{"id":0,"description":"OPEN FRAME PORCH","yearBuild":"1935","sqft":"192.0"},{"id":0,"description":"MAIN AREA","yearBuild":"2007","sqft":"360.0"}]},{"id":2,"improvement":"MISC IMP","livingArea":" sqft","value":"$620","details":[{"id":2,"description":"SHED FR UTILITY","yearBuild":"1988","sqft":"128.0"},{"id":2,"description":"CANOPY","yearBuild":"1988","sqft":"324.0"}]}],"lands":[{"landType":"RESIDENTIAL","acres":"0.2410","sqft":"10500.00","marketValue":"$9,520","prodValue":"$0"}],"coordinates":{"id":"43464","lat":"31.343360","lng":"-94.734671"},"thumbnail":"43464","error":false,"urlOwnerDetails":"https://propaccess.trueautomation.com/clientdb/Property.aspx?cid=71&prop_id=43464","urlLandMap":"https://propaccess.trueautomation.com/mapSearch/?cid=71&p=43464","territoryNumber":"21","phoneNumbers":[{"_id":"","name":"","contacts":[{"phoneNumber":"","address":""}]}]},{"_id":"20371","landId":"20371","ownerId":"7903","allTrue":false,"exemptions":[{"name":"EMPTY","description":"No Tax Exemption Listed."}],"nameDeedSame":true,"addressSame":false,"name":"ROQUEMORE ABB L III ETUX JOANN","deed":"ROQUEMORE ABB L III ETUX JOANN","physicalAddress":"236 FRANK ST","physicalCity":"","physicalState":"","physicalZip":"","mailingAddress":"PO BOX 152408","mailingCity":"LUFKIN","mailingState":"TX","mailingZip":"75915","ownership":"100.0000000000%","showOwnerProperty":false,"ownerProperty":[{"propertyId":"20371","propertyAddress":"236 FRANK ST","name":"ROQUEMORE ABB L III ETUX JOANN","price":"$43,220","territory":"21","inTerritory":true}],"improvements":[{"id":0,"improvement":"COMMERCIAL","livingArea":" sqft","value":"$29,600","details":[{"id":0,"description":"STORAGE WHSE LC","yearBuild":"1967","sqft":"8280.0"}]},{"id":2,"improvement":"COMMERCIAL","livingArea":"1656.0 sqft","value":"$550","details":[{"id":2,"description":"MAIN AREA","yearBuild":"1967","sqft":"1656.0"}]}],"lands":[{"landType":"INDUSTRIAL","acres":"0.5950","sqft":"26136.00","marketValue":"$13,070","prodValue":"$0"}],"coordinates":{"id":"20371","lat":"31.341468","lng":"-94.731320"},"thumbnail":"20371","error":false,"urlOwnerDetails":"https://propaccess.trueautomation.com/clientdb/Property.aspx?cid=71&prop_id=20371","urlLandMap":"https://propaccess.trueautomation.com/mapSearch/?cid=71&p=20371","territoryNumber":"21","phoneNumbers":[{"_id":"","name":"","contacts":[{"phoneNumber":"","address":""}]}]},{"_id":"43480","landId":"43480","ownerId":"67971","allTrue":false,"exemptions":[{"name":"HS","description":"Homestead. (The person on the deed lives at this address.)"},{"name":"OTHER","description":"Exemption not listed."}],"nameDeedSame":false,"addressSame":true,"name":"SCOTT MRS JAMES (RUBY)","deed":"empty","physicalAddress":"605 PERSIMMON AVE","physicalCity":"LUFKIN","physicalState":"TX","physicalZip":"75904","mailingAddress":"605 PERSIMMON AVE","mailingCity":"LUFKIN","mailingState":"TX","mailingZip":"75904","ownership":"100.0000000000%","showOwnerProperty":false,"ownerProperty":[{"propertyId":"43480","propertyAddress":"605 PERSIMMON AVE LUFKIN, TX 75904-2856","name":"SCOTT MRS JAMES (RUBY)","price":"$71,720","territory":"21","inTerritory":true}],"improvements":[{"id":0,"improvement":"RESIDENTIAL","livingArea":"1556.0 sqft","value":"$60,660","details":[{"id":0,"description":"MAIN AREA","yearBuild":"1940","sqft":"1556.0"},{"id":0,"description":"FRAME GARAGE","yearBuild":"1940","sqft":"200.0"},{"id":0,"description":"CANOPY","yearBuild":"1940","sqft":"240.0"}]}],"lands":[{"landType":"RESIDENTIAL","acres":"0.3214","sqft":"14000.00","marketValue":"$11,060","prodValue":"$0"}],"coordinates":{"id":"43480","lat":"31.342965","lng":"-94.734123"},"thumbnail":"43480","error":false,"urlOwnerDetails":"https://propaccess.trueautomation.com/clientdb/Property.aspx?cid=71&prop_id=43480","urlLandMap":"https://propaccess.trueautomation.com/mapSearch/?cid=71&p=43480","territoryNumber":"21","phoneNumbers":[{"_id":"","name":"","contacts":[{"phoneNumber":"","address":""}]}]},{"_id":"43497","landId":"43497","ownerId":"29475","allTrue":false,"exemptions":[{"name":"HS","description":"Homestead. (The person on the deed lives at this address.)"},{"name":"OTHER","description":"Exemption not listed."}],"nameDeedSame":true,"addressSame":false,"name":"SIMMONS JAMES E SR","deed":"SIMMONS JAMES E SR","physicalAddress":"502 MANTOOTH","physicalCity":"LUFKIN","physicalState":"TX","physicalZip":"75904","mailingAddress":"502 MANTOOTH AVE","mailingCity":"LUFKIN","mailingState":"TX","mailingZip":"75904","ownership":"100.0000000000%","showOwnerProperty":false,"ownerProperty":[{"propertyId":"43497","propertyAddress":"502 MANTOOTH LUFKIN, TX 75904-3014","name":"SIMMONS JAMES E SR","price":"$93,500","territory":"21","inTerritory":true}],"improvements":[{"id":0,"improvement":"RESIDENTIAL","livingArea":"1714.0 sqft","value":"$83,050","details":[{"id":0,"description":"MAIN AREA","yearBuild":"1950","sqft":"1714.0"},{"id":0,"description":"CARPORT","yearBuild":"1950","sqft":"625.0"},{"id":0,"description":"OPEN FRAME PORCH","yearBuild":"1950","sqft":"54.0"}]}],"lands":[{"landType":"RESIDENTIAL","acres":"0.3214","sqft":"14000.00","marketValue":"$8,710","prodValue":"$0"},{"landType":"RESIDENTIAL","acres":"0.0643","sqft":"2800.00","marketValue":"$1,740","prodValue":"$0"}],"coordinates":{"id":"43497","lat":"31.341359","lng":"-94.734326"},"thumbnail":"43497","error":false,"urlOwnerDetails":"https://propaccess.trueautomation.com/clientdb/Property.aspx?cid=71&prop_id=43497","urlLandMap":"https://propaccess.trueautomation.com/mapSearch/?cid=71&p=43497","territoryNumber":"21","phoneNumbers":[{"_id":"","name":"","contacts":[{"phoneNumber":"","address":""}]}]},{"_id":"43510","landId":"43510","ownerId":"67931","allTrue":false,"exemptions":[{"name":"EMPTY","description":"No Tax Exemption Listed."}],"nameDeedSame":true,"addressSame":false,"name":"ST LOUIS-SOUTHWESTERN","deed":"ST LOUIS-SOUTHWESTERN","physicalAddress":"GROVE","physicalCity":"","physicalState":"","physicalZip":"","mailingAddress":"RR CO TAX DEPT 1400 DOUGLAS ST STOP 1640","mailingCity":"OMAHA","mailingState":"NE","mailingZip":"68179","ownership":"100.0000000000%","showOwnerProperty":false,"ownerProperty":[{"propertyId":"43510","propertyAddress":"GROVE","name":"ST LOUIS-SOUTHWESTERN","price":"$3,500","territory":"21","inTerritory":true}],"improvements":[],"lands":[{"landType":"COMMERCIAL","acres":"0.1607","sqft":"7000.00","marketValue":"$3,500","prodValue":"$0"}],"coordinates":{"id":"43510","lat":"31.342368","lng":"-94.732715"},"thumbnail":"43510","error":false,"urlOwnerDetails":"https://propaccess.trueautomation.com/clientdb/Property.aspx?cid=71&prop_id=43510","urlLandMap":"https://propaccess.trueautomation.com/mapSearch/?cid=71&p=43510","territoryNumber":"21","phoneNumbers":[{"_id":"d54184cee613009ab45de4332afe495f","name":"Trammell, Bennie","contacts":[{"phoneNumber":"936-642-2302","address":"Groveton Flat Prairie\n"}]}]},{"_id":"43511","landId":"43511","ownerId":"67931","allTrue":false,"exemptions":[{"name":"EMPTY","description":"No Tax Exemption Listed."}],"nameDeedSame":true,"addressSame":false,"name":"ST LOUIS-SOUTHWESTERN","deed":"ST LOUIS-SOUTHWESTERN","physicalAddress":"GROVE","physicalCity":"","physicalState":"","physicalZip":"","mailingAddress":"RR CO TAX DEPT 1400 DOUGLAS ST STOP 1640","mailingCity":"OMAHA","mailingState":"NE","mailingZip":"68179","ownership":"100.0000000000%","showOwnerProperty":false,"ownerProperty":[{"propertyId":"43511","propertyAddress":"GROVE","name":"ST LOUIS-SOUTHWESTERN","price":"$3,500","territory":"21","inTerritory":true}],"improvements":[],"lands":[{"landType":"COMMERCIAL","acres":"0.1607","sqft":"7000.00","marketValue":"$3,500","prodValue":"$0"}],"coordinates":{"id":"43511","lat":"31.342414","lng":"-94.732567"},"thumbnail":"43511","error":false,"urlOwnerDetails":"https://propaccess.trueautomation.com/clientdb/Property.aspx?cid=71&prop_id=43511","urlLandMap":"https://propaccess.trueautomation.com/mapSearch/?cid=71&p=43511","territoryNumber":"21","phoneNumbers":[{"_id":"d54184cee613009ab45de4332afe495f","name":"Trammell, Bennie","contacts":[{"phoneNumber":"936-642-2302","address":"Groveton Flat Prairie\n"}]}]},{"_id":"43512","landId":"43512","ownerId":"67931","allTrue":false,"exemptions":[{"name":"EMPTY","description":"No Tax Exemption Listed."}],"nameDeedSame":false,"addressSame":false,"name":"ST LOUIS-SOUTHWESTERN","deed":"empty","physicalAddress":"GROVE","physicalCity":"","physicalState":"","physicalZip":"","mailingAddress":"RR CO TAX DEPT 1400 DOUGLAS ST STOP 1640","mailingCity":"OMAHA","mailingState":"NE","mailingZip":"68179","ownership":"100.0000000000%","showOwnerProperty":false,"ownerProperty":[{"propertyId":"43512","propertyAddress":"GROVE","name":"ST LOUIS-SOUTHWESTERN","price":"$3,500","territory":"21","inTerritory":true}],"improvements":[],"lands":[{"landType":"COMMERCIAL","acres":"0.1607","sqft":"7000.00","marketValue":"$3,500","prodValue":"$0"}],"coordinates":{"id":"43512","lat":"31.342461","lng":"-94.732419"},"thumbnail":"43512","error":false,"urlOwnerDetails":"https://propaccess.trueautomation.com/clientdb/Property.aspx?cid=71&prop_id=43512","urlLandMap":"https://propaccess.trueautomation.com/mapSearch/?cid=71&p=43512","territoryNumber":"21","phoneNumbers":[{"_id":"d54184cee613009ab45de4332afe495f","name":"Trammell, Bennie","contacts":[{"phoneNumber":"936-642-2302","address":"Groveton Flat Prairie\n"}]}]},{"_id":"43513","landId":"43513","ownerId":"67931","allTrue":false,"exemptions":[{"name":"EMPTY","description":"No Tax Exemption Listed."}],"nameDeedSame":true,"addressSame":false,"name":"ST LOUIS-SOUTHWESTERN","deed":"ST LOUIS-SOUTHWESTERN","physicalAddress":"GROVE &amp; HERNDON","physicalCity":"","physicalState":"","physicalZip":"","mailingAddress":"RR CO TAX DEPT 1400 DOUGLAS ST STOP 1640","mailingCity":"OMAHA","mailingState":"NE","mailingZip":"68179","ownership":"100.0000000000%","showOwnerProperty":false,"ownerProperty":[{"propertyId":"43513","propertyAddress":"GROVE &amp; HERNDON","name":"ST LOUIS-SOUTHWESTERN","price":"$3,500","territory":"21","inTerritory":true}],"improvements":[],"lands":[{"landType":"COMMERCIAL","acres":"0.1607","sqft":"7000.00","marketValue":"$3,500","prodValue":"$0"}],"coordinates":{"id":"43513","lat":"31.342508","lng":"-94.732271"},"thumbnail":"43513","error":false,"urlOwnerDetails":"https://propaccess.trueautomation.com/clientdb/Property.aspx?cid=71&prop_id=43513","urlLandMap":"https://propaccess.trueautomation.com/mapSearch/?cid=71&p=43513","territoryNumber":"21","phoneNumbers":[{"_id":"","name":"","contacts":[{"phoneNumber":"","address":""}]}]},{"_id":"43474","landId":"43474","ownerId":"67931","allTrue":false,"exemptions":[{"name":"EMPTY","description":"No Tax Exemption Listed."}],"nameDeedSame":true,"addressSame":false,"name":"ST LOUIS-SOUTHWESTERN","deed":"ST LOUIS-SOUTHWESTERN","physicalAddress":"PERSIMMON","physicalCity":"","physicalState":"","physicalZip":"","mailingAddress":"RR CO TAX DEPT 1400 DOUGLAS ST STOP 1640","mailingCity":"OMAHA","mailingState":"NE","mailingZip":"68179","ownership":"100.0000000000%","showOwnerProperty":false,"ownerProperty":[{"propertyId":"43474","propertyAddress":"PERSIMMON","name":"ST LOUIS-SOUTHWESTERN","price":"$7,000","territory":"21","inTerritory":true}],"improvements":[],"lands":[{"landType":"COMMERCIAL","acres":"0.3214","sqft":"14000.00","marketValue":"$7,000","prodValue":"$0"}],"coordinates":{"id":"43474","lat":"31.343310","lng":"-94.733067"},"thumbnail":"43474","error":false,"urlOwnerDetails":"https://propaccess.trueautomation.com/clientdb/Property.aspx?cid=71&prop_id=43474","urlLandMap":"https://propaccess.trueautomation.com/mapSearch/?cid=71&p=43474","territoryNumber":"21","phoneNumbers":[{"_id":"","name":"","contacts":[{"phoneNumber":"","address":""}]}]},{"_id":"43475","landId":"43475","ownerId":"67931","allTrue":false,"exemptions":[{"name":"EMPTY","description":"No Tax Exemption Listed."}],"nameDeedSame":true,"addressSame":false,"name":"ST LOUIS-SOUTHWESTERN","deed":"ST LOUIS-SOUTHWESTERN","physicalAddress":"PERSIMMON","physicalCity":"","physicalState":"","physicalZip":"","mailingAddress":"RR CO TAX DEPT 1400 DOUGLAS ST STOP 1640","mailingCity":"OMAHA","mailingState":"NE","mailingZip":"68179","ownership":"100.0000000000%","showOwnerProperty":false,"ownerProperty":[{"propertyId":"43475","propertyAddress":"PERSIMMON","name":"ST LOUIS-SOUTHWESTERN","price":"$7,000","territory":"21","inTerritory":true}],"improvements":[],"lands":[{"landType":"COMMERCIAL","acres":"0.3214","sqft":"14000.00","marketValue":"$7,000","prodValue":"$0"}],"coordinates":{"id":"43475","lat":"31.343405","lng":"-94.732776"},"thumbnail":"43475","error":false,"urlOwnerDetails":"https://propaccess.trueautomation.com/clientdb/Property.aspx?cid=71&prop_id=43475","urlLandMap":"https://propaccess.trueautomation.com/mapSearch/?cid=71&p=43475","territoryNumber":"21","phoneNumbers":[{"_id":"","name":"","contacts":[{"phoneNumber":"","address":""}]}]},{"_id":"43514","landId":"43514","ownerId":"160024","allTrue":false,"exemptions":[{"name":"EMPTY","description":"No Tax Exemption Listed."}],"nameDeedSame":true,"addressSame":false,"name":"STANDPIPE VILLAGE LLC","deed":"STANDPIPE VILLAGE LLC","physicalAddress":"302 MANTOOTH","physicalCity":"","physicalState":"","physicalZip":"","mailingAddress":"123 S FIRST ST STE A","mailingCity":"LUFKIN","mailingState":"TX","mailingZip":"75901","ownership":"100.0000000000%","showOwnerProperty":false,"ownerProperty":[{"propertyId":"43514","propertyAddress":"302 MANTOOTH","name":"STANDPIPE VILLAGE LLC","price":"$96,790","territory":"21","inTerritory":true}],"improvements":[{"id":0,"improvement":"COMMERCIAL","livingArea":"8912.0 sqft","value":"$89,790","details":[{"id":0,"description":"MAIN AREA","yearBuild":"1947","sqft":"6560.0"},{"id":0,"description":"MAIN AREA","yearBuild":"1947","sqft":"2352.0"},{"id":0,"description":"CANOPY","yearBuild":"1947","sqft":"1262.0"},{"id":0,"description":"PAVING CONCRETE","yearBuild":"","sqft":"6000.0"}]}],"lands":[{"landType":"COMMERCIAL","acres":"0.1607","sqft":"7000.00","marketValue":"$3,500","prodValue":"$0"},{"landType":"COMMERCIAL","acres":"0.1607","sqft":"7000.00","marketValue":"$3,500","prodValue":"$0"}],"coordinates":{"id":"43514","lat":"31.342056","lng":"-94.732169"},"thumbnail":"43514","error":false,"urlOwnerDetails":"https://propaccess.trueautomation.com/clientdb/Property.aspx?cid=71&prop_id=43514","urlLandMap":"https://propaccess.trueautomation.com/mapSearch/?cid=71&p=43514","territoryNumber":"21","phoneNumbers":[{"_id":"14b7bf31477549a33b0e99725371c8ef","name":"Black Spot Tattoo","contacts":[{"phoneNumber":"936-632-2979","address":"302 Mantooth Ave Lufkin\n"}]}]},{"_id":"93078","landId":"93078","ownerId":"148724","allTrue":false,"exemptions":[{"name":"EX-XV","description":"Other Exemptions (including public property, religious organizations, charitable organizations, and other property not reported elsewhere)."}],"nameDeedSame":true,"addressSame":false,"name":"T L L TEMPLE FOUNDATION","deed":"T L L TEMPLE FOUNDATION","physicalAddress":"504 W FRANK  TWIN CITY BRACE","physicalCity":"CO","physicalState":"TX","physicalZip":"","mailingAddress":"204 CHAMPIONS DR","mailingCity":"LUFKIN","mailingState":"TX","mailingZip":"75901","ownership":"100.0000000000%","showOwnerProperty":false,"ownerProperty":[{"propertyId":"93078","propertyAddress":"504 W FRANK TWIN CITY BRACE CO,, TX","name":"T L L TEMPLE FOUNDATION","price":"$10,520","territory":"21","inTerritory":true}],"improvements":[{"id":0,"improvement":"COMMERCIAL","livingArea":"1899.0 sqft","value":"$184,540","details":[{"id":0,"description":"MAIN AREA","yearBuild":"2010","sqft":"1899.0"}]}],"lands":[{"landType":"COMMERCIAL","acres":"0.1610","sqft":"7013.00","marketValue":"$10,520","prodValue":"$0"}],"coordinates":{"id":"93078","lat":"31.340380","lng":"-94.733842"},"thumbnail":"93078","error":false,"urlOwnerDetails":"https://propaccess.trueautomation.com/clientdb/Property.aspx?cid=71&prop_id=93078","urlLandMap":"https://propaccess.trueautomation.com/mapSearch/?cid=71&p=93078","territoryNumber":"21","phoneNumbers":[{"_id":"d835e195c51dc69af8622d36b58da778","name":"TLL Temple Foundation","contacts":[{"phoneNumber":"936-634-3900","address":"204 Champions Dr Lufkin\n"}]}]},{"_id":"110420","landId":"110420","ownerId":"148724","allTrue":false,"exemptions":[{"name":"EX-XV","description":"Other Exemptions (including public property, religious organizations, charitable organizations, and other property not reported elsewhere)."}],"nameDeedSame":true,"addressSame":false,"name":"T L L TEMPLE FOUNDATION","deed":"T L L TEMPLE FOUNDATION","physicalAddress":"514 W FRANK","physicalCity":"","physicalState":"TX","physicalZip":"","mailingAddress":"204 CHAMPIONS DR","mailingCity":"LUFKIN","mailingState":"TX","mailingZip":"75901","ownership":"100.0000000000%","showOwnerProperty":false,"ownerProperty":[{"propertyId":"110420","propertyAddress":"514 W FRANK TX","name":"T L L TEMPLE FOUNDATION","price":"$408,590","territory":"21","inTerritory":true}],"improvements":[{"id":0,"improvement":"COMMERCIAL","livingArea":"4516.0 sqft","value":"$361,280","details":[{"id":0,"description":"MAIN AREA","yearBuild":"2014","sqft":"4516.0"}]}],"lands":[{"landType":"COMMERCIAL","acres":"0.7240","sqft":"31537.44","marketValue":"$47,310","prodValue":"$0"}],"coordinates":{"id":"110420","lat":"31.340384","lng":"-94.734205"},"thumbnail":"110420","error":false,"urlOwnerDetails":"https://propaccess.trueautomation.com/clientdb/Property.aspx?cid=71&prop_id=110420","urlLandMap":"https://propaccess.trueautomation.com/mapSearch/?cid=71&p=110420","territoryNumber":"21","phoneNumbers":[{"_id":"d835e195c51dc69af8622d36b58da778","name":"TLL Temple Foundation","contacts":[{"phoneNumber":"936-634-3900","address":"204 Champions Dr Lufkin\n"}]}]},{"_id":"126617","landId":"126617","ownerId":"148724","allTrue":false,"exemptions":[{"name":"EX-XV","description":"Other Exemptions (including public property, religious organizations, charitable organizations, and other property not reported elsewhere)."}],"nameDeedSame":true,"addressSame":false,"name":"T L L TEMPLE FOUNDATION","deed":"T L L TEMPLE FOUNDATION","physicalAddress":"empty","physicalCity":"","physicalState":"","physicalZip":"","mailingAddress":"204 CHAMPIONS DR","mailingCity":"LUFKIN","mailingState":"TX","mailingZip":"75901","ownership":"100.0000000000%","showOwnerProperty":false,"ownerProperty":[{"propertyId":"126617","propertyAddress":"empty","name":"T L L TEMPLE FOUNDATION","price":"$8,700","territory":"21","inTerritory":true}],"improvements":[],"lands":[{"landType":"RESIDENTIAL","acres":"0.1331","sqft":"5800.00","marketValue":"$8,700","prodValue":"$0"}],"coordinates":{"id":"126617","lat":"31.340558","lng":"-94.734255"},"thumbnail":"126617","error":false,"urlOwnerDetails":"https://propaccess.trueautomation.com/clientdb/Property.aspx?cid=71&prop_id=126617","urlLandMap":"https://propaccess.trueautomation.com/mapSearch/?cid=71&p=126617","territoryNumber":"21","phoneNumbers":[{"_id":"d835e195c51dc69af8622d36b58da778","name":"TLL Temple Foundation","contacts":[{"phoneNumber":"936-634-3900","address":"204 Champions Dr Lufkin\n"}]}]},{"_id":"43541","landId":"43541","ownerId":"74388","allTrue":false,"exemptions":[{"name":"EX-XV","description":"Other Exemptions (including public property, religious organizations, charitable organizations, and other property not reported elsewhere)."}],"nameDeedSame":true,"addressSame":false,"name":"T L L TEMPLE FOUNDATION","deed":"T L L TEMPLE FOUNDATION","physicalAddress":"304 RAGUET  GENETIC SCREENING &amp;","physicalCity":"COUNSELING","physicalState":"TX","physicalZip":"","mailingAddress":"109 TEMPLE BLVD","mailingCity":"LUFKIN","mailingState":"TX","mailingZip":"75901","ownership":"100.0000000000%","showOwnerProperty":false,"ownerProperty":[{"propertyId":"43541","propertyAddress":"304 RAGUET GENETIC SCREENING &amp; COUNSELING, TX","name":"T L L TEMPLE FOUNDATION","price":"$116,780","territory":"21","inTerritory":true}],"improvements":[{"id":0,"improvement":"COMMERCIAL","livingArea":"4000.0 sqft","value":"$110,200","details":[{"id":0,"description":"MAIN AREA","yearBuild":"1984","sqft":"4000.0"}]}],"lands":[{"landType":"EXEMPT","acres":"0.3021","sqft":"13160.00","marketValue":"$6,580","prodValue":"$0"}],"coordinates":{"id":"43541","lat":"31.340678","lng":"-94.734635"},"thumbnail":"43541","error":false,"urlOwnerDetails":"https://propaccess.trueautomation.com/clientdb/Property.aspx?cid=71&prop_id=43541","urlLandMap":"https://propaccess.trueautomation.com/mapSearch/?cid=71&p=43541","territoryNumber":"21","phoneNumbers":[{"_id":"","name":"","contacts":[{"phoneNumber":"","address":""}]}]},{"_id":"78148","landId":"78148","ownerId":"74388","allTrue":false,"exemptions":[{"name":"EX-XV","description":"Other Exemptions (including public property, religious organizations, charitable organizations, and other property not reported elsewhere)."}],"nameDeedSame":true,"addressSame":false,"name":"T L L TEMPLE FOUNDATION","deed":"T L L TEMPLE FOUNDATION","physicalAddress":"empty","physicalCity":"","physicalState":"","physicalZip":"","mailingAddress":"109 TEMPLE BLVD","mailingCity":"LUFKIN","mailingState":"TX","mailingZip":"75901","ownership":"100.0000000000%","showOwnerProperty":false,"ownerProperty":[{"propertyId":"78148","propertyAddress":"empty","name":"T L L TEMPLE FOUNDATION","price":"$920","territory":"21","inTerritory":true}],"improvements":[],"lands":[{"landType":"EXEMPT","acres":"0.0145","sqft":"630.00","marketValue":"$920","prodValue":"$0"}],"coordinates":{"id":"78148","lat":"31.340714","lng":"-94.734483"},"thumbnail":"78148","error":false,"urlOwnerDetails":"https://propaccess.trueautomation.com/clientdb/Property.aspx?cid=71&prop_id=78148","urlLandMap":"https://propaccess.trueautomation.com/mapSearch/?cid=71&p=78148","territoryNumber":"21","phoneNumbers":[{"_id":"","name":"","contacts":[{"phoneNumber":"","address":""}]}]},{"_id":"43457","landId":"43457","ownerId":"171462","allTrue":false,"exemptions":[{"name":"EMPTY","description":"No Tax Exemption Listed."}],"nameDeedSame":true,"addressSame":false,"name":"THOMPSON JOEL B & CAROLYN","deed":"THOMPSON JOEL B & CAROLYN","physicalAddress":"600 RAGUET","physicalCity":"","physicalState":"TX","physicalZip":"","mailingAddress":"2434 FM 819","mailingCity":"DIBOLL","mailingState":"TX","mailingZip":"75941","ownership":"100.0000000000%","showOwnerProperty":false,"ownerProperty":[{"propertyId":"43457","propertyAddress":"600 RAGUET TX","name":"THOMPSON JOEL B & CAROLYN","price":"$250,010","territory":"21","inTerritory":true}],"improvements":[{"id":0,"improvement":"COMMERCIAL","livingArea":"4183.0 sqft","value":"$234,970","details":[{"id":0,"description":"MAIN AREA","yearBuild":"1977","sqft":"4183.0"},{"id":0,"description":"CARPORT","yearBuild":"1977","sqft":"460.0"},{"id":0,"description":"PAVING CONCRETE","yearBuild":"1977","sqft":"4400.0"}]}],"lands":[{"landType":"COMMERCIAL","acres":"0.4747","sqft":"20678.00","marketValue":"$11,370","prodValue":"$0"},{"landType":"COMMERCIAL","acres":"0.1533","sqft":"6678.00","marketValue":"$3,670","prodValue":"$0"}],"coordinates":{"id":"43457","lat":"31.343097","lng":"-94.735526"},"thumbnail":"43457","error":false,"urlOwnerDetails":"https://propaccess.trueautomation.com/clientdb/Property.aspx?cid=71&prop_id=43457","urlLandMap":"https://propaccess.trueautomation.com/mapSearch/?cid=71&p=43457","territoryNumber":"21","phoneNumbers":[{"_id":"aa01b0d0b43670f5df928ef8920c8ca1","name":"Thompson, Joel B","contacts":[{"phoneNumber":"936-634-4051","address":"2434 FM 819 Lufkin\n"}]}]},{"_id":"43542","landId":"43542","ownerId":"161198","allTrue":false,"exemptions":[{"name":"EX-XV","description":"Other Exemptions (including public property, religious organizations, charitable organizations, and other property not reported elsewhere)."}],"nameDeedSame":true,"addressSame":false,"name":"TLL TEMPLE FOUNDATION","deed":"TLL TEMPLE FOUNDATION","physicalAddress":"503 MANTOOTH","physicalCity":"","physicalState":"TX","physicalZip":"","mailingAddress":"204 CHAMPIONS DR","mailingCity":"LUFKIN","mailingState":"TX","mailingZip":"75901","ownership":"100.0000000000%","showOwnerProperty":false,"ownerProperty":[{"propertyId":"43542","propertyAddress":"503 MANTOOTH TX","name":"TLL TEMPLE FOUNDATION","price":"$68,970","territory":"21","inTerritory":true}],"improvements":[{"id":0,"improvement":"COMMERCIAL","livingArea":"1320.0 sqft","value":"$62,280","details":[{"id":0,"description":"MAIN AREA","yearBuild":"1920","sqft":"1320.0"},{"id":0,"description":"OPEN FRAME PORCH","yearBuild":"1920","sqft":"240.0"},{"id":0,"description":"OPEN FRAME PORCH","yearBuild":"2018","sqft":"16.0"}]}],"lands":[{"landType":"EXEMPT","acres":"0.3069","sqft":"13370.00","marketValue":"$6,690","prodValue":"$0"}],"coordinates":{"id":"43542","lat":"31.340777","lng":"-94.734337"},"thumbnail":"43542","error":false,"urlOwnerDetails":"https://propaccess.trueautomation.com/clientdb/Property.aspx?cid=71&prop_id=43542","urlLandMap":"https://propaccess.trueautomation.com/mapSearch/?cid=71&p=43542","territoryNumber":"21","phoneNumbers":[{"_id":"d835e195c51dc69af8622d36b58da778","name":"TLL Temple Foundation","contacts":[{"phoneNumber":"936-634-3900","address":"204 Champions Dr Lufkin\n"}]}]},{"_id":"42560","landId":"42560","ownerId":"92541","allTrue":false,"exemptions":[{"name":"EMPTY","description":"No Tax Exemption Listed."}],"nameDeedSame":true,"addressSame":false,"name":"TXU COMMUNICATIONS TRSPRT CO","deed":"TXU COMMUNICATIONS TRSPRT CO","physicalAddress":"GROESBECK","physicalCity":"LUFKIN","physicalState":"TX","physicalZip":"75901","mailingAddress":"ATTN: JEFF SHAMMA 2929 ALLEN PKWY FL 20","mailingCity":"HOUSTON","mailingState":"TX","mailingZip":"77019","ownership":"100.0000000000%","showOwnerProperty":false,"ownerProperty":[{"propertyId":"42560","propertyAddress":"GROESBECK LUFKIN, TX 75901","name":"TXU COMMUNICATIONS TRSPRT CO","price":"$6,720","territory":"21","inTerritory":true}],"improvements":[],"lands":[{"landType":"UTILITY","acres":"0.0585","sqft":"2550.00","marketValue":"$3,830","prodValue":"$0"},{"landType":"UTILITY","acres":"0.0442","sqft":"1925.00","marketValue":"$2,890","prodValue":"$0"}],"coordinates":{"id":"42560","lat":"31.340793","lng":"-94.728428"},"thumbnail":"42560","error":false,"urlOwnerDetails":"https://propaccess.trueautomation.com/clientdb/Property.aspx?cid=71&prop_id=42560","urlLandMap":"https://propaccess.trueautomation.com/mapSearch/?cid=71&p=42560","territoryNumber":"21","phoneNumbers":[{"_id":"","name":"","contacts":[{"phoneNumber":"","address":""}]}]},{"_id":"20374","landId":"20374","ownerId":"138489","allTrue":false,"exemptions":[{"name":"EMPTY","description":"No Tax Exemption Listed."}],"nameDeedSame":true,"addressSame":false,"name":"UNION PACIFIC RAILROAD COMPANY","deed":"UNION PACIFIC RAILROAD COMPANY","physicalAddress":"FRANK ST","physicalCity":"","physicalState":"","physicalZip":"","mailingAddress":"1400 DOUGLAS ST STOP 1640","mailingCity":"OMAHA","mailingState":"NE","mailingZip":"67179","ownership":"100.0000000000%","showOwnerProperty":false,"ownerProperty":[{"propertyId":"20374","propertyAddress":"FRANK ST","name":"UNION PACIFIC RAILROAD COMPANY","price":"$6,860","territory":"21","inTerritory":true}],"improvements":[],"lands":[{"landType":"UTILITY","acres":"0.4500","sqft":"19602.00","marketValue":"$6,860","prodValue":"$0"}],"coordinates":{"id":"20374","lat":"31.340963","lng":"-94.730328"},"thumbnail":"20374","error":false,"urlOwnerDetails":"https://propaccess.trueautomation.com/clientdb/Property.aspx?cid=71&prop_id=20374","urlLandMap":"https://propaccess.trueautomation.com/mapSearch/?cid=71&p=20374","territoryNumber":"21","phoneNumbers":[{"_id":"","name":"","contacts":[{"phoneNumber":"","address":""}]}]},{"_id":"43444","landId":"43444","ownerId":"163135","allTrue":false,"exemptions":[{"name":"EMPTY","description":"No Tax Exemption Listed."}],"nameDeedSame":true,"addressSame":false,"name":"VERNON WEBSTER INVESTMENTS","deed":"VERNON WEBSTER INVESTMENTS","physicalAddress":"1221 ABNEY","physicalCity":"","physicalState":"TX","physicalZip":"","mailingAddress":"8166 US HWY 59 S","mailingCity":"BURKE","mailingState":"TX","mailingZip":"75941","ownership":"100.0000000000%","showOwnerProperty":false,"ownerProperty":[{"propertyId":"43444","propertyAddress":"1221 ABNEY TX","name":"VERNON WEBSTER INVESTMENTS","price":"$147,930","territory":"21","inTerritory":true}],"improvements":[{"id":0,"improvement":"COMMERCIAL","livingArea":"9269.0 sqft","value":"$132,180","details":[{"id":0,"description":"MAIN AREA","yearBuild":"1973","sqft":"9269.0"},{"id":0,"description":"PAVING CONCRETE","yearBuild":"1970","sqft":"198.0"},{"id":0,"description":"PAVING ASPHALT","yearBuild":"1990","sqft":"17392.0"}]}],"lands":[{"landType":"COMMERCIAL","acres":"0.4821","sqft":"21000.00","marketValue":"$10,500","prodValue":"$0"},{"landType":"COMMERCIAL","acres":"0.2410","sqft":"10500.00","marketValue":"$5,250","prodValue":"$0"}],"coordinates":{"id":"43444","lat":"31.344641","lng":"-94.735093"},"thumbnail":"43444","error":false,"urlOwnerDetails":"https://propaccess.trueautomation.com/clientdb/Property.aspx?cid=71&prop_id=43444","urlLandMap":"https://propaccess.trueautomation.com/mapSearch/?cid=71&p=43444","territoryNumber":"21","phoneNumbers":[{"_id":"","name":"","contacts":[{"phoneNumber":"","address":""}]}]},{"_id":"43479","landId":"43479","ownerId":"149286","allTrue":false,"exemptions":[{"name":"EMPTY","description":"No Tax Exemption Listed."}],"nameDeedSame":true,"addressSame":false,"name":"WHITE GENE E EST","deed":"WHITE GENE E EST","physicalAddress":"609 PERSIMMON","physicalCity":"","physicalState":"","physicalZip":"","mailingAddress":"ATTN: CARNES JIMMY L 104 S TIMBERLAND DR","mailingCity":"LUFKIN","mailingState":"TX","mailingZip":"75901","ownership":"100.0000000000%","showOwnerProperty":false,"ownerProperty":[{"propertyId":"43479","propertyAddress":"609 PERSIMMON","name":"WHITE GENE E EST","price":"$35,650","territory":"21","inTerritory":true}],"improvements":[{"id":0,"improvement":"RESIDENTIAL","livingArea":"1616.0 sqft","value":"$24,420","details":[{"id":0,"description":"MAIN AREA","yearBuild":"1914","sqft":"1616.0"},{"id":0,"description":"OPEN FRAME PORCH","yearBuild":"1914","sqft":"160.0"},{"id":0,"description":"OPEN FRAME PORCH","yearBuild":"1914","sqft":"160.0"}]},{"id":2,"improvement":"MISC IMP","livingArea":" sqft","value":"$170","details":[{"id":2,"description":"SHED METAL UTILITY","yearBuild":"1995","sqft":"80.0"}]}],"lands":[{"landType":"RESIDENTIAL","acres":"0.3214","sqft":"14000.00","marketValue":"$11,060","prodValue":"$0"}],"coordinates":{"id":"43479","lat":"31.342868","lng":"-94.734422"},"thumbnail":"43479","error":false,"urlOwnerDetails":"https://propaccess.trueautomation.com/clientdb/Property.aspx?cid=71&prop_id=43479","urlLandMap":"https://propaccess.trueautomation.com/mapSearch/?cid=71&p=43479","territoryNumber":"21","phoneNumbers":[{"_id":"","name":"","contacts":[{"phoneNumber":"","address":""}]}]},{"_id":"43543","landId":"43543","ownerId":"164497","allTrue":false,"exemptions":[{"name":"EX-XV","description":"Other Exemptions (including public property, religious organizations, charitable organizations, and other property not reported elsewhere)."}],"nameDeedSame":true,"addressSame":false,"name":"WOMENS SOBER HOUSE OF LUFKIN INC","deed":"WOMENS SOBER HOUSE OF LUFKIN INC","physicalAddress":"501 MANTOOTH  CLARK PSYCHOLOGICAL &amp;","physicalCity":"CONSULTA","physicalState":"TX","physicalZip":"","mailingAddress":"P O BOX 1963","mailingCity":"LUFKIN","mailingState":"TX","mailingZip":"75902","ownership":"100.0000000000%","showOwnerProperty":false,"ownerProperty":[{"propertyId":"43543","propertyAddress":"501 MANTOOTH CLARK PSYCHOLOGICAL &amp; CONSULTA, TX","name":"WOMENS SOBER HOUSE OF LUFKIN INC","price":"$141,430","territory":"21","inTerritory":true}],"improvements":[{"id":0,"improvement":"COMMERCIAL","livingArea":"2824.0 sqft","value":"$134,430","details":[{"id":0,"description":"MAIN AREA","yearBuild":"1935","sqft":"1280.0"},{"id":0,"description":"MAIN AREA","yearBuild":"1935","sqft":"264.0"},{"id":0,"description":"OPEN FRAME PORCH","yearBuild":"1935","sqft":"288.0"},{"id":0,"description":"MAIN AREA","yearBuild":"1935","sqft":"1280.0"}]}],"lands":[{"landType":"COMMERCIAL","acres":"0.3214","sqft":"14000.00","marketValue":"$7,000","prodValue":"$0"}],"coordinates":{"id":"43543","lat":"31.340871","lng":"-94.734053"},"thumbnail":"43543","error":false,"urlOwnerDetails":"https://propaccess.trueautomation.com/clientdb/Property.aspx?cid=71&prop_id=43543","urlLandMap":"https://propaccess.trueautomation.com/mapSearch/?cid=71&p=43543","territoryNumber":"21","phoneNumbers":[{"_id":"","name":"","contacts":[{"phoneNumber":"","address":""}]}]}]},"__N_SSG":true}