{"pageProps":{"owners":[{"_id":"86330","landId":"86330","ownerId":"54587","allTrue":false,"exemptions":[{"name":"EMPTY","description":"No Tax Exemption Listed."}],"nameDeedSame":true,"addressSame":false,"name":"ARMSTRONG GLENN T ETUX","deed":"ARMSTRONG GLENN T ETUX","physicalAddress":"521 FEAGIN","physicalCity":"","physicalState":"","physicalZip":"","mailingAddress":"103 E FRANK AVE","mailingCity":"LUFKIN","mailingState":"TX","mailingZip":"75901","ownership":"100.0000000000%","showOwnerProperty":false,"ownerProperty":[{"propertyId":"86330","propertyAddress":"521 FEAGIN","name":"ARMSTRONG GLENN T ETUX","price":"$48,790","territory":"32","inTerritory":true}],"improvements":[{"id":0,"improvement":"RESIDENTIAL","livingArea":"1588.0 sqft","value":"$27,330","details":[{"id":0,"description":"MAIN AREA","yearBuild":"1934","sqft":"1588.0"},{"id":0,"description":"OPEN FRAME PORCH","yearBuild":"1934","sqft":"84.0"},{"id":0,"description":"OPEN FRAME PORCH","yearBuild":"1934","sqft":"24.0"}]},{"id":2,"improvement":"MISC IMP","livingArea":" sqft","value":"$1,230","details":[{"id":2,"description":"SHED METAL UTILITY","yearBuild":"2003","sqft":"288.0"}]}],"lands":[{"landType":"RESIDENTIAL","acres":"0.4430","sqft":"19297.08","marketValue":"$10,890","prodValue":"$0"}],"coordinates":{"id":"86330","lat":"31.327253","lng":"-94.734671"},"thumbnail":"86330","error":false,"urlOwnerDetails":"https://propaccess.trueautomation.com/clientdb/Property.aspx?cid=71&prop_id=86330","urlLandMap":"https://propaccess.trueautomation.com/mapSearch/?cid=71&p=86330","territoryNumber":"32","phoneNumbers":[{"_id":"b24c758c9ccbd0da8c44aae19f4994b7","name":"HOP &amp; S-Graphics","contacts":[{"phoneNumber":"936-634-6767","address":"103 E Frank Ave Lufkin\n"}]}]},{"_id":"58018","landId":"58018","ownerId":"32018","allTrue":false,"exemptions":[{"name":"EMPTY","description":"No Tax Exemption Listed."}],"nameDeedSame":true,"addressSame":false,"name":"BELL MICHAEL JOE ETUX NANCY","deed":"BELL MICHAEL JOE ETUX NANCY","physicalAddress":"925 TURNER","physicalCity":"","physicalState":"","physicalZip":"","mailingAddress":"109 GOLDEN ROD CT","mailingCity":"LUFKIN","mailingState":"TX","mailingZip":"75904","ownership":"100.0000000000%","showOwnerProperty":false,"ownerProperty":[{"propertyId":"58018","propertyAddress":"925 TURNER","name":"BELL MICHAEL JOE ETUX NANCY","price":"$118,560","territory":"32","inTerritory":true}],"improvements":[{"id":0,"improvement":"RESIDENTIAL","livingArea":"1283.0 sqft","value":"$110,500","details":[{"id":0,"description":"MAIN AREA","yearBuild":"2005","sqft":"1283.0"},{"id":0,"description":"OPEN FRAME PORCH","yearBuild":"2005","sqft":"144.0"},{"id":0,"description":"OPEN FRAME PORCH","yearBuild":"2005","sqft":"133.0"}]}],"lands":[{"landType":"RESIDENTIAL","acres":"0.1993","sqft":"8680.00","marketValue":"$8,060","prodValue":"$0"}],"coordinates":{"id":"58018","lat":"31.329478","lng":"-94.731136"},"thumbnail":"58018","error":false,"urlOwnerDetails":"https://propaccess.trueautomation.com/clientdb/Property.aspx?cid=71&prop_id=58018","urlLandMap":"https://propaccess.trueautomation.com/mapSearch/?cid=71&p=58018","territoryNumber":"32","phoneNumbers":[{"_id":"","name":"","contacts":[{"phoneNumber":"","address":""}]}]},{"_id":"58031","landId":"58031","ownerId":"116719","allTrue":true,"exemptions":[{"name":"OTHER","description":"Exemption not listed."},{"name":"HS","description":"Homestead. (The person on the deed lives at this address.)"}],"nameDeedSame":true,"addressSame":true,"name":"BOMER JOHN DAVID SR ETUX THELMA","deed":"BOMER JOHN DAVID SR ETUX THELMA","physicalAddress":"1010 TURNER ST","physicalCity":"LUFKIN","physicalState":"TX","physicalZip":"75904","mailingAddress":"1010 TURNER ST","mailingCity":"LUFKIN","mailingState":"TX","mailingZip":"75904","ownership":"100.0000000000%","showOwnerProperty":false,"ownerProperty":[{"propertyId":"58031","propertyAddress":"1010 TURNER ST LUFKIN, TX 75904-4027","name":"BOMER JOHN DAVID SR ETUX THELMA","price":"$86,740","territory":"32","inTerritory":true}],"improvements":[{"id":0,"improvement":"RESIDENTIAL","livingArea":"2310.0 sqft","value":"$70,000","details":[{"id":0,"description":"MAIN AREA","yearBuild":"1947","sqft":"924.0"},{"id":0,"description":"MAIN AREA","yearBuild":"1947","sqft":"140.0"},{"id":0,"description":"MAIN AREA","yearBuild":"1947","sqft":"322.0"},{"id":0,"description":"MAIN AREA","yearBuild":"1947","sqft":"924.0"},{"id":0,"description":"OPEN FRAME PORCH","yearBuild":"1947","sqft":"300.0"}]},{"id":2,"improvement":"RESIDENTIAL","livingArea":" sqft","value":"$4,110","details":[{"id":2,"description":"FRAME UTILITY","yearBuild":"1947","sqft":"440.0"}]}],"lands":[{"landType":"RESIDENTIAL","acres":"0.0170","sqft":"750.00","marketValue":"$230","prodValue":"$0"},{"landType":"RESIDENTIAL","acres":"0.2260","sqft":"9840.00","marketValue":"$3,100","prodValue":"$0"},{"landType":"RESIDENTIAL","acres":"0.2260","sqft":"9840.00","marketValue":"$3,100","prodValue":"$0"},{"landType":"RESIDENTIAL","acres":"0.2260","sqft":"9840.00","marketValue":"$3,100","prodValue":"$0"},{"landType":"RESIDENTIAL","acres":"0.2260","sqft":"9840.00","marketValue":"$3,100","prodValue":"$0"}],"coordinates":{"id":"58031","lat":"31.328444","lng":"-94.731574"},"thumbnail":"58031","error":false,"urlOwnerDetails":"https://propaccess.trueautomation.com/clientdb/Property.aspx?cid=71&prop_id=58031","urlLandMap":"https://propaccess.trueautomation.com/mapSearch/?cid=71&p=58031","territoryNumber":"32","phoneNumbers":[{"_id":"190c370946a7cd9fb14dc3dc1f75056a","name":"Bomer, Thelma","contacts":[{"phoneNumber":"936-632-2809","address":"1010 Turner St Lufkin\n"}]}]},{"_id":"58014","landId":"58014","ownerId":"3772","allTrue":true,"exemptions":[{"name":"HS","description":"Homestead. (The person on the deed lives at this address.)"}],"nameDeedSame":true,"addressSame":true,"name":"BURFINE TRENTON W","deed":"BURFINE TRENTON W","physicalAddress":"812 S RAGUET ST","physicalCity":"LUFKIN","physicalState":"TX","physicalZip":"75904","mailingAddress":"812 S RAGUET ST","mailingCity":"LUFKIN","mailingState":"TX","mailingZip":"75904","ownership":"100.0000000000%","showOwnerProperty":false,"ownerProperty":[{"propertyId":"58014","propertyAddress":"812 S RAGUET ST LUFKIN, TX 75904-3950","name":"BURFINE TRENTON W","price":"$121,410","territory":"32","inTerritory":true}],"improvements":[{"id":0,"improvement":"RESIDENTIAL","livingArea":"2635.0 sqft","value":"$100,960","details":[{"id":0,"description":"MAIN AREA","yearBuild":"1917","sqft":"2635.0"},{"id":0,"description":"OPEN FRAME PORCH","yearBuild":"1917","sqft":"423.0"},{"id":0,"description":"ENCLOSED FR PORCH","yearBuild":"1917","sqft":"156.0"},{"id":0,"description":"ENCLOSED FR PORCH","yearBuild":"1917","sqft":"48.0"},{"id":0,"description":"CARPORT","yearBuild":"1917","sqft":"264.0"}]},{"id":2,"improvement":"RESIDENTIAL","livingArea":" sqft","value":"$9,400","details":[{"id":2,"description":"CARPORT","yearBuild":"2015","sqft":"600.0"}]}],"lands":[{"landType":"RESIDENTIAL","acres":"0.0147","sqft":"640.00","marketValue":"$330","prodValue":"$0"},{"landType":"RESIDENTIAL","acres":"0.2424","sqft":"10560.00","marketValue":"$5,360","prodValue":"$0"},{"landType":"RESIDENTIAL","acres":"0.2424","sqft":"10560.00","marketValue":"$5,360","prodValue":"$0"}],"coordinates":{"id":"58014","lat":"31.329897","lng":"-94.730799"},"thumbnail":"58014","error":false,"urlOwnerDetails":"https://propaccess.trueautomation.com/clientdb/Property.aspx?cid=71&prop_id=58014","urlLandMap":"https://propaccess.trueautomation.com/mapSearch/?cid=71&p=58014","territoryNumber":"32","phoneNumbers":[{"_id":"63ae0935f27bd4417ebcccf5f5ad27f8","name":"Burfine, Trent","contacts":[{"phoneNumber":"936-632-2479","address":"812 S Raguet Lufkin\n"}]}]},{"_id":"58020","landId":"58020","ownerId":"139961","allTrue":true,"exemptions":[{"name":"HS","description":"Homestead. (The person on the deed lives at this address.)"}],"nameDeedSame":true,"addressSame":true,"name":"BURNETTE BALANI & JOHN","deed":"BURNETTE BALANI & JOHN","physicalAddress":"929 TURNER ST","physicalCity":"LUFKIN","physicalState":"TX","physicalZip":"75904","mailingAddress":"929 TURNER ST","mailingCity":"LUFKIN","mailingState":"TX","mailingZip":"75904","ownership":"100.0000000000%","showOwnerProperty":false,"ownerProperty":[{"propertyId":"58020","propertyAddress":"929 TURNER ST LUFKIN, TX 75904-3954","name":"BURNETTE BALANI & JOHN","price":"$118,620","territory":"32","inTerritory":true}],"improvements":[{"id":0,"improvement":"RESIDENTIAL","livingArea":"1898.0 sqft","value":"$103,110","details":[{"id":0,"description":"MAIN AREA","yearBuild":"1940","sqft":"1898.0"},{"id":0,"description":"OPEN BRICK PORCH","yearBuild":"1940","sqft":"50.0"}]},{"id":2,"improvement":"RESIDENTIAL","livingArea":" sqft","value":"$7,330","details":[{"id":2,"description":"FRAME GARAGE","yearBuild":"1940","sqft":"360.0"}]}],"lands":[{"landType":"RESIDENTIAL","acres":"0.2121","sqft":"9240.00","marketValue":"$8,180","prodValue":"$0"}],"coordinates":{"id":"58020","lat":"31.329325","lng":"-94.731067"},"thumbnail":"58020","error":false,"urlOwnerDetails":"https://propaccess.trueautomation.com/clientdb/Property.aspx?cid=71&prop_id=58020","urlLandMap":"https://propaccess.trueautomation.com/mapSearch/?cid=71&p=58020","territoryNumber":"32","phoneNumbers":[{"_id":"","name":"","contacts":[{"phoneNumber":"","address":""}]}]},{"_id":"20550","landId":"20550","ownerId":"39242","allTrue":false,"exemptions":[{"name":"EX-XV","description":"Other Exemptions (including public property, religious organizations, charitable organizations, and other property not reported elsewhere)."}],"nameDeedSame":true,"addressSame":false,"name":"CITY OF LUFKIN","deed":"CITY OF LUFKIN","physicalAddress":"521 FEAGIN","physicalCity":"","physicalState":"","physicalZip":"","mailingAddress":"300 E SHEPHERD AVE","mailingCity":"LUFKIN","mailingState":"TX","mailingZip":"75901","ownership":"100.0000000000%","showOwnerProperty":false,"ownerProperty":[],"improvements":[],"lands":[{"landType":"EXEMPT","acres":"2.9930","sqft":"130375.08","marketValue":"$18,900","prodValue":"$0"}],"coordinates":{"id":"20550","lat":"31.327010","lng":"-94.734175"},"thumbnail":"20550","error":false,"urlOwnerDetails":"https://propaccess.trueautomation.com/clientdb/Property.aspx?cid=71&prop_id=20550","urlLandMap":"https://propaccess.trueautomation.com/mapSearch/?cid=71&p=20550","territoryNumber":"32","phoneNumbers":[{"_id":"5750a51a439f9332c3b98e1413c38723","name":"Crime Stoppers","contacts":[{"phoneNumber":"936-639-8477","address":"300 E Shepherd Ave Lufkin\n"}]},{"_id":"95a1258d7157dfd99f354546009ebd3a","name":"Gohmert Louis Congressman","contacts":[{"phoneNumber":"936-632-3180","address":"300 E Shepherd Ave Lufkin\n"}]},{"_id":"96d28d54fff4ba000e599b49619f4bc1","name":"Lufkin City Offices","contacts":[{"phoneNumber":"936-634-8881","address":"300 E Shepherd Ave Lufkin\n"},{"phoneNumber":"936-634-8881","address":"300 E Shepherd Ave Lufkin\n"},{"phoneNumber":"936-633-0281","address":"300 E Shepherd Ave Lufkin\n"},{"phoneNumber":"936-699-0235","address":"300 E Shepherd Ave Lufkin\n"},{"phoneNumber":"936-633-0230","address":"300 E Shepherd Ave Lufkin\n"},{"phoneNumber":"936-633-0230","address":"300 E Shepherd Ave Lufkin\n"},{"phoneNumber":"936-633-0288","address":"300 E Shepherd Ave Lufkin\n"},{"phoneNumber":"936-633-0299","address":"300 E Shepherd Ave Lufkin\n"},{"phoneNumber":"936-633-0211","address":"300 E Shepherd Ave Lufkin\n"},{"phoneNumber":"936-633-0243","address":"300 E Shepherd Ave Lufkin\n"},{"phoneNumber":"936-633-0414","address":"300 E Shepherd Ave Lufkin\n"},{"phoneNumber":"936-633-0230","address":"300 E Shepherd Ave Lufkin\n"},{"phoneNumber":"936-633-0230","address":"300 E Shepherd Ave Lufkin\n"},{"phoneNumber":"936-633-0288","address":"300 E Shepherd Ave Lufkin\n"},{"phoneNumber":"936-633-0235","address":"300 E Shepherd Ave Lufkin\n"},{"phoneNumber":"936-633-0281","address":"300 E Shepherd Ave Lufkin\n"},{"phoneNumber":"936-633-0340","address":"300 E Shepherd Ave Lufkin\n"},{"phoneNumber":"936-633-0298","address":"300 E Shepherd Ave Lufkin\n"},{"phoneNumber":"936-633-0298","address":"300 E Shepherd Ave Lufkin\n"},{"phoneNumber":"936-633-0205","address":"300 E Shepherd Ave Lufkin\n"},{"phoneNumber":"936-633-0238","address":"300 E Shepherd Ave Lufkin\n"},{"phoneNumber":"936-633-0269","address":"300 E Shepherd Ave Lufkin\n"},{"phoneNumber":"936-633-0214","address":"300 E Shepherd Ave Lufkin\n"},{"phoneNumber":"936-633-0252","address":"300 E Shepherd Ave Lufkin\n"},{"phoneNumber":"936-633-0225","address":"300 E Shepherd Ave Lufkin\n"},{"phoneNumber":"936-633-0218","address":"300 E Shepherd Ave Lufkin\n"},{"phoneNumber":"936-633-0279","address":"300 E Shepherd Ave Lufkin\n"},{"phoneNumber":"936-633-0221","address":"300 E Shepherd Ave Lufkin\n"},{"phoneNumber":"936-633-0399","address":"300 E Shepherd Ave Lufkin\n"},{"phoneNumber":"","address":"300 E Shepherd Ave Lufkin\n"},{"phoneNumber":"936-633-0356","address":"300 E Shepherd Ave Lufkin\n"},{"phoneNumber":"936-633-0222","address":"300 E Shepherd Ave Lufkin\n"},{"phoneNumber":"936-633-0367","address":"300 E Shepherd Ave Lufkin\n"},{"phoneNumber":"936-633-0307","address":"300 E Shepherd Ave Lufkin\n"},{"phoneNumber":"936-633-0228","address":"300 E Shepherd Ave Lufkin\n"},{"phoneNumber":"936-633-0229","address":"300 E Shepherd Ave Lufkin\n"},{"phoneNumber":"936-630-0555","address":"300 E Shepherd Ave Lufkin\n"},{"phoneNumber":"","address":"300 E Shepherd Ave Lufkin\n"},{"phoneNumber":"936-630-0565","address":"300 E Shepherd Ave Lufkin\n"},{"phoneNumber":"936-630-0563","address":"300 E Shepherd Ave Lufkin\n"},{"phoneNumber":"936-630-0561","address":"300 E Shepherd Ave Lufkin\n"},{"phoneNumber":"936-633-0315","address":"300 E Shepherd Ave Lufkin\n"},{"phoneNumber":"936-633-0250","address":"300 E Shepherd Ave Lufkin\n"},{"phoneNumber":"936-633-0250","address":"300 E Shepherd Ave Lufkin\n"},{"phoneNumber":"","address":"300 E Shepherd Ave Lufkin\n"},{"phoneNumber":"936-633-0271","address":"300 E Shepherd Ave Lufkin\n"},{"phoneNumber":"","address":"300 E Shepherd Ave Lufkin\n"},{"phoneNumber":"936-633-0272","address":"300 E Shepherd Ave Lufkin\n"},{"phoneNumber":"936-633-0275","address":"300 E Shepherd Ave Lufkin\n"},{"phoneNumber":"936-630-2004","address":"300 E Shepherd Ave Lufkin\n"},{"phoneNumber":"936-633-0273","address":"300 E Shepherd Ave Lufkin\n"},{"phoneNumber":"936-633-0247","address":"300 E Shepherd Ave Lufkin\n"},{"phoneNumber":"936-633-0356","address":"300 E Shepherd Ave Lufkin\n"},{"phoneNumber":"936-633-0300","address":"300 E Shepherd Ave Lufkin\n"},{"phoneNumber":"936-633-0300","address":"300 E Shepherd Ave Lufkin\n"},{"phoneNumber":"936-633-0505","address":"300 E Shepherd Ave Lufkin\n"},{"phoneNumber":"936-633-0330","address":"300 E Shepherd Ave Lufkin\n"},{"phoneNumber":"936-633-8477","address":"300 E Shepherd Ave Lufkin\n"},{"phoneNumber":"936-633-0335","address":"300 E Shepherd Ave Lufkin\n"},{"phoneNumber":"936-633-0361","address":"300 E Shepherd Ave Lufkin\n"},{"phoneNumber":"936-633-0348","address":"300 E Shepherd Ave Lufkin\n"},{"phoneNumber":"936-633-0356","address":"300 E Shepherd Ave Lufkin\n"},{"phoneNumber":"936-633-0356","address":"300 E Shepherd Ave Lufkin\n"},{"phoneNumber":"936-633-0317","address":"300 E Shepherd Ave Lufkin\n"},{"phoneNumber":"936-633-0345","address":"300 E Shepherd Ave Lufkin\n"},{"phoneNumber":"936-633-0321","address":"300 E Shepherd Ave Lufkin\n"},{"phoneNumber":"936-633-0341","address":"300 E Shepherd Ave Lufkin\n"},{"phoneNumber":"936-633-0342","address":"300 E Shepherd Ave Lufkin\n"},{"phoneNumber":"936-633-0317","address":"300 E Shepherd Ave Lufkin\n"}]}]},{"_id":"57988","landId":"57988","ownerId":"39242","allTrue":false,"exemptions":[{"name":"EX-XV","description":"Other Exemptions (including public property, religious organizations, charitable organizations, and other property not reported elsewhere)."}],"nameDeedSame":false,"addressSame":false,"name":"CITY OF LUFKIN","deed":"empty","physicalAddress":"empty","physicalCity":"","physicalState":"","physicalZip":"","mailingAddress":"300 E SHEPHERD AVE","mailingCity":"LUFKIN","mailingState":"TX","mailingZip":"75901","ownership":"100.0000000000%","showOwnerProperty":false,"ownerProperty":[],"improvements":[],"lands":[{"landType":"EXEMPT","acres":"0.0455","sqft":"1980.00","marketValue":"$2,500","prodValue":"$0"}],"coordinates":{"id":"57988","lat":"31.329504","lng":"-94.732817"},"thumbnail":"57988","error":false,"urlOwnerDetails":"https://propaccess.trueautomation.com/clientdb/Property.aspx?cid=71&prop_id=57988","urlLandMap":"https://propaccess.trueautomation.com/mapSearch/?cid=71&p=57988","territoryNumber":"32","phoneNumbers":[{"_id":"5750a51a439f9332c3b98e1413c38723","name":"Crime Stoppers","contacts":[{"phoneNumber":"936-639-8477","address":"300 E Shepherd Ave Lufkin\n"}]},{"_id":"95a1258d7157dfd99f354546009ebd3a","name":"Gohmert Louis Congressman","contacts":[{"phoneNumber":"936-632-3180","address":"300 E Shepherd Ave Lufkin\n"}]},{"_id":"96d28d54fff4ba000e599b49619f4bc1","name":"Lufkin City Offices","contacts":[{"phoneNumber":"936-634-8881","address":"300 E Shepherd Ave Lufkin\n"},{"phoneNumber":"936-634-8881","address":"300 E Shepherd Ave Lufkin\n"},{"phoneNumber":"936-633-0281","address":"300 E Shepherd Ave Lufkin\n"},{"phoneNumber":"936-699-0235","address":"300 E Shepherd Ave Lufkin\n"},{"phoneNumber":"936-633-0230","address":"300 E Shepherd Ave Lufkin\n"},{"phoneNumber":"936-633-0230","address":"300 E Shepherd Ave Lufkin\n"},{"phoneNumber":"936-633-0288","address":"300 E Shepherd Ave Lufkin\n"},{"phoneNumber":"936-633-0299","address":"300 E Shepherd Ave Lufkin\n"},{"phoneNumber":"936-633-0211","address":"300 E Shepherd Ave Lufkin\n"},{"phoneNumber":"936-633-0243","address":"300 E Shepherd Ave Lufkin\n"},{"phoneNumber":"936-633-0414","address":"300 E Shepherd Ave Lufkin\n"},{"phoneNumber":"936-633-0230","address":"300 E Shepherd Ave Lufkin\n"},{"phoneNumber":"936-633-0230","address":"300 E Shepherd Ave Lufkin\n"},{"phoneNumber":"936-633-0288","address":"300 E Shepherd Ave Lufkin\n"},{"phoneNumber":"936-633-0235","address":"300 E Shepherd Ave Lufkin\n"},{"phoneNumber":"936-633-0281","address":"300 E Shepherd Ave Lufkin\n"},{"phoneNumber":"936-633-0340","address":"300 E Shepherd Ave Lufkin\n"},{"phoneNumber":"936-633-0298","address":"300 E Shepherd Ave Lufkin\n"},{"phoneNumber":"936-633-0298","address":"300 E Shepherd Ave Lufkin\n"},{"phoneNumber":"936-633-0205","address":"300 E Shepherd Ave Lufkin\n"},{"phoneNumber":"936-633-0238","address":"300 E Shepherd Ave Lufkin\n"},{"phoneNumber":"936-633-0269","address":"300 E Shepherd Ave Lufkin\n"},{"phoneNumber":"936-633-0214","address":"300 E Shepherd Ave Lufkin\n"},{"phoneNumber":"936-633-0252","address":"300 E Shepherd Ave Lufkin\n"},{"phoneNumber":"936-633-0225","address":"300 E Shepherd Ave Lufkin\n"},{"phoneNumber":"936-633-0218","address":"300 E Shepherd Ave Lufkin\n"},{"phoneNumber":"936-633-0279","address":"300 E Shepherd Ave Lufkin\n"},{"phoneNumber":"936-633-0221","address":"300 E Shepherd Ave Lufkin\n"},{"phoneNumber":"936-633-0399","address":"300 E Shepherd Ave Lufkin\n"},{"phoneNumber":"","address":"300 E Shepherd Ave Lufkin\n"},{"phoneNumber":"936-633-0356","address":"300 E Shepherd Ave Lufkin\n"},{"phoneNumber":"936-633-0222","address":"300 E Shepherd Ave Lufkin\n"},{"phoneNumber":"936-633-0367","address":"300 E Shepherd Ave Lufkin\n"},{"phoneNumber":"936-633-0307","address":"300 E Shepherd Ave Lufkin\n"},{"phoneNumber":"936-633-0228","address":"300 E Shepherd Ave Lufkin\n"},{"phoneNumber":"936-633-0229","address":"300 E Shepherd Ave Lufkin\n"},{"phoneNumber":"936-630-0555","address":"300 E Shepherd Ave Lufkin\n"},{"phoneNumber":"","address":"300 E Shepherd Ave Lufkin\n"},{"phoneNumber":"936-630-0565","address":"300 E Shepherd Ave Lufkin\n"},{"phoneNumber":"936-630-0563","address":"300 E Shepherd Ave Lufkin\n"},{"phoneNumber":"936-630-0561","address":"300 E Shepherd Ave Lufkin\n"},{"phoneNumber":"936-633-0315","address":"300 E Shepherd Ave Lufkin\n"},{"phoneNumber":"936-633-0250","address":"300 E Shepherd Ave Lufkin\n"},{"phoneNumber":"936-633-0250","address":"300 E Shepherd Ave Lufkin\n"},{"phoneNumber":"","address":"300 E Shepherd Ave Lufkin\n"},{"phoneNumber":"936-633-0271","address":"300 E Shepherd Ave Lufkin\n"},{"phoneNumber":"","address":"300 E Shepherd Ave Lufkin\n"},{"phoneNumber":"936-633-0272","address":"300 E Shepherd Ave Lufkin\n"},{"phoneNumber":"936-633-0275","address":"300 E Shepherd Ave Lufkin\n"},{"phoneNumber":"936-630-2004","address":"300 E Shepherd Ave Lufkin\n"},{"phoneNumber":"936-633-0273","address":"300 E Shepherd Ave Lufkin\n"},{"phoneNumber":"936-633-0247","address":"300 E Shepherd Ave Lufkin\n"},{"phoneNumber":"936-633-0356","address":"300 E Shepherd Ave Lufkin\n"},{"phoneNumber":"936-633-0300","address":"300 E Shepherd Ave Lufkin\n"},{"phoneNumber":"936-633-0300","address":"300 E Shepherd Ave Lufkin\n"},{"phoneNumber":"936-633-0505","address":"300 E Shepherd Ave Lufkin\n"},{"phoneNumber":"936-633-0330","address":"300 E Shepherd Ave Lufkin\n"},{"phoneNumber":"936-633-8477","address":"300 E Shepherd Ave Lufkin\n"},{"phoneNumber":"936-633-0335","address":"300 E Shepherd Ave Lufkin\n"},{"phoneNumber":"936-633-0361","address":"300 E Shepherd Ave Lufkin\n"},{"phoneNumber":"936-633-0348","address":"300 E Shepherd Ave Lufkin\n"},{"phoneNumber":"936-633-0356","address":"300 E Shepherd Ave Lufkin\n"},{"phoneNumber":"936-633-0356","address":"300 E Shepherd Ave Lufkin\n"},{"phoneNumber":"936-633-0317","address":"300 E Shepherd Ave Lufkin\n"},{"phoneNumber":"936-633-0345","address":"300 E Shepherd Ave Lufkin\n"},{"phoneNumber":"936-633-0321","address":"300 E Shepherd Ave Lufkin\n"},{"phoneNumber":"936-633-0341","address":"300 E Shepherd Ave Lufkin\n"},{"phoneNumber":"936-633-0342","address":"300 E Shepherd Ave Lufkin\n"},{"phoneNumber":"936-633-0317","address":"300 E Shepherd Ave Lufkin\n"}]}]},{"_id":"57987","landId":"57987","ownerId":"39242","allTrue":false,"exemptions":[{"name":"EX-XV","description":"Other Exemptions (including public property, religious organizations, charitable organizations, and other property not reported elsewhere)."}],"nameDeedSame":false,"addressSame":false,"name":"CITY OF LUFKIN","deed":"empty","physicalAddress":"empty","physicalCity":"","physicalState":"","physicalZip":"","mailingAddress":"300 E SHEPHERD AVE","mailingCity":"LUFKIN","mailingState":"TX","mailingZip":"75901","ownership":"100.0000000000%","showOwnerProperty":false,"ownerProperty":[],"improvements":[],"lands":[{"landType":"EXEMPT","acres":"0.2273","sqft":"9900.00","marketValue":"$8,260","prodValue":"$0"}],"coordinates":{"id":"57987","lat":"31.329650","lng":"-94.732394"},"thumbnail":"57987","error":false,"urlOwnerDetails":"https://propaccess.trueautomation.com/clientdb/Property.aspx?cid=71&prop_id=57987","urlLandMap":"https://propaccess.trueautomation.com/mapSearch/?cid=71&p=57987","territoryNumber":"32","phoneNumbers":[{"_id":"5750a51a439f9332c3b98e1413c38723","name":"Crime Stoppers","contacts":[{"phoneNumber":"936-639-8477","address":"300 E Shepherd Ave Lufkin\n"}]},{"_id":"95a1258d7157dfd99f354546009ebd3a","name":"Gohmert Louis Congressman","contacts":[{"phoneNumber":"936-632-3180","address":"300 E Shepherd Ave Lufkin\n"}]},{"_id":"96d28d54fff4ba000e599b49619f4bc1","name":"Lufkin City Offices","contacts":[{"phoneNumber":"936-634-8881","address":"300 E Shepherd Ave Lufkin\n"},{"phoneNumber":"936-634-8881","address":"300 E Shepherd Ave Lufkin\n"},{"phoneNumber":"936-633-0281","address":"300 E Shepherd Ave Lufkin\n"},{"phoneNumber":"936-699-0235","address":"300 E Shepherd Ave Lufkin\n"},{"phoneNumber":"936-633-0230","address":"300 E Shepherd Ave Lufkin\n"},{"phoneNumber":"936-633-0230","address":"300 E Shepherd Ave Lufkin\n"},{"phoneNumber":"936-633-0288","address":"300 E Shepherd Ave Lufkin\n"},{"phoneNumber":"936-633-0299","address":"300 E Shepherd Ave Lufkin\n"},{"phoneNumber":"936-633-0211","address":"300 E Shepherd Ave Lufkin\n"},{"phoneNumber":"936-633-0243","address":"300 E Shepherd Ave Lufkin\n"},{"phoneNumber":"936-633-0414","address":"300 E Shepherd Ave Lufkin\n"},{"phoneNumber":"936-633-0230","address":"300 E Shepherd Ave Lufkin\n"},{"phoneNumber":"936-633-0230","address":"300 E Shepherd Ave Lufkin\n"},{"phoneNumber":"936-633-0288","address":"300 E Shepherd Ave Lufkin\n"},{"phoneNumber":"936-633-0235","address":"300 E Shepherd Ave Lufkin\n"},{"phoneNumber":"936-633-0281","address":"300 E Shepherd Ave Lufkin\n"},{"phoneNumber":"936-633-0340","address":"300 E Shepherd Ave Lufkin\n"},{"phoneNumber":"936-633-0298","address":"300 E Shepherd Ave Lufkin\n"},{"phoneNumber":"936-633-0298","address":"300 E Shepherd Ave Lufkin\n"},{"phoneNumber":"936-633-0205","address":"300 E Shepherd Ave Lufkin\n"},{"phoneNumber":"936-633-0238","address":"300 E Shepherd Ave Lufkin\n"},{"phoneNumber":"936-633-0269","address":"300 E Shepherd Ave Lufkin\n"},{"phoneNumber":"936-633-0214","address":"300 E Shepherd Ave Lufkin\n"},{"phoneNumber":"936-633-0252","address":"300 E Shepherd Ave Lufkin\n"},{"phoneNumber":"936-633-0225","address":"300 E Shepherd Ave Lufkin\n"},{"phoneNumber":"936-633-0218","address":"300 E Shepherd Ave Lufkin\n"},{"phoneNumber":"936-633-0279","address":"300 E Shepherd Ave Lufkin\n"},{"phoneNumber":"936-633-0221","address":"300 E Shepherd Ave Lufkin\n"},{"phoneNumber":"936-633-0399","address":"300 E Shepherd Ave Lufkin\n"},{"phoneNumber":"","address":"300 E Shepherd Ave Lufkin\n"},{"phoneNumber":"936-633-0356","address":"300 E Shepherd Ave Lufkin\n"},{"phoneNumber":"936-633-0222","address":"300 E Shepherd Ave Lufkin\n"},{"phoneNumber":"936-633-0367","address":"300 E Shepherd Ave Lufkin\n"},{"phoneNumber":"936-633-0307","address":"300 E Shepherd Ave Lufkin\n"},{"phoneNumber":"936-633-0228","address":"300 E Shepherd Ave Lufkin\n"},{"phoneNumber":"936-633-0229","address":"300 E Shepherd Ave Lufkin\n"},{"phoneNumber":"936-630-0555","address":"300 E Shepherd Ave Lufkin\n"},{"phoneNumber":"","address":"300 E Shepherd Ave Lufkin\n"},{"phoneNumber":"936-630-0565","address":"300 E Shepherd Ave Lufkin\n"},{"phoneNumber":"936-630-0563","address":"300 E Shepherd Ave Lufkin\n"},{"phoneNumber":"936-630-0561","address":"300 E Shepherd Ave Lufkin\n"},{"phoneNumber":"936-633-0315","address":"300 E Shepherd Ave Lufkin\n"},{"phoneNumber":"936-633-0250","address":"300 E Shepherd Ave Lufkin\n"},{"phoneNumber":"936-633-0250","address":"300 E Shepherd Ave Lufkin\n"},{"phoneNumber":"","address":"300 E Shepherd Ave Lufkin\n"},{"phoneNumber":"936-633-0271","address":"300 E Shepherd Ave Lufkin\n"},{"phoneNumber":"","address":"300 E Shepherd Ave Lufkin\n"},{"phoneNumber":"936-633-0272","address":"300 E Shepherd Ave Lufkin\n"},{"phoneNumber":"936-633-0275","address":"300 E Shepherd Ave Lufkin\n"},{"phoneNumber":"936-630-2004","address":"300 E Shepherd Ave Lufkin\n"},{"phoneNumber":"936-633-0273","address":"300 E Shepherd Ave Lufkin\n"},{"phoneNumber":"936-633-0247","address":"300 E Shepherd Ave Lufkin\n"},{"phoneNumber":"936-633-0356","address":"300 E Shepherd Ave Lufkin\n"},{"phoneNumber":"936-633-0300","address":"300 E Shepherd Ave Lufkin\n"},{"phoneNumber":"936-633-0300","address":"300 E Shepherd Ave Lufkin\n"},{"phoneNumber":"936-633-0505","address":"300 E Shepherd Ave Lufkin\n"},{"phoneNumber":"936-633-0330","address":"300 E Shepherd Ave Lufkin\n"},{"phoneNumber":"936-633-8477","address":"300 E Shepherd Ave Lufkin\n"},{"phoneNumber":"936-633-0335","address":"300 E Shepherd Ave Lufkin\n"},{"phoneNumber":"936-633-0361","address":"300 E Shepherd Ave Lufkin\n"},{"phoneNumber":"936-633-0348","address":"300 E Shepherd Ave Lufkin\n"},{"phoneNumber":"936-633-0356","address":"300 E Shepherd Ave Lufkin\n"},{"phoneNumber":"936-633-0356","address":"300 E Shepherd Ave Lufkin\n"},{"phoneNumber":"936-633-0317","address":"300 E Shepherd Ave Lufkin\n"},{"phoneNumber":"936-633-0345","address":"300 E Shepherd Ave Lufkin\n"},{"phoneNumber":"936-633-0321","address":"300 E Shepherd Ave Lufkin\n"},{"phoneNumber":"936-633-0341","address":"300 E Shepherd Ave Lufkin\n"},{"phoneNumber":"936-633-0342","address":"300 E Shepherd Ave Lufkin\n"},{"phoneNumber":"936-633-0317","address":"300 E Shepherd Ave Lufkin\n"}]}]},{"_id":"57980","landId":"57980","ownerId":"39242","allTrue":false,"exemptions":[{"name":"EX-XV","description":"Other Exemptions (including public property, religious organizations, charitable organizations, and other property not reported elsewhere)."}],"nameDeedSame":false,"addressSame":false,"name":"CITY OF LUFKIN","deed":"empty","physicalAddress":"empty","physicalCity":"","physicalState":"","physicalZip":"","mailingAddress":"300 E SHEPHERD AVE","mailingCity":"LUFKIN","mailingState":"TX","mailingZip":"75901","ownership":"100.0000000000%","showOwnerProperty":false,"ownerProperty":[],"improvements":[],"lands":[{"landType":"EXEMPT","acres":"0.2273","sqft":"9900.00","marketValue":"$8,260","prodValue":"$0"}],"coordinates":{"id":"57980","lat":"31.329796","lng":"-94.731950"},"thumbnail":"57980","error":false,"urlOwnerDetails":"https://propaccess.trueautomation.com/clientdb/Property.aspx?cid=71&prop_id=57980","urlLandMap":"https://propaccess.trueautomation.com/mapSearch/?cid=71&p=57980","territoryNumber":"32","phoneNumbers":[{"_id":"5750a51a439f9332c3b98e1413c38723","name":"Crime Stoppers","contacts":[{"phoneNumber":"936-639-8477","address":"300 E Shepherd Ave Lufkin\n"}]},{"_id":"95a1258d7157dfd99f354546009ebd3a","name":"Gohmert Louis Congressman","contacts":[{"phoneNumber":"936-632-3180","address":"300 E Shepherd Ave Lufkin\n"}]},{"_id":"96d28d54fff4ba000e599b49619f4bc1","name":"Lufkin City Offices","contacts":[{"phoneNumber":"936-634-8881","address":"300 E Shepherd Ave Lufkin\n"},{"phoneNumber":"936-634-8881","address":"300 E Shepherd Ave Lufkin\n"},{"phoneNumber":"936-633-0281","address":"300 E Shepherd Ave Lufkin\n"},{"phoneNumber":"936-699-0235","address":"300 E Shepherd Ave Lufkin\n"},{"phoneNumber":"936-633-0230","address":"300 E Shepherd Ave Lufkin\n"},{"phoneNumber":"936-633-0230","address":"300 E Shepherd Ave Lufkin\n"},{"phoneNumber":"936-633-0288","address":"300 E Shepherd Ave Lufkin\n"},{"phoneNumber":"936-633-0299","address":"300 E Shepherd Ave Lufkin\n"},{"phoneNumber":"936-633-0211","address":"300 E Shepherd Ave Lufkin\n"},{"phoneNumber":"936-633-0243","address":"300 E Shepherd Ave Lufkin\n"},{"phoneNumber":"936-633-0414","address":"300 E Shepherd Ave Lufkin\n"},{"phoneNumber":"936-633-0230","address":"300 E Shepherd Ave Lufkin\n"},{"phoneNumber":"936-633-0230","address":"300 E Shepherd Ave Lufkin\n"},{"phoneNumber":"936-633-0288","address":"300 E Shepherd Ave Lufkin\n"},{"phoneNumber":"936-633-0235","address":"300 E Shepherd Ave Lufkin\n"},{"phoneNumber":"936-633-0281","address":"300 E Shepherd Ave Lufkin\n"},{"phoneNumber":"936-633-0340","address":"300 E Shepherd Ave Lufkin\n"},{"phoneNumber":"936-633-0298","address":"300 E Shepherd Ave Lufkin\n"},{"phoneNumber":"936-633-0298","address":"300 E Shepherd Ave Lufkin\n"},{"phoneNumber":"936-633-0205","address":"300 E Shepherd Ave Lufkin\n"},{"phoneNumber":"936-633-0238","address":"300 E Shepherd Ave Lufkin\n"},{"phoneNumber":"936-633-0269","address":"300 E Shepherd Ave Lufkin\n"},{"phoneNumber":"936-633-0214","address":"300 E Shepherd Ave Lufkin\n"},{"phoneNumber":"936-633-0252","address":"300 E Shepherd Ave Lufkin\n"},{"phoneNumber":"936-633-0225","address":"300 E Shepherd Ave Lufkin\n"},{"phoneNumber":"936-633-0218","address":"300 E Shepherd Ave Lufkin\n"},{"phoneNumber":"936-633-0279","address":"300 E Shepherd Ave Lufkin\n"},{"phoneNumber":"936-633-0221","address":"300 E Shepherd Ave Lufkin\n"},{"phoneNumber":"936-633-0399","address":"300 E Shepherd Ave Lufkin\n"},{"phoneNumber":"","address":"300 E Shepherd Ave Lufkin\n"},{"phoneNumber":"936-633-0356","address":"300 E Shepherd Ave Lufkin\n"},{"phoneNumber":"936-633-0222","address":"300 E Shepherd Ave Lufkin\n"},{"phoneNumber":"936-633-0367","address":"300 E Shepherd Ave Lufkin\n"},{"phoneNumber":"936-633-0307","address":"300 E Shepherd Ave Lufkin\n"},{"phoneNumber":"936-633-0228","address":"300 E Shepherd Ave Lufkin\n"},{"phoneNumber":"936-633-0229","address":"300 E Shepherd Ave Lufkin\n"},{"phoneNumber":"936-630-0555","address":"300 E Shepherd Ave Lufkin\n"},{"phoneNumber":"","address":"300 E Shepherd Ave Lufkin\n"},{"phoneNumber":"936-630-0565","address":"300 E Shepherd Ave Lufkin\n"},{"phoneNumber":"936-630-0563","address":"300 E Shepherd Ave Lufkin\n"},{"phoneNumber":"936-630-0561","address":"300 E Shepherd Ave Lufkin\n"},{"phoneNumber":"936-633-0315","address":"300 E Shepherd Ave Lufkin\n"},{"phoneNumber":"936-633-0250","address":"300 E Shepherd Ave Lufkin\n"},{"phoneNumber":"936-633-0250","address":"300 E Shepherd Ave Lufkin\n"},{"phoneNumber":"","address":"300 E Shepherd Ave Lufkin\n"},{"phoneNumber":"936-633-0271","address":"300 E Shepherd Ave Lufkin\n"},{"phoneNumber":"","address":"300 E Shepherd Ave Lufkin\n"},{"phoneNumber":"936-633-0272","address":"300 E Shepherd Ave Lufkin\n"},{"phoneNumber":"936-633-0275","address":"300 E Shepherd Ave Lufkin\n"},{"phoneNumber":"936-630-2004","address":"300 E Shepherd Ave Lufkin\n"},{"phoneNumber":"936-633-0273","address":"300 E Shepherd Ave Lufkin\n"},{"phoneNumber":"936-633-0247","address":"300 E Shepherd Ave Lufkin\n"},{"phoneNumber":"936-633-0356","address":"300 E Shepherd Ave Lufkin\n"},{"phoneNumber":"936-633-0300","address":"300 E Shepherd Ave Lufkin\n"},{"phoneNumber":"936-633-0300","address":"300 E Shepherd Ave Lufkin\n"},{"phoneNumber":"936-633-0505","address":"300 E Shepherd Ave Lufkin\n"},{"phoneNumber":"936-633-0330","address":"300 E Shepherd Ave Lufkin\n"},{"phoneNumber":"936-633-8477","address":"300 E Shepherd Ave Lufkin\n"},{"phoneNumber":"936-633-0335","address":"300 E Shepherd Ave Lufkin\n"},{"phoneNumber":"936-633-0361","address":"300 E Shepherd Ave Lufkin\n"},{"phoneNumber":"936-633-0348","address":"300 E Shepherd Ave Lufkin\n"},{"phoneNumber":"936-633-0356","address":"300 E Shepherd Ave Lufkin\n"},{"phoneNumber":"936-633-0356","address":"300 E Shepherd Ave Lufkin\n"},{"phoneNumber":"936-633-0317","address":"300 E Shepherd Ave Lufkin\n"},{"phoneNumber":"936-633-0345","address":"300 E Shepherd Ave Lufkin\n"},{"phoneNumber":"936-633-0321","address":"300 E Shepherd Ave Lufkin\n"},{"phoneNumber":"936-633-0341","address":"300 E Shepherd Ave Lufkin\n"},{"phoneNumber":"936-633-0342","address":"300 E Shepherd Ave Lufkin\n"},{"phoneNumber":"936-633-0317","address":"300 E Shepherd Ave Lufkin\n"}]}]},{"_id":"57979","landId":"57979","ownerId":"39242","allTrue":false,"exemptions":[{"name":"EX-XV","description":"Other Exemptions (including public property, religious organizations, charitable organizations, and other property not reported elsewhere)."}],"nameDeedSame":false,"addressSame":false,"name":"CITY OF LUFKIN","deed":"empty","physicalAddress":"empty","physicalCity":"","physicalState":"","physicalZip":"","mailingAddress":"300 E SHEPHERD AVE","mailingCity":"LUFKIN","mailingState":"TX","mailingZip":"75901","ownership":"100.0000000000%","showOwnerProperty":false,"ownerProperty":[],"improvements":[],"lands":[{"landType":"EXEMPT","acres":"0.2121","sqft":"9240.00","marketValue":"$8,180","prodValue":"$0"}],"coordinates":{"id":"57979","lat":"31.329987","lng":"-94.731366"},"thumbnail":"57979","error":false,"urlOwnerDetails":"https://propaccess.trueautomation.com/clientdb/Property.aspx?cid=71&prop_id=57979","urlLandMap":"https://propaccess.trueautomation.com/mapSearch/?cid=71&p=57979","territoryNumber":"32","phoneNumbers":[{"_id":"5750a51a439f9332c3b98e1413c38723","name":"Crime Stoppers","contacts":[{"phoneNumber":"936-639-8477","address":"300 E Shepherd Ave Lufkin\n"}]},{"_id":"95a1258d7157dfd99f354546009ebd3a","name":"Gohmert Louis Congressman","contacts":[{"phoneNumber":"936-632-3180","address":"300 E Shepherd Ave Lufkin\n"}]},{"_id":"96d28d54fff4ba000e599b49619f4bc1","name":"Lufkin City Offices","contacts":[{"phoneNumber":"936-634-8881","address":"300 E Shepherd Ave Lufkin\n"},{"phoneNumber":"936-634-8881","address":"300 E Shepherd Ave Lufkin\n"},{"phoneNumber":"936-633-0281","address":"300 E Shepherd Ave Lufkin\n"},{"phoneNumber":"936-699-0235","address":"300 E Shepherd Ave Lufkin\n"},{"phoneNumber":"936-633-0230","address":"300 E Shepherd Ave Lufkin\n"},{"phoneNumber":"936-633-0230","address":"300 E Shepherd Ave Lufkin\n"},{"phoneNumber":"936-633-0288","address":"300 E Shepherd Ave Lufkin\n"},{"phoneNumber":"936-633-0299","address":"300 E Shepherd Ave Lufkin\n"},{"phoneNumber":"936-633-0211","address":"300 E Shepherd Ave Lufkin\n"},{"phoneNumber":"936-633-0243","address":"300 E Shepherd Ave Lufkin\n"},{"phoneNumber":"936-633-0414","address":"300 E Shepherd Ave Lufkin\n"},{"phoneNumber":"936-633-0230","address":"300 E Shepherd Ave Lufkin\n"},{"phoneNumber":"936-633-0230","address":"300 E Shepherd Ave Lufkin\n"},{"phoneNumber":"936-633-0288","address":"300 E Shepherd Ave Lufkin\n"},{"phoneNumber":"936-633-0235","address":"300 E Shepherd Ave Lufkin\n"},{"phoneNumber":"936-633-0281","address":"300 E Shepherd Ave Lufkin\n"},{"phoneNumber":"936-633-0340","address":"300 E Shepherd Ave Lufkin\n"},{"phoneNumber":"936-633-0298","address":"300 E Shepherd Ave Lufkin\n"},{"phoneNumber":"936-633-0298","address":"300 E Shepherd Ave Lufkin\n"},{"phoneNumber":"936-633-0205","address":"300 E Shepherd Ave Lufkin\n"},{"phoneNumber":"936-633-0238","address":"300 E Shepherd Ave Lufkin\n"},{"phoneNumber":"936-633-0269","address":"300 E Shepherd Ave Lufkin\n"},{"phoneNumber":"936-633-0214","address":"300 E Shepherd Ave Lufkin\n"},{"phoneNumber":"936-633-0252","address":"300 E Shepherd Ave Lufkin\n"},{"phoneNumber":"936-633-0225","address":"300 E Shepherd Ave Lufkin\n"},{"phoneNumber":"936-633-0218","address":"300 E Shepherd Ave Lufkin\n"},{"phoneNumber":"936-633-0279","address":"300 E Shepherd Ave Lufkin\n"},{"phoneNumber":"936-633-0221","address":"300 E Shepherd Ave Lufkin\n"},{"phoneNumber":"936-633-0399","address":"300 E Shepherd Ave Lufkin\n"},{"phoneNumber":"","address":"300 E Shepherd Ave Lufkin\n"},{"phoneNumber":"936-633-0356","address":"300 E Shepherd Ave Lufkin\n"},{"phoneNumber":"936-633-0222","address":"300 E Shepherd Ave Lufkin\n"},{"phoneNumber":"936-633-0367","address":"300 E Shepherd Ave Lufkin\n"},{"phoneNumber":"936-633-0307","address":"300 E Shepherd Ave Lufkin\n"},{"phoneNumber":"936-633-0228","address":"300 E Shepherd Ave Lufkin\n"},{"phoneNumber":"936-633-0229","address":"300 E Shepherd Ave Lufkin\n"},{"phoneNumber":"936-630-0555","address":"300 E Shepherd Ave Lufkin\n"},{"phoneNumber":"","address":"300 E Shepherd Ave Lufkin\n"},{"phoneNumber":"936-630-0565","address":"300 E Shepherd Ave Lufkin\n"},{"phoneNumber":"936-630-0563","address":"300 E Shepherd Ave Lufkin\n"},{"phoneNumber":"936-630-0561","address":"300 E Shepherd Ave Lufkin\n"},{"phoneNumber":"936-633-0315","address":"300 E Shepherd Ave Lufkin\n"},{"phoneNumber":"936-633-0250","address":"300 E Shepherd Ave Lufkin\n"},{"phoneNumber":"936-633-0250","address":"300 E Shepherd Ave Lufkin\n"},{"phoneNumber":"","address":"300 E Shepherd Ave Lufkin\n"},{"phoneNumber":"936-633-0271","address":"300 E Shepherd Ave Lufkin\n"},{"phoneNumber":"","address":"300 E Shepherd Ave Lufkin\n"},{"phoneNumber":"936-633-0272","address":"300 E Shepherd Ave Lufkin\n"},{"phoneNumber":"936-633-0275","address":"300 E Shepherd Ave Lufkin\n"},{"phoneNumber":"936-630-2004","address":"300 E Shepherd Ave Lufkin\n"},{"phoneNumber":"936-633-0273","address":"300 E Shepherd Ave Lufkin\n"},{"phoneNumber":"936-633-0247","address":"300 E Shepherd Ave Lufkin\n"},{"phoneNumber":"936-633-0356","address":"300 E Shepherd Ave Lufkin\n"},{"phoneNumber":"936-633-0300","address":"300 E Shepherd Ave Lufkin\n"},{"phoneNumber":"936-633-0300","address":"300 E Shepherd Ave Lufkin\n"},{"phoneNumber":"936-633-0505","address":"300 E Shepherd Ave Lufkin\n"},{"phoneNumber":"936-633-0330","address":"300 E Shepherd Ave Lufkin\n"},{"phoneNumber":"936-633-8477","address":"300 E Shepherd Ave Lufkin\n"},{"phoneNumber":"936-633-0335","address":"300 E Shepherd Ave Lufkin\n"},{"phoneNumber":"936-633-0361","address":"300 E Shepherd Ave Lufkin\n"},{"phoneNumber":"936-633-0348","address":"300 E Shepherd Ave Lufkin\n"},{"phoneNumber":"936-633-0356","address":"300 E Shepherd Ave Lufkin\n"},{"phoneNumber":"936-633-0356","address":"300 E Shepherd Ave Lufkin\n"},{"phoneNumber":"936-633-0317","address":"300 E Shepherd Ave Lufkin\n"},{"phoneNumber":"936-633-0345","address":"300 E Shepherd Ave Lufkin\n"},{"phoneNumber":"936-633-0321","address":"300 E Shepherd Ave Lufkin\n"},{"phoneNumber":"936-633-0341","address":"300 E Shepherd Ave Lufkin\n"},{"phoneNumber":"936-633-0342","address":"300 E Shepherd Ave Lufkin\n"},{"phoneNumber":"936-633-0317","address":"300 E Shepherd Ave Lufkin\n"}]}]},{"_id":"57972","landId":"57972","ownerId":"39242","allTrue":false,"exemptions":[{"name":"EX-XV","description":"Other Exemptions (including public property, religious organizations, charitable organizations, and other property not reported elsewhere)."}],"nameDeedSame":false,"addressSame":false,"name":"CITY OF LUFKIN","deed":"empty","physicalAddress":"810 S RAGUET","physicalCity":"","physicalState":"","physicalZip":"","mailingAddress":"300 E SHEPHERD AVE","mailingCity":"LUFKIN","mailingState":"TX","mailingZip":"75901","ownership":"100.0000000000%","showOwnerProperty":false,"ownerProperty":[],"improvements":[],"lands":[{"landType":"EXEMPT","acres":"0.2424","sqft":"10560.00","marketValue":"$8,270","prodValue":"$0"}],"coordinates":{"id":"57972","lat":"31.330137","lng":"-94.730913"},"thumbnail":"57972","error":false,"urlOwnerDetails":"https://propaccess.trueautomation.com/clientdb/Property.aspx?cid=71&prop_id=57972","urlLandMap":"https://propaccess.trueautomation.com/mapSearch/?cid=71&p=57972","territoryNumber":"32","phoneNumbers":[{"_id":"5750a51a439f9332c3b98e1413c38723","name":"Crime Stoppers","contacts":[{"phoneNumber":"936-639-8477","address":"300 E Shepherd Ave Lufkin\n"}]},{"_id":"95a1258d7157dfd99f354546009ebd3a","name":"Gohmert Louis Congressman","contacts":[{"phoneNumber":"936-632-3180","address":"300 E Shepherd Ave Lufkin\n"}]},{"_id":"96d28d54fff4ba000e599b49619f4bc1","name":"Lufkin City Offices","contacts":[{"phoneNumber":"936-634-8881","address":"300 E Shepherd Ave Lufkin\n"},{"phoneNumber":"936-634-8881","address":"300 E Shepherd Ave Lufkin\n"},{"phoneNumber":"936-633-0281","address":"300 E Shepherd Ave Lufkin\n"},{"phoneNumber":"936-699-0235","address":"300 E Shepherd Ave Lufkin\n"},{"phoneNumber":"936-633-0230","address":"300 E Shepherd Ave Lufkin\n"},{"phoneNumber":"936-633-0230","address":"300 E Shepherd Ave Lufkin\n"},{"phoneNumber":"936-633-0288","address":"300 E Shepherd Ave Lufkin\n"},{"phoneNumber":"936-633-0299","address":"300 E Shepherd Ave Lufkin\n"},{"phoneNumber":"936-633-0211","address":"300 E Shepherd Ave Lufkin\n"},{"phoneNumber":"936-633-0243","address":"300 E Shepherd Ave Lufkin\n"},{"phoneNumber":"936-633-0414","address":"300 E Shepherd Ave Lufkin\n"},{"phoneNumber":"936-633-0230","address":"300 E Shepherd Ave Lufkin\n"},{"phoneNumber":"936-633-0230","address":"300 E Shepherd Ave Lufkin\n"},{"phoneNumber":"936-633-0288","address":"300 E Shepherd Ave Lufkin\n"},{"phoneNumber":"936-633-0235","address":"300 E Shepherd Ave Lufkin\n"},{"phoneNumber":"936-633-0281","address":"300 E Shepherd Ave Lufkin\n"},{"phoneNumber":"936-633-0340","address":"300 E Shepherd Ave Lufkin\n"},{"phoneNumber":"936-633-0298","address":"300 E Shepherd Ave Lufkin\n"},{"phoneNumber":"936-633-0298","address":"300 E Shepherd Ave Lufkin\n"},{"phoneNumber":"936-633-0205","address":"300 E Shepherd Ave Lufkin\n"},{"phoneNumber":"936-633-0238","address":"300 E Shepherd Ave Lufkin\n"},{"phoneNumber":"936-633-0269","address":"300 E Shepherd Ave Lufkin\n"},{"phoneNumber":"936-633-0214","address":"300 E Shepherd Ave Lufkin\n"},{"phoneNumber":"936-633-0252","address":"300 E Shepherd Ave Lufkin\n"},{"phoneNumber":"936-633-0225","address":"300 E Shepherd Ave Lufkin\n"},{"phoneNumber":"936-633-0218","address":"300 E Shepherd Ave Lufkin\n"},{"phoneNumber":"936-633-0279","address":"300 E Shepherd Ave Lufkin\n"},{"phoneNumber":"936-633-0221","address":"300 E Shepherd Ave Lufkin\n"},{"phoneNumber":"936-633-0399","address":"300 E Shepherd Ave Lufkin\n"},{"phoneNumber":"","address":"300 E Shepherd Ave Lufkin\n"},{"phoneNumber":"936-633-0356","address":"300 E Shepherd Ave Lufkin\n"},{"phoneNumber":"936-633-0222","address":"300 E Shepherd Ave Lufkin\n"},{"phoneNumber":"936-633-0367","address":"300 E Shepherd Ave Lufkin\n"},{"phoneNumber":"936-633-0307","address":"300 E Shepherd Ave Lufkin\n"},{"phoneNumber":"936-633-0228","address":"300 E Shepherd Ave Lufkin\n"},{"phoneNumber":"936-633-0229","address":"300 E Shepherd Ave Lufkin\n"},{"phoneNumber":"936-630-0555","address":"300 E Shepherd Ave Lufkin\n"},{"phoneNumber":"","address":"300 E Shepherd Ave Lufkin\n"},{"phoneNumber":"936-630-0565","address":"300 E Shepherd Ave Lufkin\n"},{"phoneNumber":"936-630-0563","address":"300 E Shepherd Ave Lufkin\n"},{"phoneNumber":"936-630-0561","address":"300 E Shepherd Ave Lufkin\n"},{"phoneNumber":"936-633-0315","address":"300 E Shepherd Ave Lufkin\n"},{"phoneNumber":"936-633-0250","address":"300 E Shepherd Ave Lufkin\n"},{"phoneNumber":"936-633-0250","address":"300 E Shepherd Ave Lufkin\n"},{"phoneNumber":"","address":"300 E Shepherd Ave Lufkin\n"},{"phoneNumber":"936-633-0271","address":"300 E Shepherd Ave Lufkin\n"},{"phoneNumber":"","address":"300 E Shepherd Ave Lufkin\n"},{"phoneNumber":"936-633-0272","address":"300 E Shepherd Ave Lufkin\n"},{"phoneNumber":"936-633-0275","address":"300 E Shepherd Ave Lufkin\n"},{"phoneNumber":"936-630-2004","address":"300 E Shepherd Ave Lufkin\n"},{"phoneNumber":"936-633-0273","address":"300 E Shepherd Ave Lufkin\n"},{"phoneNumber":"936-633-0247","address":"300 E Shepherd Ave Lufkin\n"},{"phoneNumber":"936-633-0356","address":"300 E Shepherd Ave Lufkin\n"},{"phoneNumber":"936-633-0300","address":"300 E Shepherd Ave Lufkin\n"},{"phoneNumber":"936-633-0300","address":"300 E Shepherd Ave Lufkin\n"},{"phoneNumber":"936-633-0505","address":"300 E Shepherd Ave Lufkin\n"},{"phoneNumber":"936-633-0330","address":"300 E Shepherd Ave Lufkin\n"},{"phoneNumber":"936-633-8477","address":"300 E Shepherd Ave Lufkin\n"},{"phoneNumber":"936-633-0335","address":"300 E Shepherd Ave Lufkin\n"},{"phoneNumber":"936-633-0361","address":"300 E Shepherd Ave Lufkin\n"},{"phoneNumber":"936-633-0348","address":"300 E Shepherd Ave Lufkin\n"},{"phoneNumber":"936-633-0356","address":"300 E Shepherd Ave Lufkin\n"},{"phoneNumber":"936-633-0356","address":"300 E Shepherd Ave Lufkin\n"},{"phoneNumber":"936-633-0317","address":"300 E Shepherd Ave Lufkin\n"},{"phoneNumber":"936-633-0345","address":"300 E Shepherd Ave Lufkin\n"},{"phoneNumber":"936-633-0321","address":"300 E Shepherd Ave Lufkin\n"},{"phoneNumber":"936-633-0341","address":"300 E Shepherd Ave Lufkin\n"},{"phoneNumber":"936-633-0342","address":"300 E Shepherd Ave Lufkin\n"},{"phoneNumber":"936-633-0317","address":"300 E Shepherd Ave Lufkin\n"}]}]},{"_id":"92319","landId":"92319","ownerId":"39242","allTrue":false,"exemptions":[{"name":"EX-XV","description":"Other Exemptions (including public property, religious organizations, charitable organizations, and other property not reported elsewhere)."}],"nameDeedSame":true,"addressSame":false,"name":"CITY OF LUFKIN","deed":"CITY OF LUFKIN","physicalAddress":"ANGELINA ST","physicalCity":"","physicalState":"","physicalZip":"","mailingAddress":"300 E SHEPHERD AVE","mailingCity":"LUFKIN","mailingState":"TX","mailingZip":"75901","ownership":"100.0000000000%","showOwnerProperty":false,"ownerProperty":[],"improvements":[{"id":0,"improvement":"MISC IMP","livingArea":" sqft","value":"$29,320","details":[{"id":0,"description":"PREFAB STEEL BLDG","yearBuild":"2010","sqft":"1830.0"}]}],"lands":[{"landType":"EXEMPT","acres":"0.9570","sqft":"41687.00","marketValue":"$83,370","prodValue":"$0"}],"coordinates":{"id":"92319","lat":"31.330022","lng":"-94.733112"},"thumbnail":"92319","error":false,"urlOwnerDetails":"https://propaccess.trueautomation.com/clientdb/Property.aspx?cid=71&prop_id=92319","urlLandMap":"https://propaccess.trueautomation.com/mapSearch/?cid=71&p=92319","territoryNumber":"32","phoneNumbers":[{"_id":"5750a51a439f9332c3b98e1413c38723","name":"Crime Stoppers","contacts":[{"phoneNumber":"936-639-8477","address":"300 E Shepherd Ave Lufkin\n"}]},{"_id":"95a1258d7157dfd99f354546009ebd3a","name":"Gohmert Louis Congressman","contacts":[{"phoneNumber":"936-632-3180","address":"300 E Shepherd Ave Lufkin\n"}]},{"_id":"96d28d54fff4ba000e599b49619f4bc1","name":"Lufkin City Offices","contacts":[{"phoneNumber":"936-634-8881","address":"300 E Shepherd Ave Lufkin\n"},{"phoneNumber":"936-634-8881","address":"300 E Shepherd Ave Lufkin\n"},{"phoneNumber":"936-633-0281","address":"300 E Shepherd Ave Lufkin\n"},{"phoneNumber":"936-699-0235","address":"300 E Shepherd Ave Lufkin\n"},{"phoneNumber":"936-633-0230","address":"300 E Shepherd Ave Lufkin\n"},{"phoneNumber":"936-633-0230","address":"300 E Shepherd Ave Lufkin\n"},{"phoneNumber":"936-633-0288","address":"300 E Shepherd Ave Lufkin\n"},{"phoneNumber":"936-633-0299","address":"300 E Shepherd Ave Lufkin\n"},{"phoneNumber":"936-633-0211","address":"300 E Shepherd Ave Lufkin\n"},{"phoneNumber":"936-633-0243","address":"300 E Shepherd Ave Lufkin\n"},{"phoneNumber":"936-633-0414","address":"300 E Shepherd Ave Lufkin\n"},{"phoneNumber":"936-633-0230","address":"300 E Shepherd Ave Lufkin\n"},{"phoneNumber":"936-633-0230","address":"300 E Shepherd Ave Lufkin\n"},{"phoneNumber":"936-633-0288","address":"300 E Shepherd Ave Lufkin\n"},{"phoneNumber":"936-633-0235","address":"300 E Shepherd Ave Lufkin\n"},{"phoneNumber":"936-633-0281","address":"300 E Shepherd Ave Lufkin\n"},{"phoneNumber":"936-633-0340","address":"300 E Shepherd Ave Lufkin\n"},{"phoneNumber":"936-633-0298","address":"300 E Shepherd Ave Lufkin\n"},{"phoneNumber":"936-633-0298","address":"300 E Shepherd Ave Lufkin\n"},{"phoneNumber":"936-633-0205","address":"300 E Shepherd Ave Lufkin\n"},{"phoneNumber":"936-633-0238","address":"300 E Shepherd Ave Lufkin\n"},{"phoneNumber":"936-633-0269","address":"300 E Shepherd Ave Lufkin\n"},{"phoneNumber":"936-633-0214","address":"300 E Shepherd Ave Lufkin\n"},{"phoneNumber":"936-633-0252","address":"300 E Shepherd Ave Lufkin\n"},{"phoneNumber":"936-633-0225","address":"300 E Shepherd Ave Lufkin\n"},{"phoneNumber":"936-633-0218","address":"300 E Shepherd Ave Lufkin\n"},{"phoneNumber":"936-633-0279","address":"300 E Shepherd Ave Lufkin\n"},{"phoneNumber":"936-633-0221","address":"300 E Shepherd Ave Lufkin\n"},{"phoneNumber":"936-633-0399","address":"300 E Shepherd Ave Lufkin\n"},{"phoneNumber":"","address":"300 E Shepherd Ave Lufkin\n"},{"phoneNumber":"936-633-0356","address":"300 E Shepherd Ave Lufkin\n"},{"phoneNumber":"936-633-0222","address":"300 E Shepherd Ave Lufkin\n"},{"phoneNumber":"936-633-0367","address":"300 E Shepherd Ave Lufkin\n"},{"phoneNumber":"936-633-0307","address":"300 E Shepherd Ave Lufkin\n"},{"phoneNumber":"936-633-0228","address":"300 E Shepherd Ave Lufkin\n"},{"phoneNumber":"936-633-0229","address":"300 E Shepherd Ave Lufkin\n"},{"phoneNumber":"936-630-0555","address":"300 E Shepherd Ave Lufkin\n"},{"phoneNumber":"","address":"300 E Shepherd Ave Lufkin\n"},{"phoneNumber":"936-630-0565","address":"300 E Shepherd Ave Lufkin\n"},{"phoneNumber":"936-630-0563","address":"300 E Shepherd Ave Lufkin\n"},{"phoneNumber":"936-630-0561","address":"300 E Shepherd Ave Lufkin\n"},{"phoneNumber":"936-633-0315","address":"300 E Shepherd Ave Lufkin\n"},{"phoneNumber":"936-633-0250","address":"300 E Shepherd Ave Lufkin\n"},{"phoneNumber":"936-633-0250","address":"300 E Shepherd Ave Lufkin\n"},{"phoneNumber":"","address":"300 E Shepherd Ave Lufkin\n"},{"phoneNumber":"936-633-0271","address":"300 E Shepherd Ave Lufkin\n"},{"phoneNumber":"","address":"300 E Shepherd Ave Lufkin\n"},{"phoneNumber":"936-633-0272","address":"300 E Shepherd Ave Lufkin\n"},{"phoneNumber":"936-633-0275","address":"300 E Shepherd Ave Lufkin\n"},{"phoneNumber":"936-630-2004","address":"300 E Shepherd Ave Lufkin\n"},{"phoneNumber":"936-633-0273","address":"300 E Shepherd Ave Lufkin\n"},{"phoneNumber":"936-633-0247","address":"300 E Shepherd Ave Lufkin\n"},{"phoneNumber":"936-633-0356","address":"300 E Shepherd Ave Lufkin\n"},{"phoneNumber":"936-633-0300","address":"300 E Shepherd Ave Lufkin\n"},{"phoneNumber":"936-633-0300","address":"300 E Shepherd Ave Lufkin\n"},{"phoneNumber":"936-633-0505","address":"300 E Shepherd Ave Lufkin\n"},{"phoneNumber":"936-633-0330","address":"300 E Shepherd Ave Lufkin\n"},{"phoneNumber":"936-633-8477","address":"300 E Shepherd Ave Lufkin\n"},{"phoneNumber":"936-633-0335","address":"300 E Shepherd Ave Lufkin\n"},{"phoneNumber":"936-633-0361","address":"300 E Shepherd Ave Lufkin\n"},{"phoneNumber":"936-633-0348","address":"300 E Shepherd Ave Lufkin\n"},{"phoneNumber":"936-633-0356","address":"300 E Shepherd Ave Lufkin\n"},{"phoneNumber":"936-633-0356","address":"300 E Shepherd Ave Lufkin\n"},{"phoneNumber":"936-633-0317","address":"300 E Shepherd Ave Lufkin\n"},{"phoneNumber":"936-633-0345","address":"300 E Shepherd Ave Lufkin\n"},{"phoneNumber":"936-633-0321","address":"300 E Shepherd Ave Lufkin\n"},{"phoneNumber":"936-633-0341","address":"300 E Shepherd Ave Lufkin\n"},{"phoneNumber":"936-633-0342","address":"300 E Shepherd Ave Lufkin\n"},{"phoneNumber":"936-633-0317","address":"300 E Shepherd Ave Lufkin\n"}]}]},{"_id":"89020","landId":"89020","ownerId":"39242","allTrue":false,"exemptions":[{"name":"EX-XV","description":"Other Exemptions (including public property, religious organizations, charitable organizations, and other property not reported elsewhere)."}],"nameDeedSame":true,"addressSame":false,"name":"CITY OF LUFKIN","deed":"CITY OF LUFKIN","physicalAddress":"empty","physicalCity":"","physicalState":"","physicalZip":"","mailingAddress":"300 E SHEPHERD AVE","mailingCity":"LUFKIN","mailingState":"TX","mailingZip":"75901","ownership":"100.0000000000%","showOwnerProperty":false,"ownerProperty":[],"improvements":[{"id":0,"improvement":"COMMERCIAL","livingArea":"64224.0 sqft","value":"$6,570,750","details":[{"id":0,"description":"MAIN AREA","yearBuild":"2010","sqft":"13224.0"},{"id":0,"description":"MAIN AREA","yearBuild":"2010","sqft":"51000.0"}]}],"lands":[{"landType":"EXEMPT","acres":"5.8428","sqft":"254514.00","marketValue":"$31,490","prodValue":"$0"}],"coordinates":{"id":"89020","lat":"31.330750","lng":"-94.731799"},"thumbnail":"89020","error":false,"urlOwnerDetails":"https://propaccess.trueautomation.com/clientdb/Property.aspx?cid=71&prop_id=89020","urlLandMap":"https://propaccess.trueautomation.com/mapSearch/?cid=71&p=89020","territoryNumber":"32","phoneNumbers":[{"_id":"5750a51a439f9332c3b98e1413c38723","name":"Crime Stoppers","contacts":[{"phoneNumber":"936-639-8477","address":"300 E Shepherd Ave Lufkin\n"}]},{"_id":"95a1258d7157dfd99f354546009ebd3a","name":"Gohmert Louis Congressman","contacts":[{"phoneNumber":"936-632-3180","address":"300 E Shepherd Ave Lufkin\n"}]},{"_id":"96d28d54fff4ba000e599b49619f4bc1","name":"Lufkin City Offices","contacts":[{"phoneNumber":"936-634-8881","address":"300 E Shepherd Ave Lufkin\n"},{"phoneNumber":"936-634-8881","address":"300 E Shepherd Ave Lufkin\n"},{"phoneNumber":"936-633-0281","address":"300 E Shepherd Ave Lufkin\n"},{"phoneNumber":"936-699-0235","address":"300 E Shepherd Ave Lufkin\n"},{"phoneNumber":"936-633-0230","address":"300 E Shepherd Ave Lufkin\n"},{"phoneNumber":"936-633-0230","address":"300 E Shepherd Ave Lufkin\n"},{"phoneNumber":"936-633-0288","address":"300 E Shepherd Ave Lufkin\n"},{"phoneNumber":"936-633-0299","address":"300 E Shepherd Ave Lufkin\n"},{"phoneNumber":"936-633-0211","address":"300 E Shepherd Ave Lufkin\n"},{"phoneNumber":"936-633-0243","address":"300 E Shepherd Ave Lufkin\n"},{"phoneNumber":"936-633-0414","address":"300 E Shepherd Ave Lufkin\n"},{"phoneNumber":"936-633-0230","address":"300 E Shepherd Ave Lufkin\n"},{"phoneNumber":"936-633-0230","address":"300 E Shepherd Ave Lufkin\n"},{"phoneNumber":"936-633-0288","address":"300 E Shepherd Ave Lufkin\n"},{"phoneNumber":"936-633-0235","address":"300 E Shepherd Ave Lufkin\n"},{"phoneNumber":"936-633-0281","address":"300 E Shepherd Ave Lufkin\n"},{"phoneNumber":"936-633-0340","address":"300 E Shepherd Ave Lufkin\n"},{"phoneNumber":"936-633-0298","address":"300 E Shepherd Ave Lufkin\n"},{"phoneNumber":"936-633-0298","address":"300 E Shepherd Ave Lufkin\n"},{"phoneNumber":"936-633-0205","address":"300 E Shepherd Ave Lufkin\n"},{"phoneNumber":"936-633-0238","address":"300 E Shepherd Ave Lufkin\n"},{"phoneNumber":"936-633-0269","address":"300 E Shepherd Ave Lufkin\n"},{"phoneNumber":"936-633-0214","address":"300 E Shepherd Ave Lufkin\n"},{"phoneNumber":"936-633-0252","address":"300 E Shepherd Ave Lufkin\n"},{"phoneNumber":"936-633-0225","address":"300 E Shepherd Ave Lufkin\n"},{"phoneNumber":"936-633-0218","address":"300 E Shepherd Ave Lufkin\n"},{"phoneNumber":"936-633-0279","address":"300 E Shepherd Ave Lufkin\n"},{"phoneNumber":"936-633-0221","address":"300 E Shepherd Ave Lufkin\n"},{"phoneNumber":"936-633-0399","address":"300 E Shepherd Ave Lufkin\n"},{"phoneNumber":"","address":"300 E Shepherd Ave Lufkin\n"},{"phoneNumber":"936-633-0356","address":"300 E Shepherd Ave Lufkin\n"},{"phoneNumber":"936-633-0222","address":"300 E Shepherd Ave Lufkin\n"},{"phoneNumber":"936-633-0367","address":"300 E Shepherd Ave Lufkin\n"},{"phoneNumber":"936-633-0307","address":"300 E Shepherd Ave Lufkin\n"},{"phoneNumber":"936-633-0228","address":"300 E Shepherd Ave Lufkin\n"},{"phoneNumber":"936-633-0229","address":"300 E Shepherd Ave Lufkin\n"},{"phoneNumber":"936-630-0555","address":"300 E Shepherd Ave Lufkin\n"},{"phoneNumber":"","address":"300 E Shepherd Ave Lufkin\n"},{"phoneNumber":"936-630-0565","address":"300 E Shepherd Ave Lufkin\n"},{"phoneNumber":"936-630-0563","address":"300 E Shepherd Ave Lufkin\n"},{"phoneNumber":"936-630-0561","address":"300 E Shepherd Ave Lufkin\n"},{"phoneNumber":"936-633-0315","address":"300 E Shepherd Ave Lufkin\n"},{"phoneNumber":"936-633-0250","address":"300 E Shepherd Ave Lufkin\n"},{"phoneNumber":"936-633-0250","address":"300 E Shepherd Ave Lufkin\n"},{"phoneNumber":"","address":"300 E Shepherd Ave Lufkin\n"},{"phoneNumber":"936-633-0271","address":"300 E Shepherd Ave Lufkin\n"},{"phoneNumber":"","address":"300 E Shepherd Ave Lufkin\n"},{"phoneNumber":"936-633-0272","address":"300 E Shepherd Ave Lufkin\n"},{"phoneNumber":"936-633-0275","address":"300 E Shepherd Ave Lufkin\n"},{"phoneNumber":"936-630-2004","address":"300 E Shepherd Ave Lufkin\n"},{"phoneNumber":"936-633-0273","address":"300 E Shepherd Ave Lufkin\n"},{"phoneNumber":"936-633-0247","address":"300 E Shepherd Ave Lufkin\n"},{"phoneNumber":"936-633-0356","address":"300 E Shepherd Ave Lufkin\n"},{"phoneNumber":"936-633-0300","address":"300 E Shepherd Ave Lufkin\n"},{"phoneNumber":"936-633-0300","address":"300 E Shepherd Ave Lufkin\n"},{"phoneNumber":"936-633-0505","address":"300 E Shepherd Ave Lufkin\n"},{"phoneNumber":"936-633-0330","address":"300 E Shepherd Ave Lufkin\n"},{"phoneNumber":"936-633-8477","address":"300 E Shepherd Ave Lufkin\n"},{"phoneNumber":"936-633-0335","address":"300 E Shepherd Ave Lufkin\n"},{"phoneNumber":"936-633-0361","address":"300 E Shepherd Ave Lufkin\n"},{"phoneNumber":"936-633-0348","address":"300 E Shepherd Ave Lufkin\n"},{"phoneNumber":"936-633-0356","address":"300 E Shepherd Ave Lufkin\n"},{"phoneNumber":"936-633-0356","address":"300 E Shepherd Ave Lufkin\n"},{"phoneNumber":"936-633-0317","address":"300 E Shepherd Ave Lufkin\n"},{"phoneNumber":"936-633-0345","address":"300 E Shepherd Ave Lufkin\n"},{"phoneNumber":"936-633-0321","address":"300 E Shepherd Ave Lufkin\n"},{"phoneNumber":"936-633-0341","address":"300 E Shepherd Ave Lufkin\n"},{"phoneNumber":"936-633-0342","address":"300 E Shepherd Ave Lufkin\n"},{"phoneNumber":"936-633-0317","address":"300 E Shepherd Ave Lufkin\n"}]}]},{"_id":"92317","landId":"92317","ownerId":"39242","allTrue":false,"exemptions":[{"name":"EX-XV","description":"Other Exemptions (including public property, religious organizations, charitable organizations, and other property not reported elsewhere)."}],"nameDeedSame":true,"addressSame":false,"name":"CITY OF LUFKIN","deed":"CITY OF LUFKIN","physicalAddress":"RAGUET","physicalCity":"","physicalState":"","physicalZip":"","mailingAddress":"300 E SHEPHERD AVE","mailingCity":"LUFKIN","mailingState":"TX","mailingZip":"75901","ownership":"100.0000000000%","showOwnerProperty":false,"ownerProperty":[],"improvements":[],"lands":[{"landType":"EXEMPT","acres":"1.5510","sqft":"67562.00","marketValue":"$135,120","prodValue":"$0"}],"coordinates":{"id":"92317","lat":"31.331968","lng":"-94.732085"},"thumbnail":"92317","error":false,"urlOwnerDetails":"https://propaccess.trueautomation.com/clientdb/Property.aspx?cid=71&prop_id=92317","urlLandMap":"https://propaccess.trueautomation.com/mapSearch/?cid=71&p=92317","territoryNumber":"32","phoneNumbers":[{"_id":"5750a51a439f9332c3b98e1413c38723","name":"Crime Stoppers","contacts":[{"phoneNumber":"936-639-8477","address":"300 E Shepherd Ave Lufkin\n"}]},{"_id":"95a1258d7157dfd99f354546009ebd3a","name":"Gohmert Louis Congressman","contacts":[{"phoneNumber":"936-632-3180","address":"300 E Shepherd Ave Lufkin\n"}]},{"_id":"96d28d54fff4ba000e599b49619f4bc1","name":"Lufkin City Offices","contacts":[{"phoneNumber":"936-634-8881","address":"300 E Shepherd Ave Lufkin\n"},{"phoneNumber":"936-634-8881","address":"300 E Shepherd Ave Lufkin\n"},{"phoneNumber":"936-633-0281","address":"300 E Shepherd Ave Lufkin\n"},{"phoneNumber":"936-699-0235","address":"300 E Shepherd Ave Lufkin\n"},{"phoneNumber":"936-633-0230","address":"300 E Shepherd Ave Lufkin\n"},{"phoneNumber":"936-633-0230","address":"300 E Shepherd Ave Lufkin\n"},{"phoneNumber":"936-633-0288","address":"300 E Shepherd Ave Lufkin\n"},{"phoneNumber":"936-633-0299","address":"300 E Shepherd Ave Lufkin\n"},{"phoneNumber":"936-633-0211","address":"300 E Shepherd Ave Lufkin\n"},{"phoneNumber":"936-633-0243","address":"300 E Shepherd Ave Lufkin\n"},{"phoneNumber":"936-633-0414","address":"300 E Shepherd Ave Lufkin\n"},{"phoneNumber":"936-633-0230","address":"300 E Shepherd Ave Lufkin\n"},{"phoneNumber":"936-633-0230","address":"300 E Shepherd Ave Lufkin\n"},{"phoneNumber":"936-633-0288","address":"300 E Shepherd Ave Lufkin\n"},{"phoneNumber":"936-633-0235","address":"300 E Shepherd Ave Lufkin\n"},{"phoneNumber":"936-633-0281","address":"300 E Shepherd Ave Lufkin\n"},{"phoneNumber":"936-633-0340","address":"300 E Shepherd Ave Lufkin\n"},{"phoneNumber":"936-633-0298","address":"300 E Shepherd Ave Lufkin\n"},{"phoneNumber":"936-633-0298","address":"300 E Shepherd Ave Lufkin\n"},{"phoneNumber":"936-633-0205","address":"300 E Shepherd Ave Lufkin\n"},{"phoneNumber":"936-633-0238","address":"300 E Shepherd Ave Lufkin\n"},{"phoneNumber":"936-633-0269","address":"300 E Shepherd Ave Lufkin\n"},{"phoneNumber":"936-633-0214","address":"300 E Shepherd Ave Lufkin\n"},{"phoneNumber":"936-633-0252","address":"300 E Shepherd Ave Lufkin\n"},{"phoneNumber":"936-633-0225","address":"300 E Shepherd Ave Lufkin\n"},{"phoneNumber":"936-633-0218","address":"300 E Shepherd Ave Lufkin\n"},{"phoneNumber":"936-633-0279","address":"300 E Shepherd Ave Lufkin\n"},{"phoneNumber":"936-633-0221","address":"300 E Shepherd Ave Lufkin\n"},{"phoneNumber":"936-633-0399","address":"300 E Shepherd Ave Lufkin\n"},{"phoneNumber":"","address":"300 E Shepherd Ave Lufkin\n"},{"phoneNumber":"936-633-0356","address":"300 E Shepherd Ave Lufkin\n"},{"phoneNumber":"936-633-0222","address":"300 E Shepherd Ave Lufkin\n"},{"phoneNumber":"936-633-0367","address":"300 E Shepherd Ave Lufkin\n"},{"phoneNumber":"936-633-0307","address":"300 E Shepherd Ave Lufkin\n"},{"phoneNumber":"936-633-0228","address":"300 E Shepherd Ave Lufkin\n"},{"phoneNumber":"936-633-0229","address":"300 E Shepherd Ave Lufkin\n"},{"phoneNumber":"936-630-0555","address":"300 E Shepherd Ave Lufkin\n"},{"phoneNumber":"","address":"300 E Shepherd Ave Lufkin\n"},{"phoneNumber":"936-630-0565","address":"300 E Shepherd Ave Lufkin\n"},{"phoneNumber":"936-630-0563","address":"300 E Shepherd Ave Lufkin\n"},{"phoneNumber":"936-630-0561","address":"300 E Shepherd Ave Lufkin\n"},{"phoneNumber":"936-633-0315","address":"300 E Shepherd Ave Lufkin\n"},{"phoneNumber":"936-633-0250","address":"300 E Shepherd Ave Lufkin\n"},{"phoneNumber":"936-633-0250","address":"300 E Shepherd Ave Lufkin\n"},{"phoneNumber":"","address":"300 E Shepherd Ave Lufkin\n"},{"phoneNumber":"936-633-0271","address":"300 E Shepherd Ave Lufkin\n"},{"phoneNumber":"","address":"300 E Shepherd Ave Lufkin\n"},{"phoneNumber":"936-633-0272","address":"300 E Shepherd Ave Lufkin\n"},{"phoneNumber":"936-633-0275","address":"300 E Shepherd Ave Lufkin\n"},{"phoneNumber":"936-630-2004","address":"300 E Shepherd Ave Lufkin\n"},{"phoneNumber":"936-633-0273","address":"300 E Shepherd Ave Lufkin\n"},{"phoneNumber":"936-633-0247","address":"300 E Shepherd Ave Lufkin\n"},{"phoneNumber":"936-633-0356","address":"300 E Shepherd Ave Lufkin\n"},{"phoneNumber":"936-633-0300","address":"300 E Shepherd Ave Lufkin\n"},{"phoneNumber":"936-633-0300","address":"300 E Shepherd Ave Lufkin\n"},{"phoneNumber":"936-633-0505","address":"300 E Shepherd Ave Lufkin\n"},{"phoneNumber":"936-633-0330","address":"300 E Shepherd Ave Lufkin\n"},{"phoneNumber":"936-633-8477","address":"300 E Shepherd Ave Lufkin\n"},{"phoneNumber":"936-633-0335","address":"300 E Shepherd Ave Lufkin\n"},{"phoneNumber":"936-633-0361","address":"300 E Shepherd Ave Lufkin\n"},{"phoneNumber":"936-633-0348","address":"300 E Shepherd Ave Lufkin\n"},{"phoneNumber":"936-633-0356","address":"300 E Shepherd Ave Lufkin\n"},{"phoneNumber":"936-633-0356","address":"300 E Shepherd Ave Lufkin\n"},{"phoneNumber":"936-633-0317","address":"300 E Shepherd Ave Lufkin\n"},{"phoneNumber":"936-633-0345","address":"300 E Shepherd Ave Lufkin\n"},{"phoneNumber":"936-633-0321","address":"300 E Shepherd Ave Lufkin\n"},{"phoneNumber":"936-633-0341","address":"300 E Shepherd Ave Lufkin\n"},{"phoneNumber":"936-633-0342","address":"300 E Shepherd Ave Lufkin\n"},{"phoneNumber":"936-633-0317","address":"300 E Shepherd Ave Lufkin\n"}]}]},{"_id":"20554","landId":"20554","ownerId":"45045","allTrue":false,"exemptions":[{"name":"EX-XV","description":"Other Exemptions (including public property, religious organizations, charitable organizations, and other property not reported elsewhere)."}],"nameDeedSame":false,"addressSame":false,"name":"CITY PARK","deed":"empty","physicalAddress":"500 PERSHING","physicalCity":"","physicalState":"","physicalZip":"","mailingAddress":"300 E SHEPHERD AVE","mailingCity":"LUFKIN","mailingState":"TX","mailingZip":"75901","ownership":"100.0000000000%","showOwnerProperty":false,"ownerProperty":[{"propertyId":"20554","propertyAddress":"500 PERSHING","name":"CITY PARK","price":"$753,640","territory":"32","inTerritory":true}],"improvements":[{"id":0,"improvement":"COMMERCIAL","livingArea":"3793.0 sqft","value":"$354,650","details":[{"id":0,"description":"MAIN AREA","yearBuild":"2010","sqft":"3793.0"}]},{"id":2,"improvement":"MISC IMP","livingArea":" sqft","value":"$38,310","details":[{"id":2,"description":"CANOPY","yearBuild":"2010","sqft":"2214.0"},{"id":2,"description":"SHED METAL UTILITY","yearBuild":"2010","sqft":"496.0"},{"id":2,"description":"CANOPY","yearBuild":"2010","sqft":"552.0"}]}],"lands":[{"landType":"EXEMPT","acres":"10.3500","sqft":"450846.00","marketValue":"$360,680","prodValue":"$0"}],"coordinates":{"id":"20554","lat":"31.328781","lng":"-94.733448"},"thumbnail":"20554","error":false,"urlOwnerDetails":"https://propaccess.trueautomation.com/clientdb/Property.aspx?cid=71&prop_id=20554","urlLandMap":"https://propaccess.trueautomation.com/mapSearch/?cid=71&p=20554","territoryNumber":"32","phoneNumbers":[{"_id":"5750a51a439f9332c3b98e1413c38723","name":"Crime Stoppers","contacts":[{"phoneNumber":"936-639-8477","address":"300 E Shepherd Ave Lufkin\n"}]},{"_id":"95a1258d7157dfd99f354546009ebd3a","name":"Gohmert Louis Congressman","contacts":[{"phoneNumber":"936-632-3180","address":"300 E Shepherd Ave Lufkin\n"}]},{"_id":"96d28d54fff4ba000e599b49619f4bc1","name":"Lufkin City Offices","contacts":[{"phoneNumber":"936-634-8881","address":"300 E Shepherd Ave Lufkin\n"},{"phoneNumber":"936-634-8881","address":"300 E Shepherd Ave Lufkin\n"},{"phoneNumber":"936-633-0281","address":"300 E Shepherd Ave Lufkin\n"},{"phoneNumber":"936-699-0235","address":"300 E Shepherd Ave Lufkin\n"},{"phoneNumber":"936-633-0230","address":"300 E Shepherd Ave Lufkin\n"},{"phoneNumber":"936-633-0230","address":"300 E Shepherd Ave Lufkin\n"},{"phoneNumber":"936-633-0288","address":"300 E Shepherd Ave Lufkin\n"},{"phoneNumber":"936-633-0299","address":"300 E Shepherd Ave Lufkin\n"},{"phoneNumber":"936-633-0211","address":"300 E Shepherd Ave Lufkin\n"},{"phoneNumber":"936-633-0243","address":"300 E Shepherd Ave Lufkin\n"},{"phoneNumber":"936-633-0414","address":"300 E Shepherd Ave Lufkin\n"},{"phoneNumber":"936-633-0230","address":"300 E Shepherd Ave Lufkin\n"},{"phoneNumber":"936-633-0230","address":"300 E Shepherd Ave Lufkin\n"},{"phoneNumber":"936-633-0288","address":"300 E Shepherd Ave Lufkin\n"},{"phoneNumber":"936-633-0235","address":"300 E Shepherd Ave Lufkin\n"},{"phoneNumber":"936-633-0281","address":"300 E Shepherd Ave Lufkin\n"},{"phoneNumber":"936-633-0340","address":"300 E Shepherd Ave Lufkin\n"},{"phoneNumber":"936-633-0298","address":"300 E Shepherd Ave Lufkin\n"},{"phoneNumber":"936-633-0298","address":"300 E Shepherd Ave Lufkin\n"},{"phoneNumber":"936-633-0205","address":"300 E Shepherd Ave Lufkin\n"},{"phoneNumber":"936-633-0238","address":"300 E Shepherd Ave Lufkin\n"},{"phoneNumber":"936-633-0269","address":"300 E Shepherd Ave Lufkin\n"},{"phoneNumber":"936-633-0214","address":"300 E Shepherd Ave Lufkin\n"},{"phoneNumber":"936-633-0252","address":"300 E Shepherd Ave Lufkin\n"},{"phoneNumber":"936-633-0225","address":"300 E Shepherd Ave Lufkin\n"},{"phoneNumber":"936-633-0218","address":"300 E Shepherd Ave Lufkin\n"},{"phoneNumber":"936-633-0279","address":"300 E Shepherd Ave Lufkin\n"},{"phoneNumber":"936-633-0221","address":"300 E Shepherd Ave Lufkin\n"},{"phoneNumber":"936-633-0399","address":"300 E Shepherd Ave Lufkin\n"},{"phoneNumber":"","address":"300 E Shepherd Ave Lufkin\n"},{"phoneNumber":"936-633-0356","address":"300 E Shepherd Ave Lufkin\n"},{"phoneNumber":"936-633-0222","address":"300 E Shepherd Ave Lufkin\n"},{"phoneNumber":"936-633-0367","address":"300 E Shepherd Ave Lufkin\n"},{"phoneNumber":"936-633-0307","address":"300 E Shepherd Ave Lufkin\n"},{"phoneNumber":"936-633-0228","address":"300 E Shepherd Ave Lufkin\n"},{"phoneNumber":"936-633-0229","address":"300 E Shepherd Ave Lufkin\n"},{"phoneNumber":"936-630-0555","address":"300 E Shepherd Ave Lufkin\n"},{"phoneNumber":"","address":"300 E Shepherd Ave Lufkin\n"},{"phoneNumber":"936-630-0565","address":"300 E Shepherd Ave Lufkin\n"},{"phoneNumber":"936-630-0563","address":"300 E Shepherd Ave Lufkin\n"},{"phoneNumber":"936-630-0561","address":"300 E Shepherd Ave Lufkin\n"},{"phoneNumber":"936-633-0315","address":"300 E Shepherd Ave Lufkin\n"},{"phoneNumber":"936-633-0250","address":"300 E Shepherd Ave Lufkin\n"},{"phoneNumber":"936-633-0250","address":"300 E Shepherd Ave Lufkin\n"},{"phoneNumber":"","address":"300 E Shepherd Ave Lufkin\n"},{"phoneNumber":"936-633-0271","address":"300 E Shepherd Ave Lufkin\n"},{"phoneNumber":"","address":"300 E Shepherd Ave Lufkin\n"},{"phoneNumber":"936-633-0272","address":"300 E Shepherd Ave Lufkin\n"},{"phoneNumber":"936-633-0275","address":"300 E Shepherd Ave Lufkin\n"},{"phoneNumber":"936-630-2004","address":"300 E Shepherd Ave Lufkin\n"},{"phoneNumber":"936-633-0273","address":"300 E Shepherd Ave Lufkin\n"},{"phoneNumber":"936-633-0247","address":"300 E Shepherd Ave Lufkin\n"},{"phoneNumber":"936-633-0356","address":"300 E Shepherd Ave Lufkin\n"},{"phoneNumber":"936-633-0300","address":"300 E Shepherd Ave Lufkin\n"},{"phoneNumber":"936-633-0300","address":"300 E Shepherd Ave Lufkin\n"},{"phoneNumber":"936-633-0505","address":"300 E Shepherd Ave Lufkin\n"},{"phoneNumber":"936-633-0330","address":"300 E Shepherd Ave Lufkin\n"},{"phoneNumber":"936-633-8477","address":"300 E Shepherd Ave Lufkin\n"},{"phoneNumber":"936-633-0335","address":"300 E Shepherd Ave Lufkin\n"},{"phoneNumber":"936-633-0361","address":"300 E Shepherd Ave Lufkin\n"},{"phoneNumber":"936-633-0348","address":"300 E Shepherd Ave Lufkin\n"},{"phoneNumber":"936-633-0356","address":"300 E Shepherd Ave Lufkin\n"},{"phoneNumber":"936-633-0356","address":"300 E Shepherd Ave Lufkin\n"},{"phoneNumber":"936-633-0317","address":"300 E Shepherd Ave Lufkin\n"},{"phoneNumber":"936-633-0345","address":"300 E Shepherd Ave Lufkin\n"},{"phoneNumber":"936-633-0321","address":"300 E Shepherd Ave Lufkin\n"},{"phoneNumber":"936-633-0341","address":"300 E Shepherd Ave Lufkin\n"},{"phoneNumber":"936-633-0342","address":"300 E Shepherd Ave Lufkin\n"},{"phoneNumber":"936-633-0317","address":"300 E Shepherd Ave Lufkin\n"}]}]},{"_id":"54124","landId":"54124","ownerId":"78615","allTrue":false,"exemptions":[{"name":"EMPTY","description":"No Tax Exemption Listed."}],"nameDeedSame":false,"addressSame":false,"name":"COBB J W MRS","deed":"empty","physicalAddress":"418 HOUSE","physicalCity":"","physicalState":"","physicalZip":"","mailingAddress":"C/O COBB J V 300 E BEN FRANKLIN ST","mailingCity":"CORRIGAN","mailingState":"TX","mailingZip":"75939","ownership":"100.0000000000%","showOwnerProperty":false,"ownerProperty":[{"propertyId":"54124","propertyAddress":"418 HOUSE","name":"COBB J W MRS","price":"$34,370","territory":"32","inTerritory":true}],"improvements":[{"id":0,"improvement":"RESIDENTIAL","livingArea":"1020.0 sqft","value":"$26,640","details":[{"id":0,"description":"MAIN AREA","yearBuild":"1942","sqft":"1020.0"},{"id":0,"description":"OPEN FRAME PORCH","yearBuild":"1942","sqft":"64.0"}]}],"lands":[{"landType":"RESIDENTIAL","acres":"0.1768","sqft":"7700.00","marketValue":"$7,730","prodValue":"$0"}],"coordinates":{"id":"54124","lat":"31.327591","lng":"-94.732818"},"thumbnail":"54124","error":false,"urlOwnerDetails":"https://propaccess.trueautomation.com/clientdb/Property.aspx?cid=71&prop_id=54124","urlLandMap":"https://propaccess.trueautomation.com/mapSearch/?cid=71&p=54124","territoryNumber":"32","phoneNumbers":[{"_id":"","name":"","contacts":[{"phoneNumber":"","address":""}]}]},{"_id":"57997","landId":"57997","ownerId":"129404","allTrue":true,"exemptions":[{"name":"HS","description":"Homestead. (The person on the deed lives at this address.)"}],"nameDeedSame":true,"addressSame":true,"name":"CRUZ CESAR ETUX NORMA","deed":"CRUZ CESAR ETUX NORMA","physicalAddress":"924 TURNER ST","physicalCity":"LUFKIN","physicalState":"TX","physicalZip":"75904","mailingAddress":"924 TURNER ST","mailingCity":"LUFKIN","mailingState":"TX","mailingZip":"75904","ownership":"100.0000000000%","showOwnerProperty":false,"ownerProperty":[{"propertyId":"57997","propertyAddress":"924 TURNER ST LUFKIN, TX 75904-3934","name":"CRUZ CESAR ETUX NORMA","price":"$44,820","territory":"32","inTerritory":true}],"improvements":[{"id":0,"improvement":"RESIDENTIAL","livingArea":"896.0 sqft","value":"$33,960","details":[{"id":0,"description":"MAIN AREA","yearBuild":"1935","sqft":"896.0"},{"id":0,"description":"OPEN FRAME PORCH","yearBuild":"1935","sqft":"50.0"}]},{"id":2,"improvement":"MISC IMP","livingArea":" sqft","value":"$2,600","details":[{"id":2,"description":"GARAGE FR DETACHED","yearBuild":"2000","sqft":"450.0"}]}],"lands":[{"landType":"RESIDENTIAL","acres":"0.2273","sqft":"9900.00","marketValue":"$8,260","prodValue":"$0"}],"coordinates":{"id":"57997","lat":"31.329296","lng":"-94.731726"},"thumbnail":"57997","error":false,"urlOwnerDetails":"https://propaccess.trueautomation.com/clientdb/Property.aspx?cid=71&prop_id=57997","urlLandMap":"https://propaccess.trueautomation.com/mapSearch/?cid=71&p=57997","territoryNumber":"32","phoneNumbers":[{"_id":"","name":"","contacts":[{"phoneNumber":"","address":""}]}]},{"_id":"58058","landId":"58058","ownerId":"156312","allTrue":false,"exemptions":[{"name":"OTHER","description":"Exemption not listed."},{"name":"HS","description":"Homestead. (The person on the deed lives at this address.)"}],"nameDeedSame":true,"addressSame":false,"name":"CUMMINGS JULIAN LYNN","deed":"CUMMINGS JULIAN LYNN","physicalAddress":"312 HOUSE","physicalCity":"LUFKIN","physicalState":"TX","physicalZip":"75904","mailingAddress":"312 HOUSE ST","mailingCity":"LUFKIN","mailingState":"TX","mailingZip":"75904","ownership":"100.0000000000%","showOwnerProperty":false,"ownerProperty":[{"propertyId":"58058","propertyAddress":"312 HOUSE LUFKIN, TX 75904-4024","name":"CUMMINGS JULIAN LYNN","price":"$83,590","territory":"32","inTerritory":true}],"improvements":[{"id":0,"improvement":"RESIDENTIAL","livingArea":"1312.0 sqft","value":"$70,340","details":[{"id":0,"description":"MAIN AREA","yearBuild":"1945","sqft":"1312.0"},{"id":0,"description":"OPEN FRAME PORCH","yearBuild":"1945","sqft":"192.0"}]},{"id":2,"improvement":"MISC IMP","livingArea":" sqft","value":"$4,820","details":[{"id":2,"description":"PREFAB STEEL BLDG","yearBuild":"2013","sqft":"288.0"}]}],"lands":[{"landType":"RESIDENTIAL","acres":"0.0861","sqft":"3750.00","marketValue":"$2,810","prodValue":"$0"},{"landType":"RESIDENTIAL","acres":"0.0861","sqft":"3750.00","marketValue":"$2,810","prodValue":"$0"},{"landType":"RESIDENTIAL","acres":"0.0861","sqft":"3750.00","marketValue":"$2,810","prodValue":"$0"}],"coordinates":{"id":"58058","lat":"31.327949","lng":"-94.731499"},"thumbnail":"58058","error":false,"urlOwnerDetails":"https://propaccess.trueautomation.com/clientdb/Property.aspx?cid=71&prop_id=58058","urlLandMap":"https://propaccess.trueautomation.com/mapSearch/?cid=71&p=58058","territoryNumber":"32","phoneNumbers":[{"_id":"","name":"","contacts":[{"phoneNumber":"","address":""}]}]},{"_id":"58057","landId":"58057","ownerId":"165431","allTrue":true,"exemptions":[{"name":"HS","description":"Homestead. (The person on the deed lives at this address.)"}],"nameDeedSame":true,"addressSame":true,"name":"CUMMINGS STEVEN WAYNE","deed":"CUMMINGS STEVEN WAYNE","physicalAddress":"314 HOUSE ST","physicalCity":"LUFKIN","physicalState":"TX","physicalZip":"75904","mailingAddress":"314 HOUSE ST","mailingCity":"LUFKIN","mailingState":"TX","mailingZip":"75904","ownership":"100.0000000000%","showOwnerProperty":false,"ownerProperty":[{"propertyId":"58057","propertyAddress":"314 HOUSE ST LUFKIN, TX 75904-4024","name":"CUMMINGS STEVEN WAYNE","price":"$102,340","territory":"32","inTerritory":true}],"improvements":[{"id":0,"improvement":"RESIDENTIAL","livingArea":"1701.0 sqft","value":"$91,950","details":[{"id":0,"description":"MAIN AREA","yearBuild":"1945","sqft":"1701.0"},{"id":0,"description":"OPEN FRAME PORCH","yearBuild":"1945","sqft":"60.0"}]},{"id":2,"improvement":"MISC IMP","livingArea":" sqft","value":"$1,960","details":[{"id":2,"description":"GARAGE FR DETACHED","yearBuild":"1945","sqft":"576.0"}]}],"lands":[{"landType":"RESIDENTIAL","acres":"0.0861","sqft":"3750.00","marketValue":"$2,810","prodValue":"$0"},{"landType":"RESIDENTIAL","acres":"0.0861","sqft":"3750.00","marketValue":"$2,810","prodValue":"$0"},{"landType":"RESIDENTIAL","acres":"0.0861","sqft":"3750.00","marketValue":"$2,810","prodValue":"$0"}],"coordinates":{"id":"58057","lat":"31.327878","lng":"-94.731724"},"thumbnail":"58057","error":false,"urlOwnerDetails":"https://propaccess.trueautomation.com/clientdb/Property.aspx?cid=71&prop_id=58057","urlLandMap":"https://propaccess.trueautomation.com/mapSearch/?cid=71&p=58057","territoryNumber":"32","phoneNumbers":[{"_id":"ef3a4bd5fc017c31b3a1c0dbcd78755b","name":"Cummings, Steven","contacts":[{"phoneNumber":"936-899-5782","address":"314 House St Lufkin\n"}]}]},{"_id":"57992","landId":"57992","ownerId":"130523","allTrue":false,"exemptions":[{"name":"HS","description":"Homestead. (The person on the deed lives at this address.)"}],"nameDeedSame":true,"addressSame":false,"name":"DANCE SHELLEY G","deed":"DANCE SHELLEY G","physicalAddress":"414 PERSHING ave","physicalCity":"lufkin","physicalState":"TX","physicalZip":"75904","mailingAddress":"414 PERSHING AVE","mailingCity":"LUFKIN","mailingState":"TX","mailingZip":"75904","ownership":"100.0000000000%","showOwnerProperty":false,"ownerProperty":[{"propertyId":"57992","propertyAddress":"414 PERSHING ave lufkin, TX 75904-3930","name":"DANCE SHELLEY G","price":"$138,380","territory":"32","inTerritory":true}],"improvements":[{"id":0,"improvement":"RESIDENTIAL","livingArea":"1917.0 sqft","value":"$126,850","details":[{"id":0,"description":"MAIN AREA","yearBuild":"1930","sqft":"1917.0"},{"id":0,"description":"OPEN FRAME PORCH","yearBuild":"1930","sqft":"140.0"},{"id":0,"description":"OPEN FRAME PORCH","yearBuild":"1930","sqft":"66.0"},{"id":0,"description":"WOOD DECK","yearBuild":"1930","sqft":"720.0"}]},{"id":2,"improvement":"MISC IMP","livingArea":" sqft","value":"$690","details":[{"id":2,"description":"GARAGE FR DETACHED","yearBuild":"1940","sqft":"600.0"}]}],"lands":[{"landType":"RESIDENTIAL","acres":"0.1082","sqft":"4715.00","marketValue":"$2,710","prodValue":"$0"},{"landType":"RESIDENTIAL","acres":"0.1082","sqft":"4715.00","marketValue":"$2,710","prodValue":"$0"},{"landType":"RESIDENTIAL","acres":"0.1082","sqft":"4715.00","marketValue":"$2,710","prodValue":"$0"},{"landType":"RESIDENTIAL","acres":"0.1083","sqft":"4716.00","marketValue":"$2,710","prodValue":"$0"}],"coordinates":{"id":"57992","lat":"31.329118","lng":"-94.732553"},"thumbnail":"57992","error":false,"urlOwnerDetails":"https://propaccess.trueautomation.com/clientdb/Property.aspx?cid=71&prop_id=57992","urlLandMap":"https://propaccess.trueautomation.com/mapSearch/?cid=71&p=57992","territoryNumber":"32","phoneNumbers":[{"_id":"","name":"","contacts":[{"phoneNumber":"","address":""}]}]},{"_id":"54154","landId":"54154","ownerId":"130085","allTrue":true,"exemptions":[{"name":"HS","description":"Homestead. (The person on the deed lives at this address.)"}],"nameDeedSame":true,"addressSame":true,"name":"DANIELS ELSA","deed":"DANIELS ELSA","physicalAddress":"602 PARK LN","physicalCity":"LUFKIN","physicalState":"TX","physicalZip":"75904","mailingAddress":"602 PARK LN","mailingCity":"LUFKIN","mailingState":"TX","mailingZip":"75904","ownership":"100.0000000000%","showOwnerProperty":false,"ownerProperty":[{"propertyId":"54154","propertyAddress":"602 PARK LN LUFKIN, TX 75904-4062","name":"DANIELS ELSA","price":"$76,930","territory":"32","inTerritory":true}],"improvements":[{"id":0,"improvement":"RESIDENTIAL","livingArea":"1695.0 sqft","value":"$69,110","details":[{"id":0,"description":"MAIN AREA","yearBuild":"1951","sqft":"1695.0"},{"id":0,"description":"CARPORT","yearBuild":"1951","sqft":"400.0"},{"id":0,"description":"OPEN FRAME PORCH","yearBuild":"1951","sqft":"16.0"}]}],"lands":[{"landType":"RESIDENTIAL","acres":"0.1818","sqft":"7920.00","marketValue":"$7,820","prodValue":"$0"}],"coordinates":{"id":"54154","lat":"31.326400","lng":"-94.734421"},"thumbnail":"54154","error":false,"urlOwnerDetails":"https://propaccess.trueautomation.com/clientdb/Property.aspx?cid=71&prop_id=54154","urlLandMap":"https://propaccess.trueautomation.com/mapSearch/?cid=71&p=54154","territoryNumber":"32","phoneNumbers":[{"_id":"","name":"","contacts":[{"phoneNumber":"","address":""}]}]},{"_id":"58007","landId":"58007","ownerId":"31448","allTrue":false,"exemptions":[{"name":"EMPTY","description":"No Tax Exemption Listed."}],"nameDeedSame":true,"addressSame":false,"name":"ELM TEXAS PROPERTIES LLC","deed":"ELM TEXAS PROPERTIES LLC","physicalAddress":"308 PERSHING","physicalCity":"","physicalState":"","physicalZip":"","mailingAddress":"2401 FORD CHAPEL RD","mailingCity":"LUFKIN","mailingState":"TX","mailingZip":"75901","ownership":"100.0000000000%","showOwnerProperty":false,"ownerProperty":[{"propertyId":"58007","propertyAddress":"308 PERSHING","name":"ELM TEXAS PROPERTIES LLC","price":"$91,290","territory":"32","inTerritory":true}],"improvements":[{"id":0,"improvement":"RESIDENTIAL","livingArea":"1396.0 sqft","value":"$83,030","details":[{"id":0,"description":"MAIN AREA","yearBuild":"2003","sqft":"1396.0"},{"id":0,"description":"CARPORT","yearBuild":"2003","sqft":"240.0"},{"id":0,"description":"OPEN FRAME PORCH","yearBuild":"2003","sqft":"44.0"}]}],"lands":[{"landType":"RESIDENTIAL","acres":"0.1136","sqft":"4950.00","marketValue":"$4,130","prodValue":"$0"},{"landType":"RESIDENTIAL","acres":"0.1136","sqft":"4950.00","marketValue":"$4,130","prodValue":"$0"}],"coordinates":{"id":"58007","lat":"31.329028","lng":"-94.732242"},"thumbnail":"58007","error":false,"urlOwnerDetails":"https://propaccess.trueautomation.com/clientdb/Property.aspx?cid=71&prop_id=58007","urlLandMap":"https://propaccess.trueautomation.com/mapSearch/?cid=71&p=58007","territoryNumber":"32","phoneNumbers":[{"_id":"4cf65ec4f9c573f2897ac20ba625eab7","name":"Maddux, Buford Jr","contacts":[{"phoneNumber":"936-634-2854","address":"2401 Ford Chapel Rd Lufkin\n"}]}]},{"_id":"58030","landId":"58030","ownerId":"139786","allTrue":false,"exemptions":[{"name":"EMPTY","description":"No Tax Exemption Listed."}],"nameDeedSame":true,"addressSame":false,"name":"FIRST CHURCH REVOCABLE TRUST","deed":"FIRST CHURCH REVOCABLE TRUST","physicalAddress":"1012 TURNER","physicalCity":"","physicalState":"","physicalZip":"","mailingAddress":"ATTN: MECHELL KENNETH ETUX VIRGINIA 856 FM 842","mailingCity":"LUFKIN","mailingState":"TX","mailingZip":"75901","ownership":"100.0000000000%","showOwnerProperty":false,"ownerProperty":[{"propertyId":"58030","propertyAddress":"1012 TURNER","name":"FIRST CHURCH REVOCABLE TRUST","price":"$66,340","territory":"32","inTerritory":true}],"improvements":[{"id":0,"improvement":"RESIDENTIAL","livingArea":"1700.0 sqft","value":"$57,950","details":[{"id":0,"description":"MAIN AREA","yearBuild":"1955","sqft":"1700.0"},{"id":0,"description":"CARPORT","yearBuild":"1955","sqft":"400.0"},{"id":0,"description":"OPEN BRICK PORCH","yearBuild":"1955","sqft":"136.0"}]},{"id":2,"improvement":"MISC IMP","livingArea":" sqft","value":"$230","details":[{"id":2,"description":"SHED FR UTILITY","yearBuild":"1955","sqft":"160.0"}]}],"lands":[{"landType":"RESIDENTIAL","acres":"0.2101","sqft":"9150.00","marketValue":"$8,160","prodValue":"$0"}],"coordinates":{"id":"58030","lat":"31.328319","lng":"-94.731277"},"thumbnail":"58030","error":false,"urlOwnerDetails":"https://propaccess.trueautomation.com/clientdb/Property.aspx?cid=71&prop_id=58030","urlLandMap":"https://propaccess.trueautomation.com/mapSearch/?cid=71&p=58030","territoryNumber":"32","phoneNumbers":[{"_id":"cebdd9c928242906bc5619c07101f5be","name":"First Church Of Christ Scientist","contacts":[{"phoneNumber":"936-639-3843","address":"607 N Warren St Lufkin\n"}]}]},{"_id":"54155","landId":"54155","ownerId":"161323","allTrue":false,"exemptions":[{"name":"EMPTY","description":"No Tax Exemption Listed."}],"nameDeedSame":true,"addressSame":false,"name":"FIRST CITY PROPERTIES LLC","deed":"FIRST CITY PROPERTIES LLC","physicalAddress":"604 PARK LN","physicalCity":"LUFKIN","physicalState":"TX","physicalZip":"75904","mailingAddress":"P.O. BOX 155234","mailingCity":"LUFKIN","mailingState":"TX","mailingZip":"75915","ownership":"100.0000000000%","showOwnerProperty":false,"ownerProperty":[{"propertyId":"54155","propertyAddress":"604 PARK LN LUFKIN, TX 75904-4062","name":"FIRST CITY PROPERTIES LLC","price":"$50,630","territory":"32","inTerritory":true}],"improvements":[{"id":0,"improvement":"RESIDENTIAL","livingArea":"1335.0 sqft","value":"$42,010","details":[{"id":0,"description":"MAIN AREA","yearBuild":"1940","sqft":"1335.0"},{"id":0,"description":"OPEN FRAME PORCH","yearBuild":"1940","sqft":"32.0"}]},{"id":2,"improvement":"MISC IMP","livingArea":" sqft","value":"$750","details":[{"id":2,"description":"GARAGE FR DETACHED","yearBuild":"1940","sqft":"240.0"},{"id":2,"description":"CANOPY","yearBuild":"1988","sqft":"240.0"}]}],"lands":[{"landType":"RESIDENTIAL","acres":"0.1853","sqft":"8073.00","marketValue":"$7,870","prodValue":"$0"}],"coordinates":{"id":"54155","lat":"31.326451","lng":"-94.734616"},"thumbnail":"54155","error":false,"urlOwnerDetails":"https://propaccess.trueautomation.com/clientdb/Property.aspx?cid=71&prop_id=54155","urlLandMap":"https://propaccess.trueautomation.com/mapSearch/?cid=71&p=54155","territoryNumber":"32","phoneNumbers":[{"_id":"","name":"","contacts":[{"phoneNumber":"","address":""}]}]},{"_id":"58010","landId":"58010","ownerId":"145836","allTrue":true,"exemptions":[{"name":"HS","description":"Homestead. (The person on the deed lives at this address.)"}],"nameDeedSame":true,"addressSame":true,"name":"FOLEY MARK CLIFTON","deed":"FOLEY MARK CLIFTON","physicalAddress":"818 S RAGUET","physicalCity":"","physicalState":"TX","physicalZip":"","mailingAddress":"818 S RAGUET","mailingCity":"LUFKIN","mailingState":"TX","mailingZip":"75904","ownership":"100.0000000000%","showOwnerProperty":false,"ownerProperty":[{"propertyId":"58010","propertyAddress":"818 S RAGUET TX","name":"FOLEY MARK CLIFTON","price":"$194,870","territory":"32","inTerritory":true}],"improvements":[{"id":0,"improvement":"RESIDENTIAL","livingArea":"2940.0 sqft","value":"$146,690","details":[{"id":0,"description":"MAIN AREA","yearBuild":"1920","sqft":"1190.0"},{"id":0,"description":"OPEN FRAME PORCH","yearBuild":"1920","sqft":"620.0"},{"id":0,"description":"MAIN AREA","yearBuild":"1920","sqft":"400.0"},{"id":0,"description":"MAIN AREA","yearBuild":"1920","sqft":"160.0"},{"id":0,"description":"MAIN AREA","yearBuild":"1920","sqft":"1190.0"}]},{"id":2,"improvement":"RESIDENTIAL","livingArea":" sqft","value":"$17,200","details":[{"id":2,"description":"FRAME UTILITY","yearBuild":"1960","sqft":"800.0"},{"id":2,"description":"FRAME GARAGE","yearBuild":"1960","sqft":"544.0"}]},{"id":4,"improvement":"RESIDENTIAL","livingArea":" sqft","value":"$14,210","details":[{"id":4,"description":"FRAME GARAGE","yearBuild":"1990","sqft":"800.0"}]},{"id":6,"improvement":"MISC IMP","livingArea":" sqft","value":"$5,850","details":[{"id":6,"description":"POOL CONCRETE","yearBuild":"0","sqft":"450.0"},{"id":6,"description":"PATIO CONCRETE/MASONRY","yearBuild":"0","sqft":"650.0"}]}],"lands":[{"landType":"RESIDENTIAL","acres":"0.2314","sqft":"10079.78","marketValue":"$5,630","prodValue":"$0"},{"landType":"RESIDENTIAL","acres":"0.2176","sqft":"9478.66","marketValue":"$5,290","prodValue":"$0"}],"coordinates":{"id":"58010","lat":"31.329568","lng":"-94.730652"},"thumbnail":"58010","error":false,"urlOwnerDetails":"https://propaccess.trueautomation.com/clientdb/Property.aspx?cid=71&prop_id=58010","urlLandMap":"https://propaccess.trueautomation.com/mapSearch/?cid=71&p=58010","territoryNumber":"32","phoneNumbers":[{"_id":"","name":"","contacts":[{"phoneNumber":"","address":""}]}]},{"_id":"58034","landId":"58034","ownerId":"137370","allTrue":false,"exemptions":[{"name":"EMPTY","description":"No Tax Exemption Listed."}],"nameDeedSame":true,"addressSame":false,"name":"GENTRY JOSHUA CABEB ETUX ERIN","deed":"GENTRY JOSHUA CABEB ETUX ERIN","physicalAddress":"1002 TURNER","physicalCity":"LUFKIN","physicalState":"TX","physicalZip":"75904","mailingAddress":"902 S RAGUET ST","mailingCity":"LUFKIN","mailingState":"TX","mailingZip":"75904","ownership":"100.0000000000%","showOwnerProperty":false,"ownerProperty":[{"propertyId":"58034","propertyAddress":"1002 TURNER LUFKIN, TX 75904-4027","name":"GENTRY JOSHUA CABEB ETUX ERIN","price":"$80,980","territory":"32","inTerritory":true}],"improvements":[{"id":0,"improvement":"RESIDENTIAL","livingArea":"1532.0 sqft","value":"$52,150","details":[{"id":0,"description":"MAIN AREA","yearBuild":"1925","sqft":"1532.0"},{"id":0,"description":"OPEN FRAME PORCH","yearBuild":"1925","sqft":"180.0"}]},{"id":2,"improvement":"RESIDENTIAL","livingArea":" sqft","value":"$5,860","details":[{"id":2,"description":"FRAME GARAGE","yearBuild":"1940","sqft":"520.0"}]}],"lands":[{"landType":"RESIDENTIAL","acres":"0.2273","sqft":"9900.00","marketValue":"$8,260","prodValue":"$0"}],"coordinates":{"id":"58034","lat":"31.328832","lng":"-94.731509"},"thumbnail":"58034","error":false,"urlOwnerDetails":"https://propaccess.trueautomation.com/clientdb/Property.aspx?cid=71&prop_id=58034","urlLandMap":"https://propaccess.trueautomation.com/mapSearch/?cid=71&p=58034","territoryNumber":"32","phoneNumbers":[{"_id":"","name":"","contacts":[{"phoneNumber":"","address":""}]}]},{"_id":"58024","landId":"58024","ownerId":"164395","allTrue":false,"exemptions":[{"name":"HS","description":"Homestead. (The person on the deed lives at this address.)"}],"nameDeedSame":true,"addressSame":false,"name":"GENTRY JOSHUA CALEB ETUX ERIN JUNE","deed":"GENTRY JOSHUA CALEB ETUX ERIN JUNE","physicalAddress":"902 S RAGUET","physicalCity":"LUFKIN","physicalState":"TX","physicalZip":"75904","mailingAddress":"902 S RAGUET ST","mailingCity":"LUFKIN","mailingState":"TX","mailingZip":"75904","ownership":"100.0000000000%","showOwnerProperty":false,"ownerProperty":[{"propertyId":"58024","propertyAddress":"902 S RAGUET LUFKIN, TX 75904-4025","name":"GENTRY JOSHUA CALEB ETUX ERIN JUNE","price":"$203,320","territory":"32","inTerritory":true}],"improvements":[{"id":0,"improvement":"RESIDENTIAL","livingArea":"5276.0 sqft","value":"$157,180","details":[{"id":0,"description":"MAIN AREA","yearBuild":"1937","sqft":"2338.0"},{"id":0,"description":"GARAGE BRICK/MAS","yearBuild":"1937","sqft":"600.0"},{"id":0,"description":"OPEN BRICK PORCH","yearBuild":"1937","sqft":"460.0"},{"id":0,"description":"PATIO CONCRETE/MASONRY","yearBuild":"1937","sqft":"736.0"},{"id":0,"description":"ENCL BRICK PORCH","yearBuild":"1937","sqft":"210.0"},{"id":0,"description":"MAIN AREA","yearBuild":"1937","sqft":"600.0"},{"id":0,"description":"OPEN BRICK PORCH","yearBuild":"1937","sqft":"160.0"},{"id":0,"description":"GARAGE BRICK/MAS","yearBuild":"1937","sqft":"624.0"},{"id":0,"description":"MAIN AREA","yearBuild":"1937","sqft":"2338.0"}]},{"id":2,"improvement":"MISC IMP","livingArea":" sqft","value":"$11,880","details":[{"id":2,"description":"POOL GUNITE","yearBuild":"1997","sqft":"648.0"},{"id":2,"description":"OPEN FRAME PORCH","yearBuild":"1997","sqft":"200.0"}]}],"lands":[{"landType":"RESIDENTIAL","acres":"0.1384","sqft":"6028.70","marketValue":"$2,750","prodValue":"$0"},{"landType":"RESIDENTIAL","acres":"0.2273","sqft":"9900.00","marketValue":"$4,520","prodValue":"$0"},{"landType":"RESIDENTIAL","acres":"0.2273","sqft":"9900.00","marketValue":"$4,520","prodValue":"$0"}],"coordinates":{"id":"58024","lat":"31.329073","lng":"-94.730416"},"thumbnail":"58024","error":false,"urlOwnerDetails":"https://propaccess.trueautomation.com/clientdb/Property.aspx?cid=71&prop_id=58024","urlLandMap":"https://propaccess.trueautomation.com/mapSearch/?cid=71&p=58024","territoryNumber":"32","phoneNumbers":[{"_id":"","name":"","contacts":[{"phoneNumber":"","address":""}]}]},{"_id":"58015","landId":"58015","ownerId":"171940","allTrue":false,"exemptions":[{"name":"EMPTY","description":"No Tax Exemption Listed."}],"nameDeedSame":false,"addressSame":true,"name":"GIBSON JAMES HERMAN ETUX MAUDELENE J EST","deed":"GIBSON FAMILY LMTD PARTNERSHIP","physicalAddress":"917 TURNER ST","physicalCity":"LUFKIN","physicalState":"TX","physicalZip":"75904","mailingAddress":"917 TURNER ST","mailingCity":"LUFKIN","mailingState":"TX","mailingZip":"75904","ownership":"100.0000000000%","showOwnerProperty":false,"ownerProperty":[{"propertyId":"58015","propertyAddress":"917 TURNER ST LUFKIN, TX 75904-3954","name":"GIBSON JAMES HERMAN ETUX MAUDELENE J EST","price":"$62,490","inTerritory":true}],"improvements":[{"id":0,"improvement":"RESIDENTIAL","livingArea":"1136.0 sqft","value":"$54,000","details":[{"id":0,"description":"MAIN AREA","yearBuild":"1930","sqft":"1136.0"},{"id":0,"description":"OPEN FRAME PORCH","yearBuild":"1930","sqft":"48.0"},{"id":0,"description":"CARPORT","yearBuild":"1930","sqft":"672.0"},{"id":0,"description":"OPEN FRAME PORCH","yearBuild":"1930","sqft":"300.0"}]},{"id":2,"improvement":"MISC IMP","livingArea":" sqft","value":"$310","details":[{"id":2,"description":"SHED FR UTILITY","yearBuild":"1994","sqft":"144.0"}]}],"lands":[{"landType":"RESIDENTIAL","acres":"0.2121","sqft":"9240.00","marketValue":"$8,180","prodValue":"$0"}],"coordinates":{"id":"58015","lat":"31.329820","lng":"-94.731291"},"thumbnail":"58015","error":false,"urlOwnerDetails":"https://propaccess.trueautomation.com/clientdb/Property.aspx?cid=71&prop_id=58015","urlLandMap":"https://propaccess.trueautomation.com/mapSearch/?cid=71&p=58015","territoryNumber":"32","phoneNumbers":[{"_id":"","name":"","contacts":[{"phoneNumber":"","address":""}]}]},{"_id":"58019","landId":"58019","ownerId":"93781","allTrue":false,"exemptions":[{"name":"EMPTY","description":"No Tax Exemption Listed."}],"nameDeedSame":true,"addressSame":false,"name":"GIBSON SAM H ETAL","deed":"GIBSON SAM H ETAL","physicalAddress":"921 TURNER","physicalCity":"","physicalState":"","physicalZip":"","mailingAddress":"UNKNOWN","mailingCity":"","mailingState":"","mailingZip":"","ownership":"100.0000000000%","showOwnerProperty":false,"ownerProperty":[{"propertyId":"58019","propertyAddress":"921 TURNER","name":"GIBSON SAM H ETAL","price":"$640","territory":"32","inTerritory":true}],"improvements":[],"lands":[{"landType":"RESIDENTIAL","acres":"0.0116","sqft":"504.00","marketValue":"$640","prodValue":"$0"}],"coordinates":{"id":"58019","lat":"31.329555","lng":"-94.731172"},"thumbnail":"58019","error":false,"urlOwnerDetails":"https://propaccess.trueautomation.com/clientdb/Property.aspx?cid=71&prop_id=58019","urlLandMap":"https://propaccess.trueautomation.com/mapSearch/?cid=71&p=58019","territoryNumber":"32","phoneNumbers":[{"_id":"","name":"","contacts":[{"phoneNumber":"","address":""}]}]},{"_id":"57999","landId":"57999","ownerId":"160143","allTrue":true,"exemptions":[{"name":"DV4","description":"Disabled Veterans 70% - 100%."},{"name":"OTHER","description":"Exemption not listed."},{"name":"HS","description":"Homestead. (The person on the deed lives at this address.)"}],"nameDeedSame":true,"addressSame":true,"name":"JEFFERY JERRY WAYNE ETUX GAYFER","deed":"JEFFERY JERRY WAYNE ETUX GAYFER","physicalAddress":"916 TURNER ST","physicalCity":"LUFKIN","physicalState":"TX","physicalZip":"75904","mailingAddress":"916 TURNER ST","mailingCity":"LUFKIN","mailingState":"TX","mailingZip":"75904","ownership":"100.0000000000%","showOwnerProperty":false,"ownerProperty":[{"propertyId":"57999","propertyAddress":"916 TURNER ST LUFKIN, TX 75904","name":"JEFFERY JERRY WAYNE ETUX GAYFER","price":"$108,020","territory":"32","inTerritory":true}],"improvements":[{"id":0,"improvement":"RESIDENTIAL","livingArea":"1936.0 sqft","value":"$98,760","details":[{"id":0,"description":"MAIN AREA","yearBuild":"1929","sqft":"1536.0"},{"id":0,"description":"ENCLOSED FR PORCH","yearBuild":"1929","sqft":"152.0"},{"id":0,"description":"OPEN FRAME PORCH","yearBuild":"1929","sqft":"24.0"},{"id":0,"description":"MAIN AREA","yearBuild":"1929","sqft":"400.0"}]},{"id":2,"improvement":"MISC IMP","livingArea":" sqft","value":"$1,000","details":[{"id":2,"description":"CANOPY","yearBuild":"1975","sqft":"600.0"}]}],"lands":[{"landType":"RESIDENTIAL","acres":"0.2273","sqft":"9900.00","marketValue":"$8,260","prodValue":"$0"}],"coordinates":{"id":"57999","lat":"31.329628","lng":"-94.731874"},"thumbnail":"57999","error":false,"urlOwnerDetails":"https://propaccess.trueautomation.com/clientdb/Property.aspx?cid=71&prop_id=57999","urlLandMap":"https://propaccess.trueautomation.com/mapSearch/?cid=71&p=57999","territoryNumber":"32","phoneNumbers":[{"_id":"","name":"","contacts":[{"phoneNumber":"","address":""}]}]},{"_id":"58006","landId":"58006","ownerId":"162244","allTrue":false,"exemptions":[{"name":"DP","description":"Disability."},{"name":"HS","description":"Homestead. (The person on the deed lives at this address.)"}],"nameDeedSame":true,"addressSame":false,"name":"KERR STEVEN","deed":"KERR STEVEN","physicalAddress":"306 PERSHING","physicalCity":"LUFKIN","physicalState":"TX","physicalZip":"75904","mailingAddress":"306 PERSHING AVE","mailingCity":"LUFKIN","mailingState":"TX","mailingZip":"75904","ownership":"100.0000000000%","showOwnerProperty":false,"ownerProperty":[{"propertyId":"58006","propertyAddress":"306 PERSHING LUFKIN, TX 75904-3946","name":"KERR STEVEN","price":"$88,100","territory":"32","inTerritory":true}],"improvements":[{"id":0,"improvement":"RESIDENTIAL","livingArea":"1364.0 sqft","value":"$77,860","details":[{"id":0,"description":"MAIN AREA","yearBuild":"1946","sqft":"1364.0"},{"id":0,"description":"ENCLOSED FR PORCH","yearBuild":"1946","sqft":"84.0"}]},{"id":2,"improvement":"MISC IMP","livingArea":" sqft","value":"$1,100","details":[{"id":2,"description":"GARAGE FR DETACHED","yearBuild":"1946","sqft":"280.0"}]},{"id":4,"improvement":"MISC IMP","livingArea":" sqft","value":"$960","details":[{"id":4,"description":"CARPORT","yearBuild":"1994","sqft":"384.0"}]}],"lands":[{"landType":"RESIDENTIAL","acres":"0.1061","sqft":"4620.00","marketValue":"$4,090","prodValue":"$0"},{"landType":"RESIDENTIAL","acres":"0.1061","sqft":"4620.00","marketValue":"$4,090","prodValue":"$0"}],"coordinates":{"id":"58006","lat":"31.329099","lng":"-94.732019"},"thumbnail":"58006","error":false,"urlOwnerDetails":"https://propaccess.trueautomation.com/clientdb/Property.aspx?cid=71&prop_id=58006","urlLandMap":"https://propaccess.trueautomation.com/mapSearch/?cid=71&p=58006","territoryNumber":"32","phoneNumbers":[{"_id":"","name":"","contacts":[{"phoneNumber":"","address":""}]}]},{"_id":"54122","landId":"54122","ownerId":"158495","allTrue":true,"exemptions":[{"name":"HS","description":"Homestead. (The person on the deed lives at this address.)"}],"nameDeedSame":true,"addressSame":true,"name":"LEBEAU CYNTHIA LOUISE","deed":"LEBEAU CYNTHIA LOUISE","physicalAddress":"410 HOUSE ST","physicalCity":"LUFKIN","physicalState":"TX","physicalZip":"75904","mailingAddress":"410 HOUSE ST","mailingCity":"LUFKIN","mailingState":"TX","mailingZip":"75904","ownership":"100.0000000000%","showOwnerProperty":false,"ownerProperty":[{"propertyId":"54122","propertyAddress":"410 HOUSE ST LUFKIN, TX 75904-4042","name":"LEBEAU CYNTHIA LOUISE","price":"$115,170","territory":"32","inTerritory":true}],"improvements":[{"id":0,"improvement":"RESIDENTIAL","livingArea":"1820.0 sqft","value":"$85,119","details":[{"id":0,"description":"MAIN AREA","yearBuild":"1944","sqft":"1535.0"},{"id":0,"description":"MAIN AREA","yearBuild":"1944","sqft":"285.0"},{"id":0,"description":"OPEN FRAME PORCH","yearBuild":"1944","sqft":"36.0"}]},{"id":2,"improvement":"MISC IMP","livingArea":" sqft","value":"$1,491","details":[{"id":2,"description":"GARAGE FR DETACHED","yearBuild":"1944","sqft":"380.0"}]}],"lands":[{"landType":"RESIDENTIAL","acres":"0.1888","sqft":"8225.00","marketValue":"$7,930","prodValue":"$0"}],"coordinates":{"id":"54122","lat":"31.327725","lng":"-94.732391"},"thumbnail":"54122","error":false,"urlOwnerDetails":"https://propaccess.trueautomation.com/clientdb/Property.aspx?cid=71&prop_id=54122","urlLandMap":"https://propaccess.trueautomation.com/mapSearch/?cid=71&p=54122","territoryNumber":"32","phoneNumbers":[{"_id":"","name":"","contacts":[{"phoneNumber":"","address":""}]}]},{"_id":"58043","landId":"58043","ownerId":"133332","allTrue":false,"exemptions":[{"name":"EMPTY","description":"No Tax Exemption Listed."}],"nameDeedSame":true,"addressSame":false,"name":"LEEDIKER KENNETH GEORGE","deed":"LEEDIKER KENNETH GEORGE","physicalAddress":"PERSHING AVE","physicalCity":"","physicalState":"","physicalZip":"","mailingAddress":"305 HILLENDALE DR","mailingCity":"HATTIESBURG","mailingState":"MS","mailingZip":"39402","ownership":"100.0000000000%","showOwnerProperty":false,"ownerProperty":[{"propertyId":"58043","propertyAddress":"PERSHING AVE","name":"LEEDIKER KENNETH GEORGE","price":"$980","territory":"32","inTerritory":true}],"improvements":[],"lands":[{"landType":"RESIDENTIAL","acres":"0.0227","sqft":"990.00","marketValue":"$490","prodValue":"$0"},{"landType":"RESIDENTIAL","acres":"0.0227","sqft":"990.00","marketValue":"$490","prodValue":"$0"}],"coordinates":{"id":"58043","lat":"31.328042","lng":"-94.732163"},"thumbnail":"58043","error":false,"urlOwnerDetails":"https://propaccess.trueautomation.com/clientdb/Property.aspx?cid=71&prop_id=58043","urlLandMap":"https://propaccess.trueautomation.com/mapSearch/?cid=71&p=58043","territoryNumber":"32","phoneNumbers":[{"_id":"","name":"","contacts":[{"phoneNumber":"","address":""}]}]},{"_id":"58044","landId":"58044","ownerId":"133332","allTrue":false,"exemptions":[{"name":"EMPTY","description":"No Tax Exemption Listed."}],"nameDeedSame":true,"addressSame":false,"name":"LEEDIKER KENNETH GEORGE","deed":"LEEDIKER KENNETH GEORGE","physicalAddress":"PERSHING AVE","physicalCity":"","physicalState":"","physicalZip":"","mailingAddress":"305 HILLENDALE DR","mailingCity":"HATTIESBURG","mailingState":"MS","mailingZip":"39402","ownership":"100.0000000000%","showOwnerProperty":false,"ownerProperty":[{"propertyId":"58044","propertyAddress":"PERSHING AVE","name":"LEEDIKER KENNETH GEORGE","price":"$980","territory":"32","inTerritory":true}],"improvements":[],"lands":[{"landType":"RESIDENTIAL","acres":"0.0455","sqft":"1980.00","marketValue":"$980","prodValue":"$0"}],"coordinates":{"id":"58044","lat":"31.328203","lng":"-94.732235"},"thumbnail":"58044","error":false,"urlOwnerDetails":"https://propaccess.trueautomation.com/clientdb/Property.aspx?cid=71&prop_id=58044","urlLandMap":"https://propaccess.trueautomation.com/mapSearch/?cid=71&p=58044","territoryNumber":"32","phoneNumbers":[{"_id":"","name":"","contacts":[{"phoneNumber":"","address":""}]}]},{"_id":"58045","landId":"58045","ownerId":"133332","allTrue":false,"exemptions":[{"name":"EMPTY","description":"No Tax Exemption Listed."}],"nameDeedSame":true,"addressSame":false,"name":"LEEDIKER KENNETH GEORGE","deed":"LEEDIKER KENNETH GEORGE","physicalAddress":"403/405 PERSHING AVE","physicalCity":"","physicalState":"","physicalZip":"","mailingAddress":"305 HILLENDALE DR","mailingCity":"HATTIESBURG","mailingState":"MS","mailingZip":"39402","ownership":"100.0000000000%","showOwnerProperty":false,"ownerProperty":[{"propertyId":"58045","propertyAddress":"403/405 PERSHING AVE","name":"LEEDIKER KENNETH GEORGE","price":"$83,670","territory":"32","inTerritory":true}],"improvements":[{"id":0,"improvement":"RESIDENTIAL","livingArea":"1383.0 sqft","value":"$81,710","details":[{"id":0,"description":"MAIN AREA","yearBuild":"1969","sqft":"1383.0"},{"id":0,"description":"OPEN BRICK PORCH","yearBuild":"1969","sqft":"30.0"},{"id":0,"description":"MASONRY UTILITY","yearBuild":"1969","sqft":"72.0"},{"id":0,"description":"CANOPY","yearBuild":"1969","sqft":"240.0"}]}],"lands":[{"landType":"APARTMENT","acres":"0.0455","sqft":"1980.00","marketValue":"$1,960","prodValue":"$0"}],"coordinates":{"id":"58045","lat":"31.328370","lng":"-94.732310"},"thumbnail":"58045","error":false,"urlOwnerDetails":"https://propaccess.trueautomation.com/clientdb/Property.aspx?cid=71&prop_id=58045","urlLandMap":"https://propaccess.trueautomation.com/mapSearch/?cid=71&p=58045","territoryNumber":"32","phoneNumbers":[{"_id":"","name":"","contacts":[{"phoneNumber":"","address":""}]}]},{"_id":"58046","landId":"58046","ownerId":"133332","allTrue":false,"exemptions":[{"name":"OTHER","description":"Exemption not listed."},{"name":"HS","description":"Homestead. (The person on the deed lives at this address.)"}],"nameDeedSame":true,"addressSame":false,"name":"LEEDIKER KENNETH GEORGE","deed":"LEEDIKER KENNETH GEORGE","physicalAddress":"401 PERSHING AVE","physicalCity":"LUFKIN","physicalState":"TX","physicalZip":"75904","mailingAddress":"305 HILLENDALE DR","mailingCity":"HATTIESBURG","mailingState":"MS","mailingZip":"39402","ownership":"100.0000000000%","showOwnerProperty":false,"ownerProperty":[{"propertyId":"58046","propertyAddress":"401 PERSHING AVE LUFKIN, TX 75904-3948","name":"LEEDIKER KENNETH GEORGE","price":"$107,890","territory":"32","inTerritory":true}],"improvements":[{"id":0,"improvement":"RESIDENTIAL","livingArea":"1860.0 sqft","value":"$105,930","details":[{"id":0,"description":"MAIN AREA","yearBuild":"1969","sqft":"1860.0"},{"id":0,"description":"OPEN BRICK PORCH","yearBuild":"1969","sqft":"60.0"},{"id":0,"description":"CANOPY","yearBuild":"1969","sqft":"819.0"}]}],"lands":[{"landType":"RESIDENTIAL","acres":"0.0455","sqft":"1980.00","marketValue":"$1,960","prodValue":"$0"}],"coordinates":{"id":"58046","lat":"31.328547","lng":"-94.732345"},"thumbnail":"58046","error":false,"urlOwnerDetails":"https://propaccess.trueautomation.com/clientdb/Property.aspx?cid=71&prop_id=58046","urlLandMap":"https://propaccess.trueautomation.com/mapSearch/?cid=71&p=58046","territoryNumber":"32","phoneNumbers":[{"_id":"","name":"","contacts":[{"phoneNumber":"","address":""}]}]},{"_id":"58048","landId":"58048","ownerId":"20913","allTrue":false,"exemptions":[{"name":"EMPTY","description":"No Tax Exemption Listed."}],"nameDeedSame":true,"addressSame":false,"name":"LILLARD ANA ELISE","deed":"LILLARD ANA ELISE","physicalAddress":"empty","physicalCity":"","physicalState":"","physicalZip":"","mailingAddress":"400 HOUSE ST","mailingCity":"LUFKIN","mailingState":"TX","mailingZip":"75904","ownership":"100.0000000000%","showOwnerProperty":false,"ownerProperty":[{"propertyId":"58048","propertyAddress":"empty","name":"LILLARD ANA ELISE","price":"$2,640","territory":"32","inTerritory":true}],"improvements":[],"lands":[{"landType":"RESIDENTIAL","acres":"0.0631","sqft":"2750.00","marketValue":"$2,640","prodValue":"$0"}],"coordinates":{"id":"58048","lat":"31.327642","lng":"-94.731983"},"thumbnail":"58048","error":false,"urlOwnerDetails":"https://propaccess.trueautomation.com/clientdb/Property.aspx?cid=71&prop_id=58048","urlLandMap":"https://propaccess.trueautomation.com/mapSearch/?cid=71&p=58048","territoryNumber":"32","phoneNumbers":[{"_id":"","name":"","contacts":[{"phoneNumber":"","address":""}]}]},{"_id":"58049","landId":"58049","ownerId":"20913","allTrue":false,"exemptions":[{"name":"EMPTY","description":"No Tax Exemption Listed."}],"nameDeedSame":true,"addressSame":false,"name":"LILLARD ANA ELISE","deed":"LILLARD ANA ELISE","physicalAddress":"empty","physicalCity":"","physicalState":"","physicalZip":"","mailingAddress":"400 HOUSE ST","mailingCity":"LUFKIN","mailingState":"TX","mailingZip":"75904","ownership":"100.0000000000%","showOwnerProperty":false,"ownerProperty":[{"propertyId":"58049","propertyAddress":"empty","name":"LILLARD ANA ELISE","price":"$2,640","territory":"32","inTerritory":true}],"improvements":[],"lands":[{"landType":"RESIDENTIAL","acres":"0.0631","sqft":"2750.00","marketValue":"$2,640","prodValue":"$0"}],"coordinates":{"id":"58049","lat":"31.327767","lng":"-94.732040"},"thumbnail":"58049","error":false,"urlOwnerDetails":"https://propaccess.trueautomation.com/clientdb/Property.aspx?cid=71&prop_id=58049","urlLandMap":"https://propaccess.trueautomation.com/mapSearch/?cid=71&p=58049","territoryNumber":"32","phoneNumbers":[{"_id":"","name":"","contacts":[{"phoneNumber":"","address":""}]}]},{"_id":"58050","landId":"58050","ownerId":"20913","allTrue":false,"exemptions":[{"name":"EMPTY","description":"No Tax Exemption Listed."}],"nameDeedSame":true,"addressSame":false,"name":"LILLARD ANA ELISE","deed":"LILLARD ANA ELISE","physicalAddress":"empty","physicalCity":"","physicalState":"","physicalZip":"","mailingAddress":"400 HOUSE ST","mailingCity":"LUFKIN","mailingState":"TX","mailingZip":"75904","ownership":"100.0000000000%","showOwnerProperty":false,"ownerProperty":[{"propertyId":"58050","propertyAddress":"empty","name":"LILLARD ANA ELISE","price":"$2,640","territory":"32","inTerritory":true}],"improvements":[],"lands":[{"landType":"RESIDENTIAL","acres":"0.0631","sqft":"2750.00","marketValue":"$2,640","prodValue":"$0"}],"coordinates":{"id":"58050","lat":"31.327895","lng":"-94.732097"},"thumbnail":"58050","error":false,"urlOwnerDetails":"https://propaccess.trueautomation.com/clientdb/Property.aspx?cid=71&prop_id=58050","urlLandMap":"https://propaccess.trueautomation.com/mapSearch/?cid=71&p=58050","territoryNumber":"32","phoneNumbers":[{"_id":"","name":"","contacts":[{"phoneNumber":"","address":""}]}]},{"_id":"54121","landId":"54121","ownerId":"20913","allTrue":true,"exemptions":[{"name":"HS","description":"Homestead. (The person on the deed lives at this address.)"}],"nameDeedSame":true,"addressSame":true,"name":"LILLARD ANA ELISE","deed":"LILLARD ANA ELISE","physicalAddress":"400 HOUSE ST","physicalCity":"LUFKIN","physicalState":"TX","physicalZip":"75904","mailingAddress":"400 HOUSE ST","mailingCity":"LUFKIN","mailingState":"TX","mailingZip":"75904","ownership":"100.0000000000%","showOwnerProperty":false,"ownerProperty":[{"propertyId":"54121","propertyAddress":"400 HOUSE ST LUFKIN, TX 75904-4042","name":"LILLARD ANA ELISE","price":"$126,820","territory":"32","inTerritory":true}],"improvements":[{"id":0,"improvement":"RESIDENTIAL","livingArea":"1723.0 sqft","value":"$119,150","details":[{"id":0,"description":"MAIN AREA","yearBuild":"1940","sqft":"1723.0"},{"id":0,"description":"OPEN BRICK PORCH","yearBuild":"1940","sqft":"132.0"},{"id":0,"description":"GARAGE BRICK/MAS","yearBuild":"1940","sqft":"400.0"},{"id":0,"description":"MASONRY UTILITY","yearBuild":"1940","sqft":"160.0"}]}],"lands":[{"landType":"RESIDENTIAL","acres":"0.1736","sqft":"7562.00","marketValue":"$7,670","prodValue":"$0"}],"coordinates":{"id":"54121","lat":"31.327760","lng":"-94.732179"},"thumbnail":"54121","error":false,"urlOwnerDetails":"https://propaccess.trueautomation.com/clientdb/Property.aspx?cid=71&prop_id=54121","urlLandMap":"https://propaccess.trueautomation.com/mapSearch/?cid=71&p=54121","territoryNumber":"32","phoneNumbers":[{"_id":"","name":"","contacts":[{"phoneNumber":"","address":""}]}]},{"_id":"54150","landId":"54150","ownerId":"102200","allTrue":false,"exemptions":[{"name":"EMPTY","description":"No Tax Exemption Listed."}],"nameDeedSame":true,"addressSame":false,"name":"LOPEZ FELIPE D ETUX MARIA CAROLINA","deed":"LOPEZ FELIPE D ETUX MARIA CAROLINA","physicalAddress":"PARK LANE","physicalCity":"","physicalState":"","physicalZip":"","mailingAddress":"6086 FM 841","mailingCity":"LUFKIN","mailingState":"TX","mailingZip":"75901","ownership":"100.0000000000%","showOwnerProperty":false,"ownerProperty":[{"propertyId":"54150","propertyAddress":"PARK LANE","name":"LOPEZ FELIPE D ETUX MARIA CAROLINA","price":"$1,830","territory":"32","inTerritory":true}],"improvements":[],"lands":[{"landType":"RESIDENTIAL","acres":"0.3444","sqft":"15000.00","marketValue":"$1,830","prodValue":"$0"}],"coordinates":{"id":"54150","lat":"31.326516","lng":"-94.733451"},"thumbnail":"54150","error":false,"urlOwnerDetails":"https://propaccess.trueautomation.com/clientdb/Property.aspx?cid=71&prop_id=54150","urlLandMap":"https://propaccess.trueautomation.com/mapSearch/?cid=71&p=54150","territoryNumber":"32","phoneNumbers":[{"_id":"","name":"","contacts":[{"phoneNumber":"","address":""}]}]},{"_id":"54151","landId":"54151","ownerId":"102200","allTrue":false,"exemptions":[{"name":"EMPTY","description":"No Tax Exemption Listed."}],"nameDeedSame":true,"addressSame":false,"name":"LOPEZ FELIPE D ETUX MARIA CAROLINA","deed":"LOPEZ FELIPE D ETUX MARIA CAROLINA","physicalAddress":"508 PARK LANE","physicalCity":"LUFKIN","physicalState":"TX","physicalZip":"75904","mailingAddress":"6086 FM 841","mailingCity":"LUFKIN","mailingState":"TX","mailingZip":"75901","ownership":"100.0000000000%","showOwnerProperty":false,"ownerProperty":[{"propertyId":"54151","propertyAddress":"508 PARK LANE LUFKIN, TX 75904-4034","name":"LOPEZ FELIPE D ETUX MARIA CAROLINA","price":"$53,780","territory":"32","inTerritory":true}],"improvements":[{"id":0,"improvement":"RESIDENTIAL","livingArea":"1232.0 sqft","value":"$49,010","details":[{"id":0,"description":"MAIN AREA","yearBuild":"1939","sqft":"1232.0"},{"id":0,"description":"OPEN FRAME PORCH","yearBuild":"1939","sqft":"72.0"}]},{"id":2,"improvement":"MISC IMP","livingArea":" sqft","value":"$680","details":[{"id":2,"description":"GARAGE FR DETACHED","yearBuild":"1939","sqft":"400.0"}]}],"lands":[{"landType":"RESIDENTIAL","acres":"0.1928","sqft":"8400.00","marketValue":"$4,090","prodValue":"$0"}],"coordinates":{"id":"54151","lat":"31.326425","lng":"-94.733746"},"thumbnail":"54151","error":false,"urlOwnerDetails":"https://propaccess.trueautomation.com/clientdb/Property.aspx?cid=71&prop_id=54151","urlLandMap":"https://propaccess.trueautomation.com/mapSearch/?cid=71&p=54151","territoryNumber":"32","phoneNumbers":[{"_id":"","name":"","contacts":[{"phoneNumber":"","address":""}]}]},{"_id":"58016","landId":"58016","ownerId":"148670","allTrue":false,"exemptions":[{"name":"EMPTY","description":"No Tax Exemption Listed."}],"nameDeedSame":true,"addressSame":false,"name":"LOVERIN KATHERINE BELL","deed":"LOVERIN KATHERINE BELL","physicalAddress":"921 TURNER","physicalCity":"","physicalState":"","physicalZip":"","mailingAddress":"109 GOLDENROD CT","mailingCity":"LUFKIN","mailingState":"TX","mailingZip":"75904","ownership":"100.0000000000%","showOwnerProperty":false,"ownerProperty":[{"propertyId":"58016","propertyAddress":"921 TURNER","name":"LOVERIN KATHERINE BELL","price":"$64,880","territory":"32","inTerritory":true}],"improvements":[{"id":0,"improvement":"RESIDENTIAL","livingArea":"1096.0 sqft","value":"$56,700","details":[{"id":0,"description":"MAIN AREA","yearBuild":"1925","sqft":"1096.0"},{"id":0,"description":"OPEN FRAME PORCH","yearBuild":"1925","sqft":"60.0"}]}],"lands":[{"landType":"RESIDENTIAL","acres":"0.2121","sqft":"9240.00","marketValue":"$8,180","prodValue":"$0"}],"coordinates":{"id":"58016","lat":"31.329656","lng":"-94.731216"},"thumbnail":"58016","error":false,"urlOwnerDetails":"https://propaccess.trueautomation.com/clientdb/Property.aspx?cid=71&prop_id=58016","urlLandMap":"https://propaccess.trueautomation.com/mapSearch/?cid=71&p=58016","territoryNumber":"32","phoneNumbers":[{"_id":"","name":"","contacts":[{"phoneNumber":"","address":""}]}]},{"_id":"58021","landId":"58021","ownerId":"147256","allTrue":true,"exemptions":[{"name":"HS","description":"Homestead. (The person on the deed lives at this address.)"}],"nameDeedSame":true,"addressSame":true,"name":"MCCLESKEY TROY ETUX TRACIE","deed":"MCCLESKEY TROY ETUX TRACIE","physicalAddress":"914 S RAGUET ST","physicalCity":"LUFKIN","physicalState":"TX","physicalZip":"75904","mailingAddress":"914 S RAGUET ST","mailingCity":"LUFKIN","mailingState":"TX","mailingZip":"75904","ownership":"100.0000000000%","showOwnerProperty":false,"ownerProperty":[{"propertyId":"58021","propertyAddress":"914 S RAGUET ST LUFKIN, TX 75904-4025","name":"MCCLESKEY TROY ETUX TRACIE","price":"$155,120","territory":"32","inTerritory":true}],"improvements":[{"id":0,"improvement":"RESIDENTIAL","livingArea":"2003.0 sqft","value":"$134,800","details":[{"id":0,"description":"MAIN AREA","yearBuild":"1940","sqft":"2003.0"},{"id":0,"description":"CARPORT","yearBuild":"1940","sqft":"260.0"},{"id":0,"description":"OPEN FRAME PORCH","yearBuild":"1940","sqft":"252.0"},{"id":0,"description":"OPEN FRAME PORCH","yearBuild":"1940","sqft":"237.0"}]},{"id":2,"improvement":"RESIDENTIAL","livingArea":" sqft","value":"$5,210","details":[{"id":2,"description":"FRAME UTILITY","yearBuild":"1940","sqft":"288.0"}]},{"id":4,"improvement":"RESIDENTIAL","livingArea":" sqft","value":"$5,210","details":[{"id":4,"description":"FRAME UTILITY","yearBuild":"1940","sqft":"288.0"}]}],"lands":[{"landType":"RESIDENTIAL","acres":"0.2273","sqft":"9900.00","marketValue":"$6,600","prodValue":"$0"},{"landType":"RESIDENTIAL","acres":"0.1136","sqft":"4950.00","marketValue":"$3,300","prodValue":"$0"}],"coordinates":{"id":"58021","lat":"31.328723","lng":"-94.730268"},"thumbnail":"58021","error":false,"urlOwnerDetails":"https://propaccess.trueautomation.com/clientdb/Property.aspx?cid=71&prop_id=58021","urlLandMap":"https://propaccess.trueautomation.com/mapSearch/?cid=71&p=58021","territoryNumber":"32","phoneNumbers":[{"_id":"","name":"","contacts":[{"phoneNumber":"","address":""}]}]},{"_id":"57998","landId":"57998","ownerId":"37110","allTrue":true,"exemptions":[{"name":"HS","description":"Homestead. (The person on the deed lives at this address.)"}],"nameDeedSame":true,"addressSame":true,"name":"MEDINA OLGA LIDIA DURON","deed":"MEDINA OLGA LIDIA DURON","physicalAddress":"920 TURNER ST","physicalCity":"LUFKIN","physicalState":"TX","physicalZip":"75904","mailingAddress":"920 TURNER ST","mailingCity":"LUFKIN","mailingState":"TX","mailingZip":"75904","ownership":"100.0000000000%","showOwnerProperty":false,"ownerProperty":[{"propertyId":"57998","propertyAddress":"920 TURNER ST LUFKIN, TX 75904-3934","name":"MEDINA OLGA LIDIA DURON","price":"$80,400","territory":"32","inTerritory":true}],"improvements":[{"id":0,"improvement":"RESIDENTIAL","livingArea":"1410.0 sqft","value":"$71,510","details":[{"id":0,"description":"MAIN AREA","yearBuild":"1940","sqft":"1410.0"}]},{"id":2,"improvement":"MISC IMP","livingArea":" sqft","value":"$630","details":[{"id":2,"description":"GARAGE FR DETACHED","yearBuild":"1940","sqft":"320.0"}]}],"lands":[{"landType":"RESIDENTIAL","acres":"0.2273","sqft":"9900.00","marketValue":"$8,260","prodValue":"$0"}],"coordinates":{"id":"57998","lat":"31.329460","lng":"-94.731800"},"thumbnail":"57998","error":false,"urlOwnerDetails":"https://propaccess.trueautomation.com/clientdb/Property.aspx?cid=71&prop_id=57998","urlLandMap":"https://propaccess.trueautomation.com/mapSearch/?cid=71&p=57998","territoryNumber":"32","phoneNumbers":[{"_id":"c0cd61d6e72a86593de635df78cd20d5","name":"Medina, Gabriel","contacts":[{"phoneNumber":"936-899-5111","address":"920 Turner St Lufkin\n"}]}]},{"_id":"58027","landId":"58027","ownerId":"13575","allTrue":true,"exemptions":[{"name":"HS","description":"Homestead. (The person on the deed lives at this address.)"}],"nameDeedSame":true,"addressSame":true,"name":"NIX KEVIN W ETUX PAMELA L","deed":"NIX KEVIN W ETUX PAMELA L","physicalAddress":"1005 TURNER ST","physicalCity":"LUFKIN","physicalState":"TX","physicalZip":"75904","mailingAddress":"1005 TURNER ST","mailingCity":"LUFKIN","mailingState":"TX","mailingZip":"75904","ownership":"100.0000000000%","showOwnerProperty":false,"ownerProperty":[{"propertyId":"58027","propertyAddress":"1005 TURNER ST LUFKIN, TX 75904-4023","name":"NIX KEVIN W ETUX PAMELA L","price":"$192,300","territory":"32","inTerritory":true}],"improvements":[{"id":0,"improvement":"RESIDENTIAL","livingArea":"2754.0 sqft","value":"$173,810","details":[{"id":0,"description":"MAIN AREA","yearBuild":"1965","sqft":"2754.0"},{"id":0,"description":"GARAGE BRICK/MAS","yearBuild":"1965","sqft":"524.0"},{"id":0,"description":"MASONRY UTILITY","yearBuild":"1965","sqft":"180.0"}]},{"id":2,"improvement":"MISC IMP","livingArea":" sqft","value":"$1,260","details":[{"id":2,"description":"CANOPY","yearBuild":"1977","sqft":"780.0"}]},{"id":4,"improvement":"MISC IMP","livingArea":" sqft","value":"$5,140","details":[{"id":4,"description":"PREFAB STEEL BLDG","yearBuild":"1997","sqft":"720.0"}]}],"lands":[{"landType":"RESIDENTIAL","acres":"0.2273","sqft":"9900.00","marketValue":"$4,030","prodValue":"$0"},{"landType":"RESIDENTIAL","acres":"0.2273","sqft":"9900.00","marketValue":"$4,030","prodValue":"$0"},{"landType":"RESIDENTIAL","acres":"0.2273","sqft":"9900.00","marketValue":"$4,030","prodValue":"$0"}],"coordinates":{"id":"58027","lat":"31.328716","lng":"-94.730773"},"thumbnail":"58027","error":false,"urlOwnerDetails":"https://propaccess.trueautomation.com/clientdb/Property.aspx?cid=71&prop_id=58027","urlLandMap":"https://propaccess.trueautomation.com/mapSearch/?cid=71&p=58027","territoryNumber":"32","phoneNumbers":[{"_id":"da13068e82e1223daa4e31c81d304edd","name":"Nix, Kevin","contacts":[{"phoneNumber":"936-632-4438","address":"1005 Turner St Lufkin\n"}]}]},{"_id":"54123","landId":"54123","ownerId":"78614","allTrue":true,"exemptions":[{"name":"HS","description":"Homestead. (The person on the deed lives at this address.)"},{"name":"OTHER","description":"Exemption not listed."}],"nameDeedSame":true,"addressSame":true,"name":"PARHAM CHARLES MARVIN","deed":"PARHAM CHARLES MARVIN","physicalAddress":"414 HOUSE ST","physicalCity":"LUFKIN","physicalState":"TX","physicalZip":"75904","mailingAddress":"414 HOUSE ST","mailingCity":"LUFKIN","mailingState":"TX","mailingZip":"75904","ownership":"100.0000000000%","showOwnerProperty":false,"ownerProperty":[{"propertyId":"54123","propertyAddress":"414 HOUSE ST LUFKIN, TX 75904-4042","name":"PARHAM CHARLES MARVIN","price":"$100,880","territory":"32","inTerritory":true}],"improvements":[{"id":0,"improvement":"RESIDENTIAL","livingArea":"1610.0 sqft","value":"$85,990","details":[{"id":0,"description":"MAIN AREA","yearBuild":"1941","sqft":"1210.0"},{"id":0,"description":"MAIN AREA","yearBuild":"1941","sqft":"400.0"},{"id":0,"description":"OPEN FRAME PORCH","yearBuild":"1941","sqft":"128.0"}]},{"id":2,"improvement":"RESIDENTIAL","livingArea":" sqft","value":"$6,820","details":[{"id":2,"description":"FRAME GARAGE","yearBuild":"1941","sqft":"324.0"}]},{"id":4,"improvement":"RESIDENTIAL","livingArea":" sqft","value":"$340","details":[{"id":4,"description":"CARPORT","yearBuild":"1941","sqft":"144.0"}]}],"lands":[{"landType":"RESIDENTIAL","acres":"0.1768","sqft":"7700.00","marketValue":"$7,730","prodValue":"$0"}],"coordinates":{"id":"54123","lat":"31.327659","lng":"-94.732611"},"thumbnail":"54123","error":false,"urlOwnerDetails":"https://propaccess.trueautomation.com/clientdb/Property.aspx?cid=71&prop_id=54123","urlLandMap":"https://propaccess.trueautomation.com/mapSearch/?cid=71&p=54123","territoryNumber":"32","phoneNumbers":[{"_id":"fcdca4093e404d731cae5b80376b734b","name":"Parham, Charles","contacts":[{"phoneNumber":"936-632-1755","address":"414 House St Lufkin\n"}]}]},{"_id":"58001","landId":"58001","ownerId":"118549","allTrue":false,"exemptions":[{"name":"EMPTY","description":"No Tax Exemption Listed."}],"nameDeedSame":true,"addressSame":false,"name":"PATEL PRASHANT R","deed":"PATEL PRASHANT R","physicalAddress":"empty","physicalCity":"","physicalState":"","physicalZip":"","mailingAddress":"PO BOX 151106","mailingCity":"LUFKIN","mailingState":"TX","mailingZip":"75915","ownership":"100.0000000000%","showOwnerProperty":false,"ownerProperty":[{"propertyId":"58001","propertyAddress":"empty","name":"PATEL PRASHANT R","price":"$5,900","territory":"32","inTerritory":true}],"improvements":[],"lands":[{"landType":"RESIDENTIAL","acres":"0.2700","sqft":"11761.00","marketValue":"$5,900","prodValue":"$0"}],"coordinates":{"id":"58001","lat":"31.329424","lng":"-94.732200"},"thumbnail":"58001","error":false,"urlOwnerDetails":"https://propaccess.trueautomation.com/clientdb/Property.aspx?cid=71&prop_id=58001","urlLandMap":"https://propaccess.trueautomation.com/mapSearch/?cid=71&p=58001","territoryNumber":"32","phoneNumbers":[{"_id":"","name":"","contacts":[{"phoneNumber":"","address":""}]}]},{"_id":"58066","landId":"58066","ownerId":"82556","allTrue":false,"exemptions":[{"name":"OTHER","description":"Exemption not listed."},{"name":"HS","description":"Homestead. (The person on the deed lives at this address.)"}],"nameDeedSame":false,"addressSame":true,"name":"PITTS DE JUANA MCCORMICK","deed":"empty","physicalAddress":"210 HOUSE ST","physicalCity":"LUFKIN","physicalState":"TX","physicalZip":"75904","mailingAddress":"210 HOUSE ST","mailingCity":"LUFKIN","mailingState":"TX","mailingZip":"75904","ownership":"100.0000000000%","showOwnerProperty":false,"ownerProperty":[{"propertyId":"58066","propertyAddress":"210 HOUSE ST LUFKIN, TX 75904-4019","name":"PITTS DE JUANA MCCORMICK","price":"$110,800","territory":"32","inTerritory":true}],"improvements":[{"id":0,"improvement":"RESIDENTIAL","livingArea":"2248.0 sqft","value":"$99,580","details":[{"id":0,"description":"MAIN AREA","yearBuild":"1955","sqft":"2248.0"},{"id":0,"description":"CARPORT","yearBuild":"1955","sqft":"423.0"},{"id":0,"description":"FRAME UTILITY","yearBuild":"1955","sqft":"70.0"}]}],"lands":[{"landType":"RESIDENTIAL","acres":"0.1722","sqft":"7500.00","marketValue":"$3,740","prodValue":"$0"},{"landType":"RESIDENTIAL","acres":"0.1722","sqft":"7500.00","marketValue":"$3,740","prodValue":"$0"},{"landType":"RESIDENTIAL","acres":"0.1722","sqft":"7500.00","marketValue":"$3,740","prodValue":"$0"}],"coordinates":{"id":"58066","lat":"31.328272","lng":"-94.730573"},"thumbnail":"58066","error":false,"urlOwnerDetails":"https://propaccess.trueautomation.com/clientdb/Property.aspx?cid=71&prop_id=58066","urlLandMap":"https://propaccess.trueautomation.com/mapSearch/?cid=71&p=58066","territoryNumber":"32","phoneNumbers":[{"_id":"aed1aabc80042ca9a56a7335d397dcdf","name":"Pitts, Rodney","contacts":[{"phoneNumber":"936-637-6189","address":"210 House Ave Lufkin\n"}]}]},{"_id":"58026","landId":"58026","ownerId":"85869","allTrue":true,"exemptions":[{"name":"OTHER","description":"Exemption not listed."},{"name":"HS","description":"Homestead. (The person on the deed lives at this address.)"}],"nameDeedSame":true,"addressSame":true,"name":"POLAND SHARON R","deed":"POLAND SHARON R","physicalAddress":"1001 TURNER ST","physicalCity":"LUFKIN","physicalState":"TX","physicalZip":"75904","mailingAddress":"1001 TURNER ST","mailingCity":"LUFKIN","mailingState":"TX","mailingZip":"75904","ownership":"100.0000000000%","showOwnerProperty":false,"ownerProperty":[{"propertyId":"58026","propertyAddress":"1001 TURNER ST LUFKIN, TX 75904-4023","name":"POLAND SHARON R","price":"$132,990","territory":"32","inTerritory":true}],"improvements":[{"id":0,"improvement":"RESIDENTIAL","livingArea":"1843.0 sqft","value":"$114,930","details":[{"id":0,"description":"MAIN AREA","yearBuild":"1948","sqft":"1843.0"},{"id":0,"description":"OPEN BRICK PORCH","yearBuild":"1948","sqft":"200.0"},{"id":0,"description":"OPEN BRICK PORCH","yearBuild":"1948","sqft":"8.0"}]},{"id":2,"improvement":"RESIDENTIAL","livingArea":" sqft","value":"$9,800","details":[{"id":2,"description":"GARAGE BRICK/MAS","yearBuild":"1948","sqft":"704.0"}]}],"lands":[{"landType":"RESIDENTIAL","acres":"0.2273","sqft":"9900.00","marketValue":"$8,260","prodValue":"$0"}],"coordinates":{"id":"58026","lat":"31.329034","lng":"-94.730920"},"thumbnail":"58026","error":false,"urlOwnerDetails":"https://propaccess.trueautomation.com/clientdb/Property.aspx?cid=71&prop_id=58026","urlLandMap":"https://propaccess.trueautomation.com/mapSearch/?cid=71&p=58026","territoryNumber":"32","phoneNumbers":[{"_id":"","name":"","contacts":[{"phoneNumber":"","address":""}]}]},{"_id":"54148","landId":"54148","ownerId":"152755","allTrue":false,"exemptions":[{"name":"EMPTY","description":"No Tax Exemption Listed."}],"nameDeedSame":true,"addressSame":false,"name":"PULLEN MICHELLE WILSON ETVIR GREGORY J","deed":"PULLEN MICHELLE WILSON ETVIR GREGORY J","physicalAddress":"empty","physicalCity":"","physicalState":"","physicalZip":"","mailingAddress":"1006 IDYLWOOD","mailingCity":"LUFKIN","mailingState":"TX","mailingZip":"75904","ownership":"100.0000000000%","showOwnerProperty":false,"ownerProperty":[{"propertyId":"54148","propertyAddress":"empty","name":"PULLEN MICHELLE WILSON ETVIR GREGORY J","price":"$3,100","territory":"32","inTerritory":true}],"improvements":[],"lands":[{"landType":"RESIDENTIAL","acres":"0.1205","sqft":"5250.00","marketValue":"$3,100","prodValue":"$0"}],"coordinates":{"id":"54148","lat":"31.326855","lng":"-94.733251"},"thumbnail":"54148","error":false,"urlOwnerDetails":"https://propaccess.trueautomation.com/clientdb/Property.aspx?cid=71&prop_id=54148","urlLandMap":"https://propaccess.trueautomation.com/mapSearch/?cid=71&p=54148","territoryNumber":"32","phoneNumbers":[{"_id":"","name":"","contacts":[{"phoneNumber":"","address":""}]}]},{"_id":"54147","landId":"54147","ownerId":"152755","allTrue":false,"exemptions":[{"name":"EMPTY","description":"No Tax Exemption Listed."}],"nameDeedSame":true,"addressSame":false,"name":"PULLEN MICHELLE WILSON ETVIR GREGORY J","deed":"PULLEN MICHELLE WILSON ETVIR GREGORY J","physicalAddress":"empty","physicalCity":"","physicalState":"","physicalZip":"","mailingAddress":"1006 IDYLWOOD","mailingCity":"LUFKIN","mailingState":"TX","mailingZip":"75904","ownership":"100.0000000000%","showOwnerProperty":false,"ownerProperty":[{"propertyId":"54147","propertyAddress":"empty","name":"PULLEN MICHELLE WILSON ETVIR GREGORY J","price":"$2,890","territory":"32","inTerritory":true}],"improvements":[],"lands":[{"landType":"RESIDENTIAL","acres":"0.1125","sqft":"4900.00","marketValue":"$2,890","prodValue":"$0"}],"coordinates":{"id":"54147","lat":"31.327012","lng":"-94.733324"},"thumbnail":"54147","error":false,"urlOwnerDetails":"https://propaccess.trueautomation.com/clientdb/Property.aspx?cid=71&prop_id=54147","urlLandMap":"https://propaccess.trueautomation.com/mapSearch/?cid=71&p=54147","territoryNumber":"32","phoneNumbers":[{"_id":"","name":"","contacts":[{"phoneNumber":"","address":""}]}]},{"_id":"54149","landId":"54149","ownerId":"152755","allTrue":true,"exemptions":[{"name":"HS","description":"Homestead. (The person on the deed lives at this address.)"}],"nameDeedSame":true,"addressSame":true,"name":"PULLEN MICHELLE WILSON ETVIR GREGORY J","deed":"PULLEN MICHELLE WILSON ETVIR GREGORY J","physicalAddress":"1006 IDYLWOOD","physicalCity":"LUFKIN","physicalState":"TX","physicalZip":"75904","mailingAddress":"1006 IDYLWOOD","mailingCity":"LUFKIN","mailingState":"TX","mailingZip":"75904","ownership":"100.0000000000%","showOwnerProperty":false,"ownerProperty":[{"propertyId":"54149","propertyAddress":"1006 IDYLWOOD LUFKIN, TX 75904-4051","name":"PULLEN MICHELLE WILSON ETVIR GREGORY J","price":"$121,260","territory":"32","inTerritory":true}],"improvements":[{"id":0,"improvement":"RESIDENTIAL","livingArea":"1200.0 sqft","value":"$114,020","details":[{"id":0,"description":"MAIN AREA","yearBuild":"2005","sqft":"1200.0"},{"id":0,"description":"OPEN FRAME PORCH","yearBuild":"2005","sqft":"90.0"},{"id":0,"description":"FRAME GARAGE","yearBuild":"2005","sqft":"480.0"},{"id":0,"description":"OPEN FRAME PORCH","yearBuild":"2005","sqft":"96.0"}]},{"id":2,"improvement":"MISC IMP","livingArea":" sqft","value":"$2,500","details":[{"id":2,"description":"PREFAB STEEL BLDG","yearBuild":"2007","sqft":"288.0"}]}],"lands":[{"landType":"RESIDENTIAL","acres":"0.1846","sqft":"8040.00","marketValue":"$4,740","prodValue":"$0"}],"coordinates":{"id":"54149","lat":"31.326613","lng":"-94.733165"},"thumbnail":"54149","error":false,"urlOwnerDetails":"https://propaccess.trueautomation.com/clientdb/Property.aspx?cid=71&prop_id=54149","urlLandMap":"https://propaccess.trueautomation.com/mapSearch/?cid=71&p=54149","territoryNumber":"32","phoneNumbers":[{"_id":"","name":"","contacts":[{"phoneNumber":"","address":""}]}]},{"_id":"58052","landId":"58052","ownerId":"32787","allTrue":true,"exemptions":[{"name":"HS","description":"Homestead. (The person on the deed lives at this address.)"},{"name":"OTHER","description":"Exemption not listed."}],"nameDeedSame":true,"addressSame":true,"name":"RAMSEY JOHN MARK","deed":"RAMSEY JOHN MARK","physicalAddress":"302 HOUSE ST","physicalCity":"LUFKIN","physicalState":"TX","physicalZip":"75904","mailingAddress":"302 HOUSE ST","mailingCity":"LUFKIN","mailingState":"TX","mailingZip":"75904","ownership":"100.0000000000%","showOwnerProperty":false,"ownerProperty":[{"propertyId":"58052","propertyAddress":"302 HOUSE ST LUFKIN, TX 75904-4024","name":"RAMSEY JOHN MARK","price":"$49,270","territory":"32","inTerritory":true}],"improvements":[{"id":0,"improvement":"RESIDENTIAL","livingArea":"1280.0 sqft","value":"$39,710","details":[{"id":0,"description":"MAIN AREA","yearBuild":"1932","sqft":"1280.0"},{"id":0,"description":"OPEN FRAME PORCH","yearBuild":"1932","sqft":"24.0"},{"id":0,"description":"OPEN FRAME PORCH","yearBuild":"1932","sqft":"24.0"}]},{"id":2,"improvement":"MISC IMP","livingArea":" sqft","value":"$940","details":[{"id":2,"description":"GARAGE FR DETACHED","yearBuild":"1932","sqft":"240.0"}]},{"id":4,"improvement":"MISC IMP","livingArea":" sqft","value":"$190","details":[{"id":4,"description":"SHED FR UTILITY","yearBuild":"1932","sqft":"130.0"}]}],"lands":[{"landType":"RESIDENTIAL","acres":"0.0861","sqft":"3750.00","marketValue":"$2,810","prodValue":"$0"},{"landType":"RESIDENTIAL","acres":"0.0861","sqft":"3750.00","marketValue":"$2,810","prodValue":"$0"},{"landType":"RESIDENTIAL","acres":"0.0861","sqft":"3750.00","marketValue":"$2,810","prodValue":"$0"}],"coordinates":{"id":"58052","lat":"31.328096","lng":"-94.731044"},"thumbnail":"58052","error":false,"urlOwnerDetails":"https://propaccess.trueautomation.com/clientdb/Property.aspx?cid=71&prop_id=58052","urlLandMap":"https://propaccess.trueautomation.com/mapSearch/?cid=71&p=58052","territoryNumber":"32","phoneNumbers":[{"_id":"","name":"","contacts":[{"phoneNumber":"","address":""}]}]},{"_id":"58002","landId":"58002","ownerId":"155699","allTrue":false,"exemptions":[{"name":"EMPTY","description":"No Tax Exemption Listed."}],"nameDeedSame":true,"addressSame":false,"name":"SAPCON INVESTMENTS LLC 309 W KERR SERIES","deed":"SAPCON INVESTMENTS LLC 309 W KERR SERIES","physicalAddress":"309 W KERR","physicalCity":"","physicalState":"","physicalZip":"","mailingAddress":"PO BOX 151106","mailingCity":"LUFKIN","mailingState":"TX","mailingZip":"75915","ownership":"100.0000000000%","showOwnerProperty":false,"ownerProperty":[{"propertyId":"58002","propertyAddress":"309 W KERR","name":"SAPCON INVESTMENTS LLC 309 W KERR SERIES","price":"$60,440","territory":"32","inTerritory":true}],"improvements":[{"id":0,"improvement":"RESIDENTIAL","livingArea":"1810.0 sqft","value":"$55,180","details":[{"id":0,"description":"MAIN AREA","yearBuild":"1940","sqft":"1810.0"},{"id":0,"description":"OPEN FRAME PORCH","yearBuild":"1940","sqft":"48.0"},{"id":0,"description":"OPEN FRAME PORCH","yearBuild":"1940","sqft":"75.0"},{"id":0,"description":"CANOPY","yearBuild":"1940","sqft":"657.0"}]}],"lands":[{"landType":"RESIDENTIAL","acres":"0.2410","sqft":"10497.96","marketValue":"$5,260","prodValue":"$0"}],"coordinates":{"id":"58002","lat":"31.329339","lng":"-94.732458"},"thumbnail":"58002","error":false,"urlOwnerDetails":"https://propaccess.trueautomation.com/clientdb/Property.aspx?cid=71&prop_id=58002","urlLandMap":"https://propaccess.trueautomation.com/mapSearch/?cid=71&p=58002","territoryNumber":"32","phoneNumbers":[{"_id":"","name":"","contacts":[{"phoneNumber":"","address":""}]}]},{"_id":"58037","landId":"58037","ownerId":"136318","allTrue":false,"exemptions":[{"name":"EMPTY","description":"No Tax Exemption Listed."}],"nameDeedSame":true,"addressSame":false,"name":"SCHAEFFER RONALD J","deed":"SCHAEFFER RONALD J","physicalAddress":"309 PERSHING AVE","physicalCity":"LUFKIN","physicalState":"TX","physicalZip":"75904","mailingAddress":"1160 COX RD","mailingCity":"LUFKIN","mailingState":"TX","mailingZip":"75904","ownership":"100.0000000000%","showOwnerProperty":false,"ownerProperty":[{"propertyId":"58037","propertyAddress":"309 PERSHING AVE LUFKIN, TX 75904-3929","name":"SCHAEFFER RONALD J","price":"$94,240","territory":"32","inTerritory":true}],"improvements":[{"id":0,"improvement":"RESIDENTIAL","livingArea":"1866.0 sqft","value":"$85,860","details":[{"id":0,"description":"MAIN AREA","yearBuild":"1983","sqft":"1866.0"},{"id":0,"description":"OPEN BRICK PORCH","yearBuild":"1983","sqft":"48.0"},{"id":0,"description":"OPEN BRICK PORCH","yearBuild":"1983","sqft":"48.0"},{"id":0,"description":"OPEN BRICK PORCH","yearBuild":"1983","sqft":"104.0"}]}],"lands":[{"landType":"RESIDENTIAL","acres":"0.1280","sqft":"5576.00","marketValue":"$4,190","prodValue":"$0"},{"landType":"RESIDENTIAL","acres":"0.1280","sqft":"5575.00","marketValue":"$4,190","prodValue":"$0"}],"coordinates":{"id":"58037","lat":"31.328559","lng":"-94.732071"},"thumbnail":"58037","error":false,"urlOwnerDetails":"https://propaccess.trueautomation.com/clientdb/Property.aspx?cid=71&prop_id=58037","urlLandMap":"https://propaccess.trueautomation.com/mapSearch/?cid=71&p=58037","territoryNumber":"32","phoneNumbers":[{"_id":"b50b96e3f0609fcfaefc949f0848f51b","name":"Schaeffer, Ronald","contacts":[{"phoneNumber":"936-875-4744","address":"1160 Cox Rd Lufkin\n"}]}]},{"_id":"58039","landId":"58039","ownerId":"136318","allTrue":false,"exemptions":[{"name":"EMPTY","description":"No Tax Exemption Listed."}],"nameDeedSame":true,"addressSame":false,"name":"SCHAEFFER RONALD J","deed":"SCHAEFFER RONALD J","physicalAddress":"305/307 PERSHING AVE","physicalCity":"","physicalState":"","physicalZip":"","mailingAddress":"1160 COX RD","mailingCity":"LUFKIN","mailingState":"TX","mailingZip":"75904","ownership":"100.0000000000%","showOwnerProperty":false,"ownerProperty":[{"propertyId":"58039","propertyAddress":"305/307 PERSHING AVE","name":"SCHAEFFER RONALD J","price":"$94,100","territory":"32","inTerritory":false}],"improvements":[{"id":0,"improvement":"RESIDENTIAL","livingArea":"1866.0 sqft","value":"$85,860","details":[{"id":0,"description":"MAIN AREA","yearBuild":"1983","sqft":"1866.0"},{"id":0,"description":"OPEN BRICK PORCH","yearBuild":"1983","sqft":"48.0"},{"id":0,"description":"OPEN BRICK PORCH","yearBuild":"1983","sqft":"48.0"},{"id":0,"description":"OPEN BRICK PORCH","yearBuild":"1983","sqft":"104.0"}]}],"lands":[{"landType":"RESIDENTIAL","acres":"0.1110","sqft":"4835.00","marketValue":"$4,120","prodValue":"$0"},{"landType":"RESIDENTIAL","acres":"0.1110","sqft":"4835.00","marketValue":"$4,120","prodValue":"$0"}],"coordinates":{"id":"58039","lat":"31.328632","lng":"-94.731811"},"thumbnail":"58039","error":false,"urlOwnerDetails":"https://propaccess.trueautomation.com/clientdb/Property.aspx?cid=71&prop_id=58039","urlLandMap":"https://propaccess.trueautomation.com/mapSearch/?cid=71&p=58039","territoryNumber":"32","phoneNumbers":[{"_id":"b50b96e3f0609fcfaefc949f0848f51b","name":"Schaeffer, Ronald","contacts":[{"phoneNumber":"936-875-4744","address":"1160 Cox Rd Lufkin\n"}]}]},{"_id":"54156","landId":"54156","ownerId":"1906","allTrue":false,"exemptions":[{"name":"EMPTY","description":"No Tax Exemption Listed."}],"nameDeedSame":false,"addressSame":false,"name":"THOMAS SCOTT BLAINE","deed":"DREW VIRGINIA","physicalAddress":"612 PARK LANE","physicalCity":"","physicalState":"","physicalZip":"","mailingAddress":"206 EASTWEGO RD","mailingCity":"LUFKIN","mailingState":"TX","mailingZip":"75901","ownership":"100.0000000000%","showOwnerProperty":false,"ownerProperty":[{"propertyId":"54156","propertyAddress":"612 PARK LANE","name":"THOMAS SCOTT BLAINE","price":"$5,060","territory":"32","inTerritory":true}],"improvements":[],"lands":[{"landType":"RESIDENTIAL","acres":"0.1697","sqft":"7392.00","marketValue":"$5,060","prodValue":"$0"}],"coordinates":{"id":"54156","lat":"31.326502","lng":"-94.734814"},"thumbnail":"54156","error":false,"urlOwnerDetails":"https://propaccess.trueautomation.com/clientdb/Property.aspx?cid=71&prop_id=54156","urlLandMap":"https://propaccess.trueautomation.com/mapSearch/?cid=71&p=54156","territoryNumber":"32","phoneNumbers":[{"_id":"","name":"","contacts":[{"phoneNumber":"","address":""}]}]},{"_id":"54157","landId":"54157","ownerId":"1906","allTrue":false,"exemptions":[{"name":"EMPTY","description":"No Tax Exemption Listed."}],"nameDeedSame":false,"addressSame":false,"name":"THOMAS SCOTT BLAINE","deed":"DREW VIRGINIA","physicalAddress":"612 PARK LN","physicalCity":"LUFKIN","physicalState":"TX","physicalZip":"75904","mailingAddress":"206 EASTWEGO RD","mailingCity":"LUFKIN","mailingState":"TX","mailingZip":"75901","ownership":"100.0000000000%","showOwnerProperty":false,"ownerProperty":[{"propertyId":"54157","propertyAddress":"612 PARK LN LUFKIN, TX 75904-4062","name":"THOMAS SCOTT BLAINE","price":"$46,160","territory":"32","inTerritory":true}],"improvements":[{"id":0,"improvement":"RESIDENTIAL","livingArea":"1369.0 sqft","value":"$40,280","details":[{"id":0,"description":"MAIN AREA","yearBuild":"1945","sqft":"1369.0"},{"id":0,"description":"OPEN FRAME PORCH","yearBuild":"1945","sqft":"36.0"},{"id":0,"description":"CANOPY","yearBuild":"1945","sqft":"160.0"}]},{"id":2,"improvement":"MISC IMP","livingArea":" sqft","value":"$1,300","details":[{"id":2,"description":"GARAGE FR DETACHED","yearBuild":"1945","sqft":"440.0"}]}],"lands":[{"landType":"RESIDENTIAL","acres":"0.1537","sqft":"6696.00","marketValue":"$4,580","prodValue":"$0"}],"coordinates":{"id":"54157","lat":"31.326551","lng":"-94.734993"},"thumbnail":"54157","error":false,"urlOwnerDetails":"https://propaccess.trueautomation.com/clientdb/Property.aspx?cid=71&prop_id=54157","urlLandMap":"https://propaccess.trueautomation.com/mapSearch/?cid=71&p=54157","territoryNumber":"32","phoneNumbers":[{"_id":"","name":"","contacts":[{"phoneNumber":"","address":""}]}]},{"_id":"58064","landId":"58064","ownerId":"131378","allTrue":false,"exemptions":[{"name":"EMPTY","description":"No Tax Exemption Listed."}],"nameDeedSame":true,"addressSame":false,"name":"VARGAS MAYRA L","deed":"VARGAS MAYRA L","physicalAddress":"920 S RAGUET","physicalCity":"","physicalState":"","physicalZip":"","mailingAddress":"920 S RAGUET ST","mailingCity":"LUFKIN","mailingState":"TX","mailingZip":"75904","ownership":"100.0000000000%","showOwnerProperty":false,"ownerProperty":[{"propertyId":"58064","propertyAddress":"920 S RAGUET","name":"VARGAS MAYRA L","price":"$5,610","territory":"32","inTerritory":true}],"improvements":[],"lands":[{"landType":"RESIDENTIAL","acres":"0.2583","sqft":"11250.00","marketValue":"$5,610","prodValue":"$0"}],"coordinates":{"id":"58064","lat":"31.328499","lng":"-94.730171"},"thumbnail":"58064","error":false,"urlOwnerDetails":"https://propaccess.trueautomation.com/clientdb/Property.aspx?cid=71&prop_id=58064","urlLandMap":"https://propaccess.trueautomation.com/mapSearch/?cid=71&p=58064","territoryNumber":"32","phoneNumbers":[{"_id":"eb8b4e8ed6793ed9eb287f3e61063f7a","name":"Vargas, Mayra","contacts":[{"phoneNumber":"936-639-3894","address":"920 S Raguet St Lufkin\n"}]}]},{"_id":"58063","landId":"58063","ownerId":"131378","allTrue":true,"exemptions":[{"name":"HS","description":"Homestead. (The person on the deed lives at this address.)"}],"nameDeedSame":true,"addressSame":true,"name":"VARGAS MAYRA L","deed":"VARGAS MAYRA L","physicalAddress":"920 S RAGUET ST","physicalCity":"LUFKIN","physicalState":"TX","physicalZip":"75904","mailingAddress":"920 S RAGUET ST","mailingCity":"LUFKIN","mailingState":"TX","mailingZip":"75904","ownership":"100.0000000000%","showOwnerProperty":false,"ownerProperty":[{"propertyId":"58063","propertyAddress":"920 S RAGUET ST LUFKIN, TX 75904-4025","name":"VARGAS MAYRA L","price":"$64,590","territory":"32","inTerritory":true}],"improvements":[{"id":0,"improvement":"RESIDENTIAL","livingArea":"1482.0 sqft","value":"$58,360","details":[{"id":0,"description":"MAIN AREA","yearBuild":"1919","sqft":"1482.0"},{"id":0,"description":"OPEN FRAME PORCH","yearBuild":"1919","sqft":"161.0"},{"id":0,"description":"ENCLOSED FR PORCH","yearBuild":"1919","sqft":"112.0"}]},{"id":2,"improvement":"MISC IMP","livingArea":" sqft","value":"$620","details":[{"id":2,"description":"GARAGE FR DETACHED","yearBuild":"1919","sqft":"360.0"}]}],"lands":[{"landType":"RESIDENTIAL","acres":"0.2583","sqft":"11250.00","marketValue":"$5,610","prodValue":"$0"}],"coordinates":{"id":"58063","lat":"31.328306","lng":"-94.730083"},"thumbnail":"58063","error":false,"urlOwnerDetails":"https://propaccess.trueautomation.com/clientdb/Property.aspx?cid=71&prop_id=58063","urlLandMap":"https://propaccess.trueautomation.com/mapSearch/?cid=71&p=58063","territoryNumber":"32","phoneNumbers":[{"_id":"eb8b4e8ed6793ed9eb287f3e61063f7a","name":"Vargas, Mayra","contacts":[{"phoneNumber":"936-639-3894","address":"920 S Raguet St Lufkin\n"}]}]},{"_id":"54152","landId":"54152","ownerId":"130475","allTrue":false,"exemptions":[{"name":"EMPTY","description":"No Tax Exemption Listed."}],"nameDeedSame":true,"addressSame":false,"name":"VELAZQUEZ OCTAVIO","deed":"VELAZQUEZ OCTAVIO","physicalAddress":"510 PARK LN","physicalCity":"LUFKIN","physicalState":"TX","physicalZip":"75904","mailingAddress":"915 MARKUS AVE","mailingCity":"LUFKIN","mailingState":"TX","mailingZip":"75904","ownership":"100.0000000000%","showOwnerProperty":false,"ownerProperty":[{"propertyId":"54152","propertyAddress":"510 PARK LN LUFKIN, TX 75904-4034","name":"VELAZQUEZ OCTAVIO","price":"$96,970","territory":"32","inTerritory":true}],"improvements":[{"id":0,"improvement":"RESIDENTIAL","livingArea":"1629.0 sqft","value":"$88,990","details":[{"id":0,"description":"MAIN AREA","yearBuild":"1966","sqft":"1629.0"},{"id":0,"description":"CARPORT","yearBuild":"1969","sqft":"480.0"},{"id":0,"description":"OPEN FRAME PORCH","yearBuild":"1966","sqft":"48.0"}]}],"lands":[{"landType":"RESIDENTIAL","acres":"0.1928","sqft":"8400.00","marketValue":"$7,980","prodValue":"$0"}],"coordinates":{"id":"54152","lat":"31.326360","lng":"-94.733956"},"thumbnail":"54152","error":false,"urlOwnerDetails":"https://propaccess.trueautomation.com/clientdb/Property.aspx?cid=71&prop_id=54152","urlLandMap":"https://propaccess.trueautomation.com/mapSearch/?cid=71&p=54152","territoryNumber":"32","phoneNumbers":[{"_id":"","name":"","contacts":[{"phoneNumber":"","address":""}]}]},{"_id":"98397","landId":"98397","ownerId":"172576","allTrue":false,"exemptions":[{"name":"DV4","description":"Disabled Veterans 70% - 100%."}],"nameDeedSame":true,"addressSame":false,"name":"WHIPPLE JIMMIE RAY","deed":"WHIPPLE JIMMIE RAY","physicalAddress":"306 HOUSE","physicalCity":"","physicalState":"","physicalZip":"","mailingAddress":"1440 SLEEPY HOLLOW DR","mailingCity":"LUFKIN","mailingState":"TX","mailingZip":"75904","ownership":"100.0000000000%","showOwnerProperty":false,"ownerProperty":[{"propertyId":"98397","propertyAddress":"306 HOUSE","name":"WHIPPLE JIMMIE RAY","price":"$130,560","territory":"32","inTerritory":true}],"improvements":[{"id":0,"improvement":"RESIDENTIAL","livingArea":"1376.0 sqft","value":"$122,140","details":[{"id":0,"description":"MAIN AREA","yearBuild":"2006","sqft":"1376.0"},{"id":0,"description":"GARAGE BRICK/MAS","yearBuild":"2006","sqft":"299.0"},{"id":0,"description":"OPEN BRICK PORCH","yearBuild":"2006","sqft":"52.0"}]}],"lands":[{"landType":"RESIDENTIAL","acres":"0.2580","sqft":"11240.00","marketValue":"$8,420","prodValue":"$0"}],"coordinates":{"id":"98397","lat":"31.328021","lng":"-94.731274"},"thumbnail":"98397","error":false,"urlOwnerDetails":"https://propaccess.trueautomation.com/clientdb/Property.aspx?cid=71&prop_id=98397","urlLandMap":"https://propaccess.trueautomation.com/mapSearch/?cid=71&p=98397","territoryNumber":"32","phoneNumbers":[{"_id":"a9786532bc0bb2eb2b345bff9352b03f","name":"Whipple, Jim &amp; Pat","contacts":[{"phoneNumber":"936-632-3533","address":"1440 Sleepy Hollow Dr Lufkin\n"}]}]},{"_id":"57996","landId":"57996","ownerId":"29246","allTrue":true,"exemptions":[{"name":"OTHER","description":"Exemption not listed."},{"name":"HS","description":"Homestead. (The person on the deed lives at this address.)"}],"nameDeedSame":true,"addressSame":true,"name":"WHITAKER VINCE H ETUX JO","deed":"WHITAKER VINCE H ETUX JO","physicalAddress":"928 TURNER ST","physicalCity":"LUFKIN","physicalState":"TX","physicalZip":"75904","mailingAddress":"928 TURNER ST","mailingCity":"LUFKIN","mailingState":"TX","mailingZip":"75904","ownership":"100.0000000000%","showOwnerProperty":false,"ownerProperty":[{"propertyId":"57996","propertyAddress":"928 TURNER ST LUFKIN, TX 75904-3934","name":"WHITAKER VINCE H ETUX JO","price":"$99,450","territory":"32","inTerritory":true}],"improvements":[{"id":0,"improvement":"RESIDENTIAL","livingArea":"1566.0 sqft","value":"$86,700","details":[{"id":0,"description":"MAIN AREA","yearBuild":"1940","sqft":"1566.0"},{"id":0,"description":"OPEN FRAME PORCH","yearBuild":"1940","sqft":"160.0"}]},{"id":2,"improvement":"MISC IMP","livingArea":" sqft","value":"$4,490","details":[{"id":2,"description":"PREFAB STEEL BLDG","yearBuild":"2016","sqft":"480.0"},{"id":2,"description":"PREFAB STEEL BLDG","yearBuild":"2016","sqft":"120.0"}]}],"lands":[{"landType":"RESIDENTIAL","acres":"0.2273","sqft":"9900.00","marketValue":"$8,260","prodValue":"$0"}],"coordinates":{"id":"57996","lat":"31.329128","lng":"-94.731651"},"thumbnail":"57996","error":false,"urlOwnerDetails":"https://propaccess.trueautomation.com/clientdb/Property.aspx?cid=71&prop_id=57996","urlLandMap":"https://propaccess.trueautomation.com/mapSearch/?cid=71&p=57996","territoryNumber":"32","phoneNumbers":[{"_id":"","name":"","contacts":[{"phoneNumber":"","address":""}]}]},{"_id":"54126","landId":"54126","ownerId":"130284","allTrue":true,"exemptions":[{"name":"HS","description":"Homestead. (The person on the deed lives at this address.)"}],"nameDeedSame":true,"addressSame":true,"name":"WILSON HARRY D ETUX MARIETTA","deed":"WILSON HARRY D ETUX MARIETTA","physicalAddress":"422 HOUSE ST","physicalCity":"LUFKIN","physicalState":"TX","physicalZip":"75904","mailingAddress":"422 HOUSE ST","mailingCity":"LUFKIN","mailingState":"TX","mailingZip":"75904","ownership":"100.0000000000%","showOwnerProperty":false,"ownerProperty":[{"propertyId":"54126","propertyAddress":"422 HOUSE ST LUFKIN, TX 75904-4042","name":"WILSON HARRY D ETUX MARIETTA","price":"$144,680","territory":"32","inTerritory":true}],"improvements":[{"id":0,"improvement":"RESIDENTIAL","livingArea":"2272.0 sqft","value":"$130,280","details":[{"id":0,"description":"MAIN AREA","yearBuild":"1941","sqft":"1056.0"},{"id":0,"description":"MAIN AREA","yearBuild":"1941","sqft":"160.0"},{"id":0,"description":"CARPORT","yearBuild":"1941","sqft":"528.0"},{"id":0,"description":"MAIN AREA","yearBuild":"1941","sqft":"1056.0"}]},{"id":2,"improvement":"MISC IMP","livingArea":" sqft","value":"$6,400","details":[{"id":2,"description":"POOL PL LINER","yearBuild":"1980","sqft":"800.0"}]}],"lands":[{"landType":"RESIDENTIAL","acres":"0.1807","sqft":"7870.00","marketValue":"$3,810","prodValue":"$0"},{"landType":"RESIDENTIAL","acres":"0.1807","sqft":"7870.00","marketValue":"$3,810","prodValue":"$0"},{"landType":"RESIDENTIAL","acres":"0.1807","sqft":"7870.00","marketValue":"$380","prodValue":"$0"}],"coordinates":{"id":"54126","lat":"31.327466","lng":"-94.733250"},"thumbnail":"54126","error":false,"urlOwnerDetails":"https://propaccess.trueautomation.com/clientdb/Property.aspx?cid=71&prop_id=54126","urlLandMap":"https://propaccess.trueautomation.com/mapSearch/?cid=71&p=54126","territoryNumber":"32","phoneNumbers":[{"_id":"","name":"","contacts":[{"phoneNumber":"","address":""}]}]},{"_id":"54153","landId":"54153","ownerId":"5298","allTrue":false,"exemptions":[{"name":"EMPTY","description":"No Tax Exemption Listed."}],"nameDeedSame":true,"addressSame":false,"name":"WORTHEN NATHAN LEE","deed":"WORTHEN NATHAN LEE","physicalAddress":"512 PARK LN","physicalCity":"","physicalState":"","physicalZip":"","mailingAddress":"4087 OLD UNION RD","mailingCity":"LUFKIN","mailingState":"TX","mailingZip":"75904","ownership":"100.0000000000%","showOwnerProperty":false,"ownerProperty":[],"improvements":[{"id":0,"improvement":"RESIDENTIAL","livingArea":"1470.0 sqft","value":"$52,910","details":[{"id":0,"description":"MAIN AREA","yearBuild":"1940","sqft":"1470.0"},{"id":0,"description":"OPEN FRAME PORCH","yearBuild":"1940","sqft":"120.0"}]},{"id":2,"improvement":"MISC IMP","livingArea":" sqft","value":"$710","details":[{"id":2,"description":"GARAGE FR DETACHED","yearBuild":"1940","sqft":"480.0"}]}],"lands":[{"landType":"RESIDENTIAL","acres":"0.1997","sqft":"8700.00","marketValue":"$8,060","prodValue":"$0"}],"coordinates":{"id":"54153","lat":"31.326313","lng":"-94.734192"},"thumbnail":"54153","error":false,"urlOwnerDetails":"https://propaccess.trueautomation.com/clientdb/Property.aspx?cid=71&prop_id=54153","urlLandMap":"https://propaccess.trueautomation.com/mapSearch/?cid=71&p=54153","territoryNumber":"32","phoneNumbers":[{"_id":"","name":"","contacts":[{"phoneNumber":"","address":""}]}]}]},"__N_SSG":true}